sensor,time,seconds_elapsed,z,y,x,relativeAltitude,pressure,batteryLevel,batteryState,lowPowerMode,brightness,lux,bearingAccuracy,speedAccuracy,verticalAccuracy,horizontalAccuracy,speed,bearing,altitude,longitude,latitude,version,device name,recording time,platform,appVersion,device id,sensors,sampleRateMs,qz,qy,qx,qw,roll,pitch,yaw
Barometer,1.6820861618180925e+18,0.188092529296875,,,,0.0,973.050048828125,,,,,,,,,,,,,,,,,,,,,,,,,,,,,
Barometer,1.682086161843224e+18,0.21322412109375,,,,0.7371826171875,972.964599609375,,,,,,,,,,,,,,,,,,,,,,,,,,,,,
Barometer,1.682086161868368e+18,0.238367919921875,,,,1.313201904296875,972.8974609375,,,,,,,,,,,,,,,,,,,,,,,,,,,,,
Barometer,1.682086161893521e+18,0.26352099609375,,,,1.130889892578125,972.9188232421875,,,,,,,,,,,,,,,,,,,,,,,,,,,,,
Barometer,1.6820861619186634e+18,0.288663330078125,,,,0.91949462890625,972.9432373046875,,,,,,,,,,,,,,,,,,,,,,,,,,,,,
Barometer,1.6820861619438044e+18,0.313804443359375,,,,1.183746337890625,972.9127197265625,,,,,,,,,,,,,,,,,,,,,,,,,,,,,
Barometer,1.682086161968938e+18,0.33893798828125,,,,1.392486572265625,972.8883056640625,,,,,,,,,,,,,,,,,,,,,,,,,,,,,
Barometer,1.682086161994092e+18,0.364092041015625,,,,1.47174072265625,972.879150390625,,,,,,,,,,,,,,,,,,,,,,,,,,,,,
Barometer,1.6820861620192346e+18,0.389234619140625,,,,1.630279541015625,972.86083984375,,,,,,,,,,,,,,,,,,,,,,,,,,,,,
Barometer,1.6820861620443692e+18,0.414369140625,,,,1.654052734375,972.8577880859375,,,,,,,,,,,,,,,,,,,,,,,,,,,,,
Barometer,1.6820861620695237e+18,0.439523681640625,,,,1.366058349609375,972.891357421875,,,,,,,,,,,,,,,,,,,,,,,,,,,,,
Barometer,1.6820861620946563e+18,0.46465625,,,,1.104461669921875,972.921875,,,,,,,,,,,,,,,,,,,,,,,,,,,,,
Barometer,1.6820861621197993e+18,0.48979931640625,,,,1.130889892578125,972.9188232421875,,,,,,,,,,,,,,,,,,,,,,,,,,,,,
Barometer,1.6820861621449444e+18,0.5149443359375,,,,0.893096923828125,972.9462890625,,,,,,,,,,,,,,,,,,,,,,,,,,,,,
Barometer,1.6820861621700892e+18,0.540089111328125,,,,0.23779296875,973.0225830078125,,,,,,,,,,,,,,,,,,,,,,,,,,,,,
Barometer,1.6820861621952338e+18,0.56523388671875,,,,-0.208740234375,973.074462890625,,,,,,,,,,,,,,,,,,,,,,,,,,,,,
Barometer,1.6820861622203768e+18,0.590376953125,,,,0.0528564453125,973.0439453125,,,,,,,,,,,,,,,,,,,,,,,,,,,,,
Barometer,1.6820861622455235e+18,0.6155234375,,,,0.710784912109375,972.9676513671875,,,,,,,,,,,,,,,,,,,,,,,,,,,,,
Barometer,1.682086162270674e+18,0.640673828125,,,,1.286773681640625,972.9005126953125,,,,,,,,,,,,,,,,,,,,,,,,,,,,,
Barometer,1.6820861622958203e+18,0.6658203125,,,,1.865447998046875,972.8333740234375,,,,,,,,,,,,,,,,,,,,,,,,,,,,,
Barometer,1.6820861623209674e+18,0.690967529296875,,,,2.2591552734375,972.78759765625,,,,,,,,,,,,,,,,,,,,,,,,,,,,,
Barometer,1.682086162346106e+18,0.716106201171875,,,,2.1534423828125,972.7998046875,,,,,,,,,,,,,,,,,,,,,,,,,,,,,
Barometer,1.6820861623712504e+18,0.74125048828125,,,,1.603851318359375,972.8638916015625,,,,,,,,,,,,,,,,,,,,,,,,,,,,,
Barometer,1.6820861623963914e+18,0.766391357421875,,,,1.313201904296875,972.8974609375,,,,,,,,,,,,,,,,,,,,,,,,,,,,,
Barometer,1.682086162421535e+18,0.791534912109375,,,,1.4981689453125,972.8760986328125,,,,,,,,,,,,,,,,,,,,,,,,,,,,,
Barometer,1.6820861624466796e+18,0.816679443359375,,,,1.157318115234375,972.915771484375,,,,,,,,,,,,,,,,,,,,,,,,,,,,,
Barometer,1.6820861624718234e+18,0.8418232421875,,,,-0.076629638671875,973.0592041015625,,,,,,,,,,,,,,,,,,,,,,,,,,,,,
Barometer,1.6820861624969654e+18,0.86696533203125,,,,-1.18109130859375,973.1873779296875,,,,,,,,,,,,,,,,,,,,,,,,,,,,,
Barometer,1.6820861625221074e+18,0.892107421875,,,,-1.1546630859375,973.184326171875,,,,,,,,,,,,,,,,,,,,,,,,,,,,,
Barometer,1.682086162547253e+18,0.9172529296875,,,,-0.208740234375,973.074462890625,,,,,,,,,,,,,,,,,,,,,,,,,,,,,
Barometer,1.682086162572385e+18,0.942385009765625,,,,0.97235107421875,972.9371337890625,,,,,,,,,,,,,,,,,,,,,,,,,,,,,
Barometer,1.6820861625975406e+18,0.96754052734375,,,,1.759765625,972.8455200195312,,,,,,,,,,,,,,,,,,,,,,,,,,,,,
Barometer,1.6820861626226737e+18,0.992673583984375,,,,2.12701416015625,972.8028564453125,,,,,,,,,,,,,,,,,,,,,,,,,,,,,
Barometer,1.6820861626478285e+18,1.017828369140625,,,,2.41766357421875,972.769287109375,,,,,,,,,,,,,,,,,,,,,,,,,,,,,
Barometer,1.6820861626729733e+18,1.042973388671875,,,,2.73211669921875,972.732666015625,,,,,,,,,,,,,,,,,,,,,,,,,,,,,
Barometer,1.682086162698108e+18,1.06810791015625,,,,2.444091796875,972.7662353515625,,,,,,,,,,,,,,,,,,,,,,,,,,,,,
Barometer,1.682086162723261e+18,1.093260986328125,,,,1.02520751953125,972.9310302734375,,,,,,,,,,,,,,,,,,,,,,,,,,,,,
Barometer,1.6820861627484045e+18,1.118404541015625,,,,-0.996124267578125,973.166015625,,,,,,,,,,,,,,,,,,,,,,,,,,,,,
Barometer,1.6820861627735619e+18,1.143561767578125,,,,-2.17724609375,973.3033447265625,,,,,,,,,,,,,,,,,,,,,,,,,,,,,
Barometer,1.6820861627986929e+18,1.16869287109375,,,,-1.495513916015625,973.2239990234375,,,,,,,,,,,,,,,,,,,,,,,,,,,,,
Barometer,1.6820861628238305e+18,1.19383056640625,,,,0.0528564453125,973.0439453125,,,,,,,,,,,,,,,,,,,,,,,,,,,,,
Barometer,1.682086162848975e+18,1.21897509765625,,,,0.998779296875,972.93408203125,,,,,,,,,,,,,,,,,,,,,,,,,,,,,
Barometer,1.6820861628741258e+18,1.244125732421875,,,,1.7069091796875,972.8516845703125,,,,,,,,,,,,,,,,,,,,,,,,,,,,,
Barometer,1.6820861628992737e+18,1.269273681640625,,,,2.758544921875,972.7296142578125,,,,,,,,,,,,,,,,,,,,,,,,,,,,,
Barometer,1.6820861629244076e+18,1.294407470703125,,,,3.75732421875,972.6136474609375,,,,,,,,,,,,,,,,,,,,,,,,,,,,,
Barometer,1.6820861629495613e+18,1.319561279296875,,,,3.8603515625,972.6014404296875,,,,,,,,,,,,,,,,,,,,,,,,,,,,,
Barometer,1.6820861629747046e+18,1.34470458984375,,,,2.494293212890625,972.7601318359375,,,,,,,,,,,,,,,,,,,,,,,,,,,,,
Barometer,1.6820861629998382e+18,1.369838134765625,,,,-0.340850830078125,973.0897216796875,,,,,,,,,,,,,,,,,,,,,,,,,,,,,
Barometer,1.6820861630249928e+18,1.39499267578125,,,,-2.1243896484375,973.2972412109375,,,,,,,,,,,,,,,,,,,,,,,,,,,,,
Barometer,1.6820861630501363e+18,1.42013623046875,,,,-1.284149169921875,973.1995849609375,,,,,,,,,,,,,,,,,,,,,,,,,,,,,
Barometer,1.68208616307528e+18,1.44527978515625,,,,0.02642822265625,973.0469970703125,,,,,,,,,,,,,,,,,,,,,,,,,,,,,
Barometer,1.682086163100425e+18,1.470425048828125,,,,-0.129486083984375,973.0653076171875,,,,,,,,,,,,,,,,,,,,,,,,,,,,,
Barometer,1.6820861631255698e+18,1.49556982421875,,,,0.132110595703125,973.0347900390625,,,,,,,,,,,,,,,,,,,,,,,,,,,,,
Barometer,1.6820861631507034e+18,1.520703369140625,,,,2.1534423828125,972.7998046875,,,,,,,,,,,,,,,,,,,,,,,,,,,,,
Barometer,1.682086163175859e+18,1.54585888671875,,,,3.83392333984375,972.6044921875,,,,,,,,,,,,,,,,,,,,,,,,,,,,,
Barometer,1.6820861632010025e+18,1.57100244140625,,,,4.12457275390625,972.5709228515625,,,,,,,,,,,,,,,,,,,,,,,,,,,,,
Barometer,1.6820861632261443e+18,1.596144287109375,,,,3.2579345703125,972.671630859375,,,,,,,,,,,,,,,,,,,,,,,,,,,,,
Barometer,1.6820861632512952e+18,1.621295166015625,,,,1.130889892578125,972.9188232421875,,,,,,,,,,,,,,,,,,,,,,,,,,,,,
Barometer,1.6820861632764306e+18,1.6464306640625,,,,-1.1546630859375,973.184326171875,,,,,,,,,,,,,,,,,,,,,,,,,,,,,
Barometer,1.682086163301574e+18,1.671573974609375,,,,-1.1546630859375,973.184326171875,,,,,,,,,,,,,,,,,,,,,,,,,,,,,
Barometer,1.6820861633267177e+18,1.6967177734375,,,,0.893096923828125,972.9462890625,,,,,,,,,,,,,,,,,,,,,,,,,,,,,
Barometer,1.6820861633518492e+18,1.72184912109375,,,,1.865447998046875,972.8333740234375,,,,,,,,,,,,,,,,,,,,,,,,,,,,,
Barometer,1.6820861633769848e+18,1.74698486328125,,,,1.157318115234375,972.915771484375,,,,,,,,,,,,,,,,,,,,,,,,,,,,,
Barometer,1.682086163402133e+18,1.772133056640625,,,,0.998779296875,972.93408203125,,,,,,,,,,,,,,,,,,,,,,,,,,,,,
Barometer,1.682086163427275e+18,1.79727490234375,,,,2.391265869140625,972.7723388671875,,,,,,,,,,,,,,,,,,,,,,,,,,,,,
Barometer,1.6820861634524186e+18,1.82241845703125,,,,3.413818359375,972.6533203125,,,,,,,,,,,,,,,,,,,,,,,,,,,,,
Barometer,1.6820861634775616e+18,1.8475615234375,,,,3.75732421875,972.6136474609375,,,,,,,,,,,,,,,,,,,,,,,,,,,,,
Barometer,1.6820861635027044e+18,1.872704345703125,,,,3.046539306640625,972.696044921875,,,,,,,,,,,,,,,,,,,,,,,,,,,,,
Barometer,1.6820861635278464e+18,1.897846435546875,,,,0.23779296875,973.0225830078125,,,,,,,,,,,,,,,,,,,,,,,,,,,,,
Barometer,1.682086163552991e+18,1.922990966796875,,,,-3.384765625,973.4437255859375,,,,,,,,,,,,,,,,,,,,,,,,,,,,,
Barometer,1.6820861635781422e+18,1.94814208984375,,,,-4.51300048828125,973.574951171875,,,,,,,,,,,,,,,,,,,,,,,,,,,,,
Barometer,1.6820861636032893e+18,1.973289306640625,,,,-2.518096923828125,973.343017578125,,,,,,,,,,,,,,,,,,,,,,,,,,,,,
Barometer,1.682086163628433e+18,1.998432861328125,,,,-0.18231201171875,973.0714111328125,,,,,,,,,,,,,,,,,,,,,,,,,,,,,
Barometer,1.682086163653575e+18,2.023574951171875,,,,1.130889892578125,972.9188232421875,,,,,,,,,,,,,,,,,,,,,,,,,,,,,
Barometer,1.6820861636787164e+18,2.04871630859375,,,,2.338409423828125,972.7784423828125,,,,,,,,,,,,,,,,,,,,,,,,,,,,,
Barometer,1.6820861637038592e+18,2.073859130859375,,,,3.75732421875,972.6136474609375,,,,,,,,,,,,,,,,,,,,,,,,,,,,,
Barometer,1.682086163729e+18,2.099,,,,4.254058837890625,972.5556640625,,,,,,,,,,,,,,,,,,,,,,,,,,,,,
Barometer,1.6820861637541432e+18,2.124143310546875,,,,3.966064453125,972.5892333984375,,,,,,,,,,,,,,,,,,,,,,,,,,,,,
Barometer,1.682086163779286e+18,2.1492861328125,,,,2.573577880859375,972.7509765625,,,,,,,,,,,,,,,,,,,,,,,,,,,,,
Barometer,1.6820861638044173e+18,2.174417236328125,,,,-1.4691162109375,973.220947265625,,,,,,,,,,,,,,,,,,,,,,,,,,,,,
Barometer,1.6820861638295693e+18,2.1995693359375,,,,-6.63739013671875,973.8220825195312,,,,,,,,,,,,,,,,,,,,,,,,,,,,,
Barometer,1.682086163854713e+18,2.224713134765625,,,,-7.84490966796875,973.9625244140625,,,,,,,,,,,,,,,,,,,,,,,,,,,,,
Barometer,1.6820861638798546e+18,2.2498544921875,,,,-3.963409423828125,973.5108642578125,,,,,,,,,,,,,,,,,,,,,,,,,,,,,
Barometer,1.6820861639049948e+18,2.274994873046875,,,,-0.129486083984375,973.0653076171875,,,,,,,,,,,,,,,,,,,,,,,,,,,,,
Barometer,1.6820861639301358e+18,2.3001357421875,,,,0.7900390625,972.95849609375,,,,,,,,,,,,,,,,,,,,,,,,,,,,,
Barometer,1.682086163955279e+18,2.325279052734375,,,,1.759765625,972.8455200195312,,,,,,,,,,,,,,,,,,,,,,,,,,,,,
Barometer,1.6820861639804188e+18,2.350418701171875,,,,4.254058837890625,972.5556640625,,,,,,,,,,,,,,,,,,,,,,,,,,,,,
Barometer,1.6820861640055503e+18,2.37555029296875,,,,5.805084228515625,972.3756103515625,,,,,,,,,,,,,,,,,,,,,,,,,,,,,
Barometer,1.682086164030705e+18,2.400704833984375,,,,5.9107666015625,972.3634033203125,,,,,,,,,,,,,,,,,,,,,,,,,,,,,
Barometer,1.6820861640558474e+18,2.425847412109375,,,,5.199981689453125,972.44580078125,,,,,,,,,,,,,,,,,,,,,,,,,,,,,
Barometer,1.6820861640809795e+18,2.4509794921875,,,,1.891876220703125,972.830322265625,,,,,,,,,,,,,,,,,,,,,,,,,,,,,
Barometer,1.6820861641061222e+18,2.476122314453125,,,,-2.964630126953125,973.3948974609375,,,,,,,,,,,,,,,,,,,,,,,,,,,,,
Barometer,1.682086164131265e+18,2.50126513671875,,,,-4.460174560546875,973.56884765625,,,,,,,,,,,,,,,,,,,,,,,,,,,,,
Barometer,1.6820861641564188e+18,2.526418701171875,,,,-1.4691162109375,973.220947265625,,,,,,,,,,,,,,,,,,,,,,,,,,,,,
Barometer,1.6820861641815455e+18,2.55154541015625,,,,1.339630126953125,972.8944091796875,,,,,,,,,,,,,,,,,,,,,,,,,,,,,
Barometer,1.6820861642066893e+18,2.576689208984375,,,,1.812591552734375,972.8394775390625,,,,,,,,,,,,,,,,,,,,,,,,,,,,,
Barometer,1.682086164231837e+18,2.6018369140625,,,,2.444091796875,972.7662353515625,,,,,,,,,,,,,,,,,,,,,,,,,,,,,
Barometer,1.6820861642569723e+18,2.62697216796875,,,,4.17742919921875,972.5648193359375,,,,,,,,,,,,,,,,,,,,,,,,,,,,,
Barometer,1.6820861642821317e+18,2.652131591796875,,,,4.93841552734375,972.476318359375,,,,,,,,,,,,,,,,,,,,,,,,,,,,,
Barometer,1.6820861643072742e+18,2.677274169921875,,,,4.6741943359375,972.5068359375,,,,,,,,,,,,,,,,,,,,,,,,,,,,,
Barometer,1.6820861643324283e+18,2.70242822265625,,,,3.83392333984375,972.6044921875,,,,,,,,,,,,,,,,,,,,,,,,,,,,,
Barometer,1.6820861643575488e+18,2.727548828125,,,,1.839019775390625,972.83642578125,,,,,,,,,,,,,,,,,,,,,,,,,,,,,
Barometer,1.682086164382689e+18,2.75268896484375,,,,-0.23516845703125,973.0775146484375,,,,,,,,,,,,,,,,,,,,,,,,,,,,,
Barometer,1.6820861644078436e+18,2.777843505859375,,,,-0.68170166015625,973.12939453125,,,,,,,,,,,,,,,,,,,,,,,,,,,,,
Barometer,1.6820861644329853e+18,2.8029853515625,,,,0.2906494140625,973.0164794921875,,,,,,,,,,,,,,,,,,,,,,,,,,,,,
Barometer,1.6820861644581158e+18,2.82811572265625,,,,0.97235107421875,972.9371337890625,,,,,,,,,,,,,,,,,,,,,,,,,,,,,
Barometer,1.6820861644832689e+18,2.853268798828125,,,,0.998779296875,972.93408203125,,,,,,,,,,,,,,,,,,,,,,,,,,,,,
Barometer,1.682086164508412e+18,2.878411865234375,,,,1.4981689453125,972.8760986328125,,,,,,,,,,,,,,,,,,,,,,,,,,,,,
Barometer,1.682086164533553e+18,2.903552978515625,,,,2.65283203125,972.7418212890625,,,,,,,,,,,,,,,,,,,,,,,,,,,,,
Barometer,1.6820861645586954e+18,2.9286953125,,,,3.44024658203125,972.6502075195312,,,,,,,,,,,,,,,,,,,,,,,,,,,,,
Barometer,1.6820861645838257e+18,2.95382568359375,,,,3.75732421875,972.6136474609375,,,,,,,,,,,,,,,,,,,,,,,,,,,,,
Barometer,1.6820861646089784e+18,2.978978515625,,,,3.413818359375,972.6533203125,,,,,,,,,,,,,,,,,,,,,,,,,,,,,
Barometer,1.6820861646341087e+18,3.004108642578125,,,,1.52459716796875,972.873046875,,,,,,,,,,,,,,,,,,,,,,,,,,,,,
Barometer,1.6820861646592538e+18,3.029253662109375,,,,-2.44146728515625,973.3338623046875,,,,,,,,,,,,,,,,,,,,,,,,,,,,,
Barometer,1.682086164684395e+18,3.05439501953125,,,,-6.061370849609375,973.7550048828125,,,,,,,,,,,,,,,,,,,,,,,,,,,,,
Barometer,1.6820861647095368e+18,3.079536865234375,,,,-6.167083740234375,973.7672119140625,,,,,,,,,,,,,,,,,,,,,,,,,,,,,
Barometer,1.6820861647346803e+18,3.104680419921875,,,,-3.176025390625,973.4193115234375,,,,,,,,,,,,,,,,,,,,,,,,,,,,,
Barometer,1.6820861647598226e+18,3.129822509765625,,,,-0.393707275390625,973.0958251953125,,,,,,,,,,,,,,,,,,,,,,,,,,,,,
Barometer,1.682086164784984e+18,3.154984130859375,,,,1.104461669921875,972.921875,,,,,,,,,,,,,,,,,,,,,,,,,,,,,
Barometer,1.6820861648101043e+18,3.180104248046875,,,,2.917083740234375,972.7113037109375,,,,,,,,,,,,,,,,,,,,,,,,,,,,,
Barometer,1.682086164835261e+18,3.205260986328125,,,,4.806304931640625,972.4915771484375,,,,,,,,,,,,,,,,,,,,,,,,,,,,,
Barometer,1.6820861648603884e+18,3.230388427734375,,,,5.517059326171875,972.4091796875,,,,,,,,,,,,,,,,,,,,,,,,,,,,,
Barometer,1.6820861648855424e+18,3.25554248046875,,,,4.93841552734375,972.476318359375,,,,,,,,,,,,,,,,,,,,,,,,,,,,,
Barometer,1.6820861649106852e+18,3.280685302734375,,,,1.865447998046875,972.8333740234375,,,,,,,,,,,,,,,,,,,,,,,,,,,,,
Barometer,1.682086164935828e+18,3.305827880859375,,,,-4.251434326171875,973.54443359375,,,,,,,,,,,,,,,,,,,,,,,,,,,,,
Barometer,1.6820861649609702e+18,3.33097021484375,,,,-8.529266357421875,974.0418701171875,,,,,,,,,,,,,,,,,,,,,,,,,,,,,
Barometer,1.6820861649861115e+18,3.356111572265625,,,,-5.9556884765625,973.7427978515625,,,,,,,,,,,,,,,,,,,,,,,,,,,,,
Barometer,1.6820861650112538e+18,3.381253662109375,,,,0.446533203125,972.9981689453125,,,,,,,,,,,,,,,,,,,,,,,,,,,,,
Barometer,1.6820861650363937e+18,3.406393798828125,,,,4.43902587890625,972.5343017578125,,,,,,,,,,,,,,,,,,,,,,,,,,,,,
Barometer,1.6820861650615363e+18,3.431536376953125,,,,5.33209228515625,972.4305419921875,,,,,,,,,,,,,,,,,,,,,,,,,,,,,
Barometer,1.6820861650866708e+18,3.4566708984375,,,,6.013824462890625,972.3511962890625,,,,,,,,,,,,,,,,,,,,,,,,,,,,,
Barometer,1.6820861651118216e+18,3.481821533203125,,,,5.990020751953125,972.354248046875,,,,,,,,,,,,,,,,,,,,,,,,,,,,,
Barometer,1.682086165136947e+18,3.506947021484375,,,,5.85791015625,972.3695068359375,,,,,,,,,,,,,,,,,,,,,,,,,,,,,
Barometer,1.682086165162107e+18,3.53210693359375,,,,5.59368896484375,972.4000244140625,,,,,,,,,,,,,,,,,,,,,,,,,,,,,
Barometer,1.6820861651872507e+18,3.557250732421875,,,,1.366058349609375,972.891357421875,,,,,,,,,,,,,,,,,,,,,,,,,,,,,
Barometer,1.682086165212385e+18,3.582385009765625,,,,-6.114227294921875,973.7611083984375,,,,,,,,,,,,,,,,,,,,,,,,,,,,,
Barometer,1.6820861652375345e+18,3.607534423828125,,,,-8.449981689453125,974.03271484375,,,,,,,,,,,,,,,,,,,,,,,,,,,,,
Barometer,1.6820861652626744e+18,3.63267431640625,,,,-2.335784912109375,973.3216552734375,,,,,,,,,,,,,,,,,,,,,,,,,,,,,
Barometer,1.6820861652878208e+18,3.65782080078125,,,,4.727020263671875,972.500732421875,,,,,,,,,,,,,,,,,,,,,,,,,,,,,
Barometer,1.6820861653129526e+18,3.68295263671875,,,,6.38372802734375,972.3084716796875,,,,,,,,,,,,,,,,,,,,,,,,,,,,,
Barometer,1.682086165338108e+18,3.70810791015625,,,,5.017669677734375,972.4671630859375,,,,,,,,,,,,,,,,,,,,,,,,,,,,,
Barometer,1.6820861653632579e+18,3.7332578125,,,,4.650390625,972.5098876953125,,,,,,,,,,,,,,,,,,,,,,,,,,,,,
Barometer,1.6820861653883884e+18,3.758388427734375,,,,4.306915283203125,972.549560546875,,,,,,,,,,,,,,,,,,,,,,,,,,,,,
Barometer,1.682086165413528e+18,3.783528076171875,,,,3.83392333984375,972.6044921875,,,,,,,,,,,,,,,,,,,,,,,,,,,,,
Barometer,1.6820861654386872e+18,3.808687255859375,,,,4.203857421875,972.561767578125,,,,,,,,,,,,,,,,,,,,,,,,,,,,,
Barometer,1.6820861654638144e+18,3.833814453125,,,,1.577423095703125,972.866943359375,,,,,,,,,,,,,,,,,,,,,,,,,,,,,
Barometer,1.6820861654889649e+18,3.85896484375,,,,-7.58331298828125,973.9320068359375,,,,,,,,,,,,,,,,,,,,,,,,,,,,,
Barometer,1.6820861655141102e+18,3.884110107421875,,,,-16.9713134765625,975.0245361328125,,,,,,,,,,,,,,,,,,,,,,,,,,,,,
Barometer,1.6820861655392484e+18,3.909248291015625,,,,-16.1072998046875,974.923828125,,,,,,,,,,,,,,,,,,,,,,,,,,,,,
Barometer,1.6820861655643825e+18,3.934382568359375,,,,-5.92926025390625,973.73974609375,,,,,,,,,,,,,,,,,,,,,,,,,,,,,
Barometer,1.6820861655895337e+18,3.95953369140625,,,,3.099395751953125,972.68994140625,,,,,,,,,,,,,,,,,,,,,,,,,,,,,
Barometer,1.6820861656146788e+18,3.9846787109375,,,,6.53961181640625,972.2901611328125,,,,,,,,,,,,,,,,,,,,,,,,,,,,,
Barometer,1.6820861656398308e+18,4.009830810546875,,,,7.53839111328125,972.1741943359375,,,,,,,,,,,,,,,,,,,,,,,,,,,,,
Barometer,1.6820861656649633e+18,4.03496337890625,,,,8.03778076171875,972.1162109375,,,,,,,,,,,,,,,,,,,,,,,,,,,,,
Barometer,1.682086165690103e+18,4.06010302734375,,,,7.32965087890625,972.1986083984375,,,,,,,,,,,,,,,,,,,,,,,,,,,,,
Barometer,1.6820861657152443e+18,4.085244384765625,,,,6.17236328125,972.3328857421875,,,,,,,,,,,,,,,,,,,,,,,,,,,,,
Barometer,1.6820861657403674e+18,4.110367431640625,,,,5.096954345703125,972.4580078125,,,,,,,,,,,,,,,,,,,,,,,,,,,,,
Barometer,1.6820861657655276e+18,4.135527587890625,,,,4.571136474609375,972.51904296875,,,,,,,,,,,,,,,,,,,,,,,,,,,,,
Barometer,1.6820861657906714e+18,4.16067138671875,,,,3.099395751953125,972.68994140625,,,,,,,,,,,,,,,,,,,,,,,,,,,,,
Barometer,1.6820861658158042e+18,4.18580419921875,,,,-1.101837158203125,973.17822265625,,,,,,,,,,,,,,,,,,,,,,,,,,,,,
Barometer,1.6820861658409574e+18,4.21095751953125,,,,-5.0916748046875,973.64208984375,,,,,,,,,,,,,,,,,,,,,,,,,,,,,
Barometer,1.6820861658661012e+18,4.236101318359375,,,,-4.01361083984375,973.5169677734375,,,,,,,,,,,,,,,,,,,,,,,,,,,,,
Barometer,1.6820861658912335e+18,4.261233642578125,,,,0.76361083984375,972.9615478515625,,,,,,,,,,,,,,,,,,,,,,,,,,,,,
Barometer,1.682086165916374e+18,4.2863740234375,,,,3.75732421875,972.6136474609375,,,,,,,,,,,,,,,,,,,,,,,,,,,,,
Barometer,1.6820861659415163e+18,4.311516357421875,,,,3.75732421875,972.6136474609375,,,,,,,,,,,,,,,,,,,,,,,,,,,,,
Barometer,1.6820861659666698e+18,4.336669921875,,,,3.284332275390625,972.6685791015625,,,,,,,,,,,,,,,,,,,,,,,,,,,,,
Barometer,1.682086165991801e+18,4.361801025390625,,,,3.2579345703125,972.671630859375,,,,,,,,,,,,,,,,,,,,,,,,,,,,,
Barometer,1.6820861660169436e+18,4.386943603515625,,,,2.96728515625,972.7052001953125,,,,,,,,,,,,,,,,,,,,,,,,,,,,,
Barometer,1.682086166042083e+18,4.4120830078125,,,,2.758544921875,972.7296142578125,,,,,,,,,,,,,,,,,,,,,,,,,,,,,
Barometer,1.6820861660672243e+18,4.437224365234375,,,,2.338409423828125,972.7784423828125,,,,,,,,,,,,,,,,,,,,,,,,,,,,,
Barometer,1.6820861660923653e+18,4.462365234375,,,,1.392486572265625,972.8883056640625,,,,,,,,,,,,,,,,,,,,,,,,,,,,,
Barometer,1.6820861661175168e+18,4.487516845703125,,,,0.9459228515625,972.940185546875,,,,,,,,,,,,,,,,,,,,,,,,,,,,,
Barometer,1.6820861661426504e+18,4.512650390625,,,,1.236572265625,972.9066162109375,,,,,,,,,,,,,,,,,,,,,,,,,,,,,
Barometer,1.682086166167804e+18,4.537803955078125,,,,1.236572265625,972.9066162109375,,,,,,,,,,,,,,,,,,,,,,,,,,,,,
Barometer,1.6820861661929303e+18,4.562930419921875,,,,0.840240478515625,972.952392578125,,,,,,,,,,,,,,,,,,,,,,,,,,,,,
Barometer,1.682086166218091e+18,4.588091064453125,,,,0.343505859375,973.0103759765625,,,,,,,,,,,,,,,,,,,,,,,,,,,,,
Barometer,1.6820861662432338e+18,4.61323388671875,,,,0.396331787109375,973.0042724609375,,,,,,,,,,,,,,,,,,,,,,,,,,,,,
Barometer,1.6820861662683743e+18,4.638374267578125,,,,0.9459228515625,972.940185546875,,,,,,,,,,,,,,,,,,,,,,,,,,,,,
Barometer,1.682086166293516e+18,4.66351611328125,,,,1.73333740234375,972.8486328125,,,,,,,,,,,,,,,,,,,,,,,,,,,,,
Barometer,1.6820861663186596e+18,4.68865966796875,,,,2.17987060546875,972.7967529296875,,,,,,,,,,,,,,,,,,,,,,,,,,,,,
Barometer,1.682086166343802e+18,4.713802001953125,,,,2.23272705078125,972.7906494140625,,,,,,,,,,,,,,,,,,,,,,,,,,,,,
Barometer,1.6820861663689341e+18,4.73893408203125,,,,2.100616455078125,972.805908203125,,,,,,,,,,,,,,,,,,,,,,,,,,,,,
Barometer,1.6820861663940887e+18,4.764088623046875,,,,1.551025390625,972.8699951171875,,,,,,,,,,,,,,,,,,,,,,,,,,,,,
Barometer,1.6820861664192302e+18,4.789230224609375,,,,0.9459228515625,972.940185546875,,,,,,,,,,,,,,,,,,,,,,,,,,,,,
Barometer,1.682086166444373e+18,4.814373046875,,,,0.840240478515625,972.952392578125,,,,,,,,,,,,,,,,,,,,,,,,,,,,,
Barometer,1.6820861664695045e+18,4.83950439453125,,,,1.078033447265625,972.9249267578125,,,,,,,,,,,,,,,,,,,,,,,,,,,,,
Barometer,1.6820861664946575e+18,4.864657470703125,,,,0.91949462890625,972.9432373046875,,,,,,,,,,,,,,,,,,,,,,,,,,,,,
Barometer,1.6820861665197985e+18,4.889798583984375,,,,0.684356689453125,972.970703125,,,,,,,,,,,,,,,,,,,,,,,,,,,,,
Barometer,1.68208616654494e+18,4.91493994140625,,,,0.657928466796875,972.9737548828125,,,,,,,,,,,,,,,,,,,,,,,,,,,,,
Barometer,1.6820861665700815e+18,4.94008154296875,,,,0.998779296875,972.93408203125,,,,,,,,,,,,,,,,,,,,,,,,,,,,,
Barometer,1.682086166595224e+18,4.96522412109375,,,,1.392486572265625,972.8883666992188,,,,,,,,,,,,,,,,,,,,,,,,,,,,,
Barometer,1.6820861666203656e+18,4.990365478515625,,,,1.286773681640625,972.9005737304688,,,,,,,,,,,,,,,,,,,,,,,,,,,,,
Barometer,1.6820861666454984e+18,5.015498291015625,,,,0.710784912109375,972.9677124023438,,,,,,,,,,,,,,,,,,,,,,,,,,,,,
Barometer,1.6820861666706422e+18,5.04064208984375,,,,0.684356689453125,972.9707641601562,,,,,,,,,,,,,,,,,,,,,,,,,,,,,
Barometer,1.6820861666957821e+18,5.0657822265625,,,,1.41888427734375,972.8853149414062,,,,,,,,,,,,,,,,,,,,,,,,,,,,,
Barometer,1.6820861667209244e+18,5.09092431640625,,,,2.391265869140625,972.7723999023438,,,,,,,,,,,,,,,,,,,,,,,,,,,,,
Barometer,1.6820861667460698e+18,5.11606982421875,,,,2.9144287109375,972.7113647460938,,,,,,,,,,,,,,,,,,,,,,,,,,,,,
Barometer,1.6820861667712166e+18,5.141216552734375,,,,2.12701416015625,972.8029174804688,,,,,,,,,,,,,,,,,,,,,,,,,,,,,
Barometer,1.6820861667963622e+18,5.1663623046875,,,,0.23779296875,973.0226440429688,,,,,,,,,,,,,,,,,,,,,,,,,,,,,
Barometer,1.6820861668215066e+18,5.191506591796875,,,,-0.760986328125,973.1386108398438,,,,,,,,,,,,,,,,,,,,,,,,,,,,,
Barometer,1.6820861668466499e+18,5.21664990234375,,,,0.367279052734375,973.0073852539062,,,,,,,,,,,,,,,,,,,,,,,,,,,,,
Barometer,1.682086166871792e+18,5.241792236328125,,,,1.839019775390625,972.8364868164062,,,,,,,,,,,,,,,,,,,,,,,,,,,,,
Barometer,1.682086166896934e+18,5.266933837890625,,,,1.68048095703125,972.8547973632812,,,,,,,,,,,,,,,,,,,,,,,,,,,,,
Barometer,1.6820861669220641e+18,5.292064208984375,,,,0.787384033203125,972.9585571289062,,,,,,,,,,,,,,,,,,,,,,,,,,,,,
Barometer,1.682086166947209e+18,5.317208984375,,,,0.840240478515625,972.9524536132812,,,,,,,,,,,,,,,,,,,,,,,,,,,,,
Barometer,1.6820861669723612e+18,5.342361328125,,,,1.41888427734375,972.8853149414062,,,,,,,,,,,,,,,,,,,,,,,,,,,,,
Barometer,1.6820861669975037e+18,5.367503662109375,,,,1.839019775390625,972.8364868164062,,,,,,,,,,,,,,,,,,,,,,,,,,,,,
Barometer,1.6820861670226386e+18,5.392638671875,,,,1.68048095703125,972.8547973632812,,,,,,,,,,,,,,,,,,,,,,,,,,,,,
Barometer,1.6820861670477932e+18,5.417793212890625,,,,1.18109130859375,972.9127807617188,,,,,,,,,,,,,,,,,,,,,,,,,,,,,
Barometer,1.6820861670729329e+18,5.442932861328125,,,,1.02520751953125,972.9310302734375,,,,,,,,,,,,,,,,,,,,,,,,,,,,,
Barometer,1.6820861670980756e+18,5.46807568359375,,,,1.157318115234375,972.915771484375,,,,,,,,,,,,,,,,,,,,,,,,,,,,,
Barometer,1.6820861671232115e+18,5.49321142578125,,,,1.104461669921875,972.921875,,,,,,,,,,,,,,,,,,,,,,,,,,,,,
Barometer,1.6820861671483607e+18,5.518360595703125,,,,0.998779296875,972.93408203125,,,,,,,,,,,,,,,,,,,,,,,,,,,,,
Barometer,1.6820861671734935e+18,5.543493408203125,,,,1.236572265625,972.9066162109375,,,,,,,,,,,,,,,,,,,,,,,,,,,,,
Barometer,1.682086167198639e+18,5.56863916015625,,,,1.47174072265625,972.879150390625,,,,,,,,,,,,,,,,,,,,,,,,,,,,,
Barometer,1.6820861672237816e+18,5.59378173828125,,,,1.68048095703125,972.854736328125,,,,,,,,,,,,,,,,,,,,,,,,,,,,,
Barometer,1.6820861672489257e+18,5.61892578125,,,,1.41888427734375,972.88525390625,,,,,,,,,,,,,,,,,,,,,,,,,,,,,
Barometer,1.6820861672740685e+18,5.644068359375,,,,1.9447021484375,972.82421875,,,,,,,,,,,,,,,,,,,,,,,,,,,,,
Barometer,1.6820861672992056e+18,5.66920556640625,,,,2.494293212890625,972.7601318359375,,,,,,,,,,,,,,,,,,,,,,,,,,,,,
Barometer,1.682086167324355e+18,5.69435498046875,,,,1.104461669921875,972.921875,,,,,,,,,,,,,,,,,,,,,,,,,,,,,
Barometer,1.6820861673495086e+18,5.719508544921875,,,,-1.128265380859375,973.1812744140625,,,,,,,,,,,,,,,,,,,,,,,,,,,,,
Barometer,1.6820861673746437e+18,5.744643798828125,,,,-0.9697265625,973.1629638671875,,,,,,,,,,,,,,,,,,,,,,,,,,,,,
Barometer,1.6820861673997906e+18,5.76979052734375,,,,1.157318115234375,972.915771484375,,,,,,,,,,,,,,,,,,,,,,,,,,,,,
Barometer,1.6820861674249408e+18,5.79494091796875,,,,1.73333740234375,972.8486328125,,,,,,,,,,,,,,,,,,,,,,,,,,,,,
Barometer,1.6820861674500856e+18,5.820085693359375,,,,0.840240478515625,972.952392578125,,,,,,,,,,,,,,,,,,,,,,,,,,,,,
Barometer,1.6820861674752282e+18,5.845228271484375,,,,0.578643798828125,972.98291015625,,,,,,,,,,,,,,,,,,,,,,,,,,,,,
Barometer,1.6820861675003712e+18,5.87037109375,,,,0.91949462890625,972.9432373046875,,,,,,,,,,,,,,,,,,,,,,,,,,,,,
Barometer,1.6820861675255148e+18,5.8955146484375,,,,0.684356689453125,972.970703125,,,,,,,,,,,,,,,,,,,,,,,,,,,,,
Barometer,1.6820861675506583e+18,5.920658203125,,,,0.840240478515625,972.952392578125,,,,,,,,,,,,,,,,,,,,,,,,,,,,,
Barometer,1.682086167575801e+18,5.945801025390625,,,,0.998779296875,972.93408203125,,,,,,,,,,,,,,,,,,,,,,,,,,,,,
Barometer,1.6820861676009428e+18,5.97094287109375,,,,0.813812255859375,972.9554443359375,,,,,,,,,,,,,,,,,,,,,,,,,,,,,
Barometer,1.682086167626084e+18,5.996083984375,,,,0.605072021484375,972.9798583984375,,,,,,,,,,,,,,,,,,,,,,,,,,,,,
Barometer,1.6820861676512292e+18,6.021229248046875,,,,0.55224609375,972.9859619140625,,,,,,,,,,,,,,,,,,,,,,,,,,,,,
Barometer,1.6820861676763738e+18,6.046373779296875,,,,0.76361083984375,972.9615478515625,,,,,,,,,,,,,,,,,,,,,,,,,,,,,
Barometer,1.682086167701517e+18,6.07151708984375,,,,0.97235107421875,972.9371337890625,,,,,,,,,,,,,,,,,,,,,,,,,,,,,
Barometer,1.6820861677266609e+18,6.096660888671875,,,,0.91949462890625,972.9432373046875,,,,,,,,,,,,,,,,,,,,,,,,,,,,,
Barometer,1.6820861677517965e+18,6.12179638671875,,,,0.578643798828125,972.98291015625,,,,,,,,,,,,,,,,,,,,,,,,,,,,,
Barometer,1.6820861677769446e+18,6.146944580078125,,,,0.605072021484375,972.9798583984375,,,,,,,,,,,,,,,,,,,,,,,,,,,,,
Barometer,1.6820861678020864e+18,6.17208642578125,,,,1.078033447265625,972.9249267578125,,,,,,,,,,,,,,,,,,,,,,,,,,,,,
Barometer,1.682086167827226e+18,6.19722607421875,,,,1.630279541015625,972.86083984375,,,,,,,,,,,,,,,,,,,,,,,,,,,,,
Barometer,1.6820861678523684e+18,6.222368408203125,,,,1.91827392578125,972.8272705078125,,,,,,,,,,,,,,,,,,,,,,,,,,,,,
Barometer,1.682086167877511e+18,6.247510986328125,,,,2.338409423828125,972.7784423828125,,,,,,,,,,,,,,,,,,,,,,,,,,,,,
Barometer,1.6820861679026547e+18,6.27265478515625,,,,2.444091796875,972.7662353515625,,,,,,,,,,,,,,,,,,,,,,,,,,,,,
Barometer,1.682086167927785e+18,6.297784912109375,,,,1.630279541015625,972.86083984375,,,,,,,,,,,,,,,,,,,,,,,,,,,,,
Barometer,1.682086167952928e+18,6.322927978515625,,,,0.605072021484375,972.9798583984375,,,,,,,,,,,,,,,,,,,,,,,,,,,,,
Barometer,1.682086167978079e+18,6.348078857421875,,,,0.369903564453125,973.00732421875,,,,,,,,,,,,,,,,,,,,,,,,,,,,,
Barometer,1.6820861680032067e+18,6.37320654296875,,,,0.7900390625,972.95849609375,,,,,,,,,,,,,,,,,,,,,,,,,,,,,
Barometer,1.6820861680283594e+18,6.398359375,,,,0.866668701171875,972.9494018554688,,,,,,,,,,,,,,,,,,,,,,,,,,,,,
Barometer,1.682086168053495e+18,6.4234951171875,,,,0.7371826171875,972.9646606445312,,,,,,,,,,,,,,,,,,,,,,,,,,,,,
Barometer,1.682086168078648e+18,6.44864794921875,,,,0.866668701171875,972.9494018554688,,,,,,,,,,,,,,,,,,,,,,,,,,,,,
Barometer,1.6820861681037896e+18,6.47378955078125,,,,1.23394775390625,972.9066772460938,,,,,,,,,,,,,,,,,,,,,,,,,,,,,
Barometer,1.6820861681289188e+18,6.498918701171875,,,,1.2603759765625,972.9036254882812,,,,,,,,,,,,,,,,,,,,,,,,,,,,,
Barometer,1.6820861681540713e+18,6.5240712890625,,,,1.286773681640625,972.9005737304688,,,,,,,,,,,,,,,,,,,,,,,,,,,,,
Barometer,1.6820861681792125e+18,6.549212646484375,,,,1.18109130859375,972.9127807617188,,,,,,,,,,,,,,,,,,,,,,,,,,,,,
Barometer,1.6820861682043564e+18,6.5743564453125,,,,0.998779296875,972.9341430664062,,,,,,,,,,,,,,,,,,,,,,,,,,,,,
Barometer,1.6820861682294892e+18,6.5994892578125,,,,1.104461669921875,972.9219360351562,,,,,,,,,,,,,,,,,,,,,,,,,,,,,
Barometer,1.682086168254642e+18,6.624641845703125,,,,1.18109130859375,972.9127807617188,,,,,,,,,,,,,,,,,,,,,,,,,,,,,
Barometer,1.6820861682797832e+18,6.649783203125,,,,1.0516357421875,972.9280395507812,,,,,,,,,,,,,,,,,,,,,,,,,,,,,
Barometer,1.6820861683049152e+18,6.674915283203125,,,,0.787384033203125,972.9585571289062,,,,,,,,,,,,,,,,,,,,,,,,,,,,,
Barometer,1.6820861683300675e+18,6.7000673828125,,,,0.97235107421875,972.9371948242188,,,,,,,,,,,,,,,,,,,,,,,,,,,,,
Barometer,1.6820861683552105e+18,6.72521044921875,,,,1.313201904296875,972.8975219726562,,,,,,,,,,,,,,,,,,,,,,,,,,,,,
Barometer,1.6820861683803512e+18,6.750351318359375,,,,1.4453125,972.8822631835938,,,,,,,,,,,,,,,,,,,,,,,,,,,,,
Barometer,1.6820861684054802e+18,6.775480224609375,,,,1.4453125,972.8822631835938,,,,,,,,,,,,,,,,,,,,,,,,,,,,,
Barometer,1.682086168430633e+18,6.800633056640625,,,,1.52459716796875,972.8731079101562,,,,,,,,,,,,,,,,,,,,,,,,,,,,,
Barometer,1.6820861684557642e+18,6.82576416015625,,,,1.392486572265625,972.8883666992188,,,,,,,,,,,,,,,,,,,,,,,,,,,,,
Barometer,1.6820861684809057e+18,6.85090576171875,,,,0.813812255859375,972.9555053710938,,,,,,,,,,,,,,,,,,,,,,,,,,,,,
Barometer,1.6820861685060488e+18,6.876048828125,,,,0.0528564453125,973.0440063476562,,,,,,,,,,,,,,,,,,,,,,,,,,,,,
Barometer,1.6820861685311913e+18,6.90119140625,,,,-0.628875732421875,973.1233520507812,,,,,,,,,,,,,,,,,,,,,,,,,,,,,
Barometer,1.6820861685563315e+18,6.92633154296875,,,,-0.47296142578125,973.1050415039062,,,,,,,,,,,,,,,,,,,,,,,,,,,,,
Barometer,1.6820861685814715e+18,6.951471435546875,,,,0.26422119140625,973.0195922851562,,,,,,,,,,,,,,,,,,,,,,,,,,,,,
Barometer,1.682086168606607e+18,6.976607177734375,,,,0.7371826171875,972.9646606445312,,,,,,,,,,,,,,,,,,,,,,,,,,,,,
Barometer,1.6820861686317606e+18,7.0017607421875,,,,0.605072021484375,972.9799194335938,,,,,,,,,,,,,,,,,,,,,,,,,,,,,
Barometer,1.6820861686568952e+18,7.026895263671875,,,,0.4993896484375,972.9921264648438,,,,,,,,,,,,,,,,,,,,,,,,,,,,,
Barometer,1.6820861686820332e+18,7.052033203125,,,,0.787384033203125,972.9585571289062,,,,,,,,,,,,,,,,,,,,,,,,,,,,,
Barometer,1.6820861687071895e+18,7.077189453125,,,,0.893096923828125,972.9463500976562,,,,,,,,,,,,,,,,,,,,,,,,,,,,,
Barometer,1.6820861687323318e+18,7.102331787109375,,,,0.813812255859375,972.9555053710938,,,,,,,,,,,,,,,,,,,,,,,,,,,,,
Barometer,1.682086168757472e+18,7.127471923828125,,,,0.710784912109375,972.9677124023438,,,,,,,,,,,,,,,,,,,,,,,,,,,,,
Barometer,1.682086168782602e+18,7.15260205078125,,,,0.42010498046875,973.0012817382812,,,,,,,,,,,,,,,,,,,,,,,,,,,,,
Barometer,1.682086168807755e+18,7.177755126953125,,,,-0.0528564453125,973.0562133789062,,,,,,,,,,,,,,,,,,,,,,,,,,,,,
Barometer,1.6820861688328978e+18,7.202897705078125,,,,-0.129486083984375,973.0653076171875,,,,,,,,,,,,,,,,,,,,,,,,,,,,,
Barometer,1.6820861688580362e+18,7.2280361328125,,,,0.158538818359375,973.0317993164062,,,,,,,,,,,,,,,,,,,,,,,,,,,,,
Barometer,1.6820861688831788e+18,7.2531787109375,,,,0.367279052734375,973.0073852539062,,,,,,,,,,,,,,,,,,,,,,,,,,,,,
Barometer,1.682086168908321e+18,7.278321044921875,,,,0.710784912109375,972.9677124023438,,,,,,,,,,,,,,,,,,,,,,,,,,,,,
Barometer,1.6820861689334623e+18,7.303462158203125,,,,1.130889892578125,972.9188842773438,,,,,,,,,,,,,,,,,,,,,,,,,,,,,
Barometer,1.6820861689586066e+18,7.328606689453125,,,,1.392486572265625,972.8883666992188,,,,,,,,,,,,,,,,,,,,,,,,,,,,,
Barometer,1.6820861689837443e+18,7.353744140625,,,,1.62762451171875,972.8609008789062,,,,,,,,,,,,,,,,,,,,,,,,,,,,,
Barometer,1.6820861690088855e+18,7.378885498046875,,,,2.520721435546875,972.7571411132812,,,,,,,,,,,,,,,,,,,,,,,,,,,,,
Barometer,1.6820861690340268e+18,7.40402685546875,,,,3.38739013671875,972.6564331054688,,,,,,,,,,,,,,,,,,,,,,,,,,,,,
Barometer,1.6820861690591683e+18,7.429168212890625,,,,3.1522216796875,972.6838989257812,,,,,,,,,,,,,,,,,,,,,,,,,,,,,
Barometer,1.6820861690843095e+18,7.4543095703125,,,,2.573577880859375,972.7510375976562,,,,,,,,,,,,,,,,,,,,,,,,,,,,,
Barometer,1.682086169109451e+18,7.479450927734375,,,,1.786163330078125,972.8425903320312,,,,,,,,,,,,,,,,,,,,,,,,,,,,,
Barometer,1.6820861691345897e+18,7.504589599609375,,,,-0.420135498046875,973.0989379882812,,,,,,,,,,,,,,,,,,,,,,,,,,,,,
Barometer,1.682086169159732e+18,7.52973193359375,,,,-3.7784423828125,973.4895629882812,,,,,,,,,,,,,,,,,,,,,,,,,,,,,
Barometer,1.682086169184864e+18,7.554864013671875,,,,-4.59228515625,973.5841674804688,,,,,,,,,,,,,,,,,,,,,,,,,,,,,
Barometer,1.6820861692100012e+18,7.580001220703125,,,,-1.7069091796875,973.2484741210938,,,,,,,,,,,,,,,,,,,,,,,,,,,,,
Barometer,1.682086169235157e+18,7.605156982421875,,,,1.02520751953125,972.9310913085938,,,,,,,,,,,,,,,,,,,,,,,,,,,,,
Barometer,1.6820861692602924e+18,7.630292236328125,,,,0.211395263671875,973.0256958007812,,,,,,,,,,,,,,,,,,,,,,,,,,,,,
Barometer,1.6820861692854403e+18,7.655440185546875,,,,-2.282928466796875,973.3156127929688,,,,,,,,,,,,,,,,,,,,,,,,,,,,,
Barometer,1.682086169310585e+18,7.680585205078125,,,,-2.623779296875,973.3552856445312,,,,,,,,,,,,,,,,,,,,,,,,,,,,,
Barometer,1.6820861693357332e+18,7.705733154296875,,,,-0.73455810546875,973.1355590820312,,,,,,,,,,,,,,,,,,,,,,,,,,,,,
Barometer,1.682086169360874e+18,7.7308740234375,,,,0.787384033203125,972.9585571289062,,,,,,,,,,,,,,,,,,,,,,,,,,,,,
Barometer,1.682086169386008e+18,7.756008056640625,,,,0.813812255859375,972.9555053710938,,,,,,,,,,,,,,,,,,,,,,,,,,,,,
Barometer,1.6820861694111598e+18,7.781159912109375,,,,0.684356689453125,972.9707641601562,,,,,,,,,,,,,,,,,,,,,,,,,,,,,
Barometer,1.6820861694363034e+18,7.806303466796875,,,,0.893096923828125,972.9463500976562,,,,,,,,,,,,,,,,,,,,,,,,,,,,,
Barometer,1.6820861694614454e+18,7.8314453125,,,,1.236572265625,972.9066162109375,,,,,,,,,,,,,,,,,,,,,,,,,,,,,
Barometer,1.6820861694865848e+18,7.856584716796875,,,,1.47174072265625,972.879150390625,,,,,,,,,,,,,,,,,,,,,,,,,,,,,
Barometer,1.6820861695117164e+18,7.88171630859375,,,,1.41888427734375,972.88525390625,,,,,,,,,,,,,,,,,,,,,,,,,,,,,
Barometer,1.6820861695368678e+18,7.906867919921875,,,,1.654052734375,972.8577880859375,,,,,,,,,,,,,,,,,,,,,,,,,,,,,
Barometer,1.6820861695620093e+18,7.93200927734375,,,,2.444091796875,972.7662353515625,,,,,,,,,,,,,,,,,,,,,,,,,,,,,
Barometer,1.6820861695871514e+18,7.9571513671875,,,,3.44024658203125,972.6502075195312,,,,,,,,,,,,,,,,,,,,,,,,,,,,,
Barometer,1.6820861696122819e+18,7.98228173828125,,,,4.1510009765625,972.56787109375,,,,,,,,,,,,,,,,,,,,,,,,,,,,,
Barometer,1.6820861696374339e+18,8.007433837890625,,,,4.544708251953125,972.5220947265625,,,,,,,,,,,,,,,,,,,,,,,,,,,,,
Barometer,1.682086169662566e+18,8.03256591796875,,,,4.544708251953125,972.5220947265625,,,,,,,,,,,,,,,,,,,,,,,,,,,,,
Barometer,1.6820861696877197e+18,8.0577197265625,,,,4.018890380859375,972.5831298828125,,,,,,,,,,,,,,,,,,,,,,,,,,,,,
Barometer,1.6820861697128445e+18,8.082844482421875,,,,3.38739013671875,972.6563720703125,,,,,,,,,,,,,,,,,,,,,,,,,,,,,
Barometer,1.6820861697379901e+18,8.107990234375,,,,2.547149658203125,972.7540283203125,,,,,,,,,,,,,,,,,,,,,,,,,,,,,
Barometer,1.6820861697631296e+18,8.133129638671875,,,,0.998779296875,972.93408203125,,,,,,,,,,,,,,,,,,,,,,,,,,,,,
Barometer,1.682086169788273e+18,8.15827294921875,,,,-0.367279052734375,973.0927734375,,,,,,,,,,,,,,,,,,,,,,,,,,,,,
Barometer,1.6820861698134088e+18,8.18340869140625,,,,-0.1558837890625,973.068359375,,,,,,,,,,,,,,,,,,,,,,,,,,,,,
Barometer,1.6820861698385498e+18,8.2085498046875,,,,1.02520751953125,972.9310302734375,,,,,,,,,,,,,,,,,,,,,,,,,,,,,
Barometer,1.6820861698636887e+18,8.233688720703125,,,,1.68048095703125,972.854736328125,,,,,,,,,,,,,,,,,,,,,,,,,,,,,
Barometer,1.682086169888829e+18,8.258828857421875,,,,1.41888427734375,972.88525390625,,,,,,,,,,,,,,,,,,,,,,,,,,,,,
Barometer,1.6820861699139707e+18,8.283970703125,,,,1.0516357421875,972.927978515625,,,,,,,,,,,,,,,,,,,,,,,,,,,,,
Barometer,1.6820861699391124e+18,8.309112548828125,,,,1.02520751953125,972.9310913085938,,,,,,,,,,,,,,,,,,,,,,,,,,,,,
Barometer,1.682086169964262e+18,8.334261962890626,,,,1.1546630859375,972.9158325195312,,,,,,,,,,,,,,,,,,,,,,,,,,,,,
Barometer,1.682086169989406e+18,8.359406005859375,,,,0.9459228515625,972.9402465820312,,,,,,,,,,,,,,,,,,,,,,,,,,,,,
Barometer,1.6820861700145467e+18,8.384546630859376,,,,0.710784912109375,972.9677124023438,,,,,,,,,,,,,,,,,,,,,,,,,,,,,
Barometer,1.682086170039687e+18,8.40968701171875,,,,0.55224609375,972.9860229492188,,,,,,,,,,,,,,,,,,,,,,,,,,,,,
Barometer,1.6820861700648294e+18,8.434829345703125,,,,0.813812255859375,972.9555053710938,,,,,,,,,,,,,,,,,,,,,,,,,,,,,
Barometer,1.6820861700899707e+18,8.459970703125,,,,1.2603759765625,972.9036254882812,,,,,,,,,,,,,,,,,,,,,,,,,,,,,
Barometer,1.6820861701151124e+18,8.485112548828125,,,,1.759765625,972.8456420898438,,,,,,,,,,,,,,,,,,,,,,,,,,,,,
Barometer,1.6820861701402537e+18,8.510253662109376,,,,2.94085693359375,972.7083129882812,,,,,,,,,,,,,,,,,,,,,,,,,,,,,
Barometer,1.6820861701653962e+18,8.535396240234375,,,,4.1510009765625,972.5679321289062,,,,,,,,,,,,,,,,,,,,,,,,,,,,,
Barometer,1.6820861701905393e+18,8.560539306640624,,,,3.44024658203125,972.6503295898438,,,,,,,,,,,,,,,,,,,,,,,,,,,,,
Barometer,1.682086170215682e+18,8.58568212890625,,,,0.52581787109375,972.9890747070312,,,,,,,,,,,,,,,,,,,,,,,,,,,,,
Barometer,1.682086170240827e+18,8.610826904296875,,,,-1.9156494140625,973.2728881835938,,,,,,,,,,,,,,,,,,,,,,,,,,,,,
Barometer,1.6820861702659628e+18,8.635962646484375,,,,-2.15081787109375,973.3003540039062,,,,,,,,,,,,,,,,,,,,,,,,,,,,,
Barometer,1.6820861702911124e+18,8.661112548828125,,,,-0.893096923828125,973.1538696289062,,,,,,,,,,,,,,,,,,,,,,,,,,,,,
Barometer,1.6820861703162547e+18,8.686254638671874,,,,0.314422607421875,973.0134887695312,,,,,,,,,,,,,,,,,,,,,,,,,,,,,
Barometer,1.6820861703413965e+18,8.711396484375,,,,0.91949462890625,972.9432983398438,,,,,,,,,,,,,,,,,,,,,,,,,,,,,
Barometer,1.6820861703665303e+18,8.7365302734375,,,,0.631500244140625,972.9768676757812,,,,,,,,,,,,,,,,,,,,,,,,,,,,,
Barometer,1.682086170391683e+18,8.76168310546875,,,,0.367279052734375,973.0073852539062,,,,,,,,,,,,,,,,,,,,,,,,,,,,,
Barometer,1.6820861704168266e+18,8.78682666015625,,,,0.998779296875,972.9341430664062,,,,,,,,,,,,,,,,,,,,,,,,,,,,,
Barometer,1.682086170441967e+18,8.811967041015626,,,,1.73333740234375,972.8486938476562,,,,,,,,,,,,,,,,,,,,,,,,,,,,,
Barometer,1.682086170467105e+18,8.83710498046875,,,,1.9447021484375,972.8242797851562,,,,,,,,,,,,,,,,,,,,,,,,,,,,,
Barometer,1.6820861704922404e+18,8.862240478515625,,,,1.891876220703125,972.8303833007812,,,,,,,,,,,,,,,,,,,,,,,,,,,,,
Barometer,1.682086170517388e+18,8.887387939453125,,,,1.654052734375,972.8578491210938,,,,,,,,,,,,,,,,,,,,,,,,,,,,,
Barometer,1.6820861705425203e+18,8.912520263671874,,,,1.20751953125,972.9097290039062,,,,,,,,,,,,,,,,,,,,,,,,,,,,,
Barometer,1.6820861705676582e+18,8.937658203125,,,,1.23394775390625,972.9066772460938,,,,,,,,,,,,,,,,,,,,,,,,,,,,,
Barometer,1.682086170592808e+18,8.962807861328125,,,,2.1534423828125,972.7998657226562,,,,,,,,,,,,,,,,,,,,,,,,,,,,,
Barometer,1.682086170617954e+18,8.9879541015625,,,,3.17864990234375,972.6808471679688,,,,,,,,,,,,,,,,,,,,,,,,,,,,,
Barometer,1.6820861706430979e+18,9.013097900390624,,,,2.808746337890625,972.7235717773438,,,,,,,,,,,,,,,,,,,,,,,,,,,,,
Barometer,1.682086170668237e+18,9.038237060546875,,,,2.074188232421875,972.8090209960938,,,,,,,,,,,,,,,,,,,,,,,,,,,,,
Barometer,1.6820861706933796e+18,9.063379638671876,,,,2.23272705078125,972.7907104492188,,,,,,,,,,,,,,,,,,,,,,,,,,,,,
Barometer,1.682086170718519e+18,9.08851904296875,,,,2.73211669921875,972.7327270507812,,,,,,,,,,,,,,,,,,,,,,,,,,,,,
Barometer,1.682086170743659e+18,9.113658935546875,,,,2.364837646484375,972.7754516601562,,,,,,,,,,,,,,,,,,,,,,,,,,,,,
Barometer,1.6820861707687995e+18,9.138799560546875,,,,1.313201904296875,972.8975219726562,,,,,,,,,,,,,,,,,,,,,,,,,,,,,
Barometer,1.682086170793932e+18,9.16393212890625,,,,0.446533203125,972.9982299804688,,,,,,,,,,,,,,,,,,,,,,,,,,,,,
Barometer,1.682086170819078e+18,9.189077880859376,,,,-0.1558837890625,973.0684204101562,,,,,,,,,,,,,,,,,,,,,,,,,,,,,
Barometer,1.682086170844217e+18,9.214217041015624,,,,-0.314422607421875,973.086669921875,,,,,,,,,,,,,,,,,,,,,,,,,,,,,
Barometer,1.6820861708693565e+18,9.2393564453125,,,,0.158538818359375,973.0317993164062,,,,,,,,,,,,,,,,,,,,,,,,,,,,,
Barometer,1.6820861708944873e+18,9.2644873046875,,,,0.813812255859375,972.9555053710938,,,,,,,,,,,,,,,,,,,,,,,,,,,,,
Barometer,1.6820861709196378e+18,9.2896376953125,,,,0.710784912109375,972.9677124023438,,,,,,,,,,,,,,,,,,,,,,,,,,,,,
Barometer,1.6820861709447782e+18,9.3147783203125,,,,0.55224609375,972.9860229492188,,,,,,,,,,,,,,,,,,,,,,,,,,,,,
Barometer,1.6820861709699177e+18,9.339917724609375,,,,0.55224609375,972.9860229492188,,,,,,,,,,,,,,,,,,,,,,,,,,,,,
Barometer,1.682086170995047e+18,9.365046875,,,,0.605072021484375,972.9799194335938,,,,,,,,,,,,,,,,,,,,,,,,,,,,,
Barometer,1.682086171020187e+18,9.390186767578125,,,,0.684356689453125,972.9707641601562,,,,,,,,,,,,,,,,,,,,,,,,,,,,,
Barometer,1.682086171045322e+18,9.415322021484375,,,,0.787384033203125,972.9585571289062,,,,,,,,,,,,,,,,,,,,,,,,,,,,,
Barometer,1.6820861710704655e+18,9.440465576171874,,,,0.813812255859375,972.9555053710938,,,,,,,,,,,,,,,,,,,,,,,,,,,,,
Barometer,1.6820861710956065e+18,9.4656064453125,,,,0.787384033203125,972.9585571289062,,,,,,,,,,,,,,,,,,,,,,,,,,,,,
Barometer,1.6820861711207452e+18,9.4907451171875,,,,0.840240478515625,972.9524536132812,,,,,,,,,,,,,,,,,,,,,,,,,,,,,
Barometer,1.6820861711458867e+18,9.51588671875,,,,0.998779296875,972.9341430664062,,,,,,,,,,,,,,,,,,,,,,,,,,,,,
Barometer,1.6820861711710287e+18,9.54102880859375,,,,1.20751953125,972.9097290039062,,,,,,,,,,,,,,,,,,,,,,,,,,,,,
Barometer,1.6820861711961715e+18,9.566171630859374,,,,1.47174072265625,972.8792114257812,,,,,,,,,,,,,,,,,,,,,,,,,,,,,
Barometer,1.682086171221333e+18,9.5913330078125,,,,1.601226806640625,972.8639526367188,,,,,,,,,,,,,,,,,,,,,,,,,,,,,
Barometer,1.6820861712464632e+18,9.616463134765626,,,,1.601226806640625,972.8639526367188,,,,,,,,,,,,,,,,,,,,,,,,,,,,,
Barometer,1.682086171271604e+18,9.64160400390625,,,,1.7069091796875,972.8517456054688,,,,,,,,,,,,,,,,,,,,,,,,,,,,,
Barometer,1.6820861712967442e+18,9.666744140625,,,,2.285552978515625,972.7846069335938,,,,,,,,,,,,,,,,,,,,,,,,,,,,,
Barometer,1.6820861713218842e+18,9.69188427734375,,,,2.23272705078125,972.7907104492188,,,,,,,,,,,,,,,,,,,,,,,,,,,,,
Barometer,1.6820861713470228e+18,9.71702294921875,,,,-0.103057861328125,973.0623168945312,,,,,,,,,,,,,,,,,,,,,,,,,,,,,
Barometer,1.6820861713721623e+18,9.742162353515624,,,,-3.8841552734375,973.5017700195312,,,,,,,,,,,,,,,,,,,,,,,,,,,,,
Barometer,1.6820861713973043e+18,9.76730419921875,,,,-5.51177978515625,973.6909790039062,,,,,,,,,,,,,,,,,,,,,,,,,,,,,
Barometer,1.6820861714224287e+18,9.7924287109375,,,,-3.334564208984375,973.4376831054688,,,,,,,,,,,,,,,,,,,,,,,,,,,,,
Barometer,1.682086171447588e+18,9.817588134765625,,,,-0.549591064453125,973.1141967773438,,,,,,,,,,,,,,,,,,,,,,,,,,,,,
Barometer,1.6820861714727288e+18,9.842728759765626,,,,-0.7081298828125,973.1325073242188,,,,,,,,,,,,,,,,,,,,,,,,,,,,,
Barometer,1.68208617149786e+18,9.867860107421874,,,,-2.544525146484375,973.3461303710938,,,,,,,,,,,,,,,,,,,,,,,,,,,,,
Barometer,1.6820861715230126e+18,9.8930126953125,,,,-2.4678955078125,973.3369750976562,,,,,,,,,,,,,,,,,,,,,,,,,,,,,
Barometer,1.6820861715481536e+18,9.918153564453124,,,,-0.420135498046875,973.0989379882812,,,,,,,,,,,,,,,,,,,,,,,,,,,,,
Barometer,1.6820861715732956e+18,9.943295654296875,,,,1.1546630859375,972.9158325195312,,,,,,,,,,,,,,,,,,,,,,,,,,,,,
Barometer,1.6820861715984297e+18,9.9684296875,,,,1.104461669921875,972.9219360351562,,,,,,,,,,,,,,,,,,,,,,,,,,,,,
Barometer,1.682086171623569e+18,9.99356884765625,,,,0.813812255859375,972.9555053710938,,,,,,,,,,,,,,,,,,,,,,,,,,,,,
Barometer,1.6820861716487217e+18,10.0187216796875,,,,1.104461669921875,972.9219360351562,,,,,,,,,,,,,,,,,,,,,,,,,,,,,
Barometer,1.6820861716738634e+18,10.043863525390625,,,,1.313201904296875,972.8975219726562,,,,,,,,,,,,,,,,,,,,,,,,,,,,,
Barometer,1.6820861716989934e+18,10.068993408203125,,,,1.23394775390625,972.9066772460938,,,,,,,,,,,,,,,,,,,,,,,,,,,,,
Barometer,1.682086171724134e+18,10.0941337890625,,,,1.812591552734375,972.8395385742188,,,,,,,,,,,,,,,,,,,,,,,,,,,,,
Barometer,1.6820861717492736e+18,10.119273681640625,,,,3.519500732421875,972.6411743164062,,,,,,,,,,,,,,,,,,,,,,,,,,,,,
Barometer,1.6820861717744125e+18,10.14441259765625,,,,5.14715576171875,972.4519653320312,,,,,,,,,,,,,,,,,,,,,,,,,,,,,
Barometer,1.682086171799576e+18,10.169576171875,,,,5.59368896484375,972.4000854492188,,,,,,,,,,,,,,,,,,,,,,,,,,,,,
Barometer,1.6820861718247132e+18,10.194713134765625,,,,4.93841552734375,972.4763793945312,,,,,,,,,,,,,,,,,,,,,,,,,,,,,
Barometer,1.682086171849833e+18,10.2198330078125,,,,4.4654541015625,972.5313110351562,,,,,,,,,,,,,,,,,,,,,,,,,,,,,
Barometer,1.6820861718749919e+18,10.244991943359375,,,,4.018890380859375,972.5831909179688,,,,,,,,,,,,,,,,,,,,,,,,,,,,,
Barometer,1.6820861719001329e+18,10.2701328125,,,,2.993682861328125,972.7022094726562,,,,,,,,,,,,,,,,,,,,,,,,,,,,,
Barometer,1.6820861719252628e+18,10.295262939453124,,,,1.73333740234375,972.8486938476562,,,,,,,,,,,,,,,,,,,,,,,,,,,,,
Barometer,1.6820861719504192e+18,10.320419189453125,,,,1.130889892578125,972.9188842773438,,,,,,,,,,,,,,,,,,,,,,,,,,,,,
Barometer,1.6820861719755622e+18,10.345562255859376,,,,1.286773681640625,972.9005737304688,,,,,,,,,,,,,,,,,,,,,,,,,,,,,
Barometer,1.682086172000704e+18,10.3707041015625,,,,1.47174072265625,972.8792114257812,,,,,,,,,,,,,,,,,,,,,,,,,,,,,
Barometer,1.682086172025841e+18,10.3958408203125,,,,1.339630126953125,972.8944702148438,,,,,,,,,,,,,,,,,,,,,,,,,,,,,
Barometer,1.6820861720509868e+18,10.42098681640625,,,,1.18109130859375,972.9127807617188,,,,,,,,,,,,,,,,,,,,,,,,,,,,,
Barometer,1.6820861720761288e+18,10.446128662109375,,,,1.02520751953125,972.9310913085938,,,,,,,,,,,,,,,,,,,,,,,,,,,,,
Barometer,1.6820861721012703e+18,10.471270263671874,,,,0.631500244140625,972.9768676757812,,,,,,,,,,,,,,,,,,,,,,,,,,,,,
Barometer,1.682086172126412e+18,10.496412109375,,,,0.23779296875,973.0226440429688,,,,,,,,,,,,,,,,,,,,,,,,,,,,,
Barometer,1.6820861721515535e+18,10.521553466796876,,,,0.0528564453125,973.0440063476562,,,,,,,,,,,,,,,,,,,,,,,,,,,,,
Barometer,1.6820861721766833e+18,10.546683349609374,,,,0.340850830078125,973.0104370117188,,,,,,,,,,,,,,,,,,,,,,,,,,,,,
Barometer,1.682086172201836e+18,10.5718359375,,,,0.91949462890625,972.9432983398438,,,,,,,,,,,,,,,,,,,,,,,,,,,,,
Barometer,1.6820861722269678e+18,10.5969677734375,,,,1.759765625,972.8456420898438,,,,,,,,,,,,,,,,,,,,,,,,,,,,,
Barometer,1.6820861722521106e+18,10.622110595703125,,,,2.23272705078125,972.7907104492188,,,,,,,,,,,,,,,,,,,,,,,,,,,,,
Barometer,1.6820861722772516e+18,10.64725146484375,,,,2.1534423828125,972.7998657226562,,,,,,,,,,,,,,,,,,,,,,,,,,,,,
Barometer,1.6820861723023918e+18,10.672391845703125,,,,1.91827392578125,972.8273315429688,,,,,,,,,,,,,,,,,,,,,,,,,,,,,
Barometer,1.6820861723275338e+18,10.697533935546875,,,,1.891876220703125,972.8303833007812,,,,,,,,,,,,,,,,,,,,,,,,,,,,,
Barometer,1.682086172352677e+18,10.722677001953125,,,,1.4453125,972.8822631835938,,,,,,,,,,,,,,,,,,,,,,,,,,,,,
Barometer,1.6820861723778173e+18,10.7478173828125,,,,0.760986328125,972.9616088867188,,,,,,,,,,,,,,,,,,,,,,,,,,,,,
Barometer,1.6820861724029583e+18,10.772958251953124,,,,0.813812255859375,972.9555053710938,,,,,,,,,,,,,,,,,,,,,,,,,,,,,
Barometer,1.6820861724280988e+18,10.798098876953125,,,,1.62762451171875,972.8609008789062,,,,,,,,,,,,,,,,,,,,,,,,,,,,,
Barometer,1.6820861724532426e+18,10.82324267578125,,,,1.994903564453125,972.8181762695312,,,,,,,,,,,,,,,,,,,,,,,,,,,,,
Barometer,1.6820861724783808e+18,10.848380859375,,,,1.339630126953125,972.8944702148438,,,,,,,,,,,,,,,,,,,,,,,,,,,,,
Barometer,1.682086172503522e+18,10.87352197265625,,,,0.813812255859375,972.9555053710938,,,,,,,,,,,,,,,,,,,,,,,,,,,,,
Barometer,1.682086172528673e+18,10.898673095703124,,,,0.91949462890625,972.9432983398438,,,,,,,,,,,,,,,,,,,,,,,,,,,,,
Barometer,1.6820861725538145e+18,10.923814453125,,,,1.366058349609375,972.891357421875,,,,,,,,,,,,,,,,,,,,,,,,,,,,,
Barometer,1.6820861725789565e+18,10.94895654296875,,,,1.551025390625,972.8699951171875,,,,,,,,,,,,,,,,,,,,,,,,,,,,,
Barometer,1.6820861726040876e+18,10.974087646484374,,,,1.601226806640625,972.8639526367188,,,,,,,,,,,,,,,,,,,,,,,,,,,,,
Barometer,1.6820861726292393e+18,10.9992392578125,,,,1.4453125,972.8822631835938,,,,,,,,,,,,,,,,,,,,,,,,,,,,,
Barometer,1.6820861726543823e+18,11.02438232421875,,,,1.23394775390625,972.9066772460938,,,,,,,,,,,,,,,,,,,,,,,,,,,,,
Barometer,1.6820861726795261e+18,11.049526123046874,,,,1.23394775390625,972.9066772460938,,,,,,,,,,,,,,,,,,,,,,,,,,,,,
Barometer,1.6820861727046684e+18,11.07466845703125,,,,1.7069091796875,972.8517456054688,,,,,,,,,,,,,,,,,,,,,,,,,,,,,
Barometer,1.6820861727298132e+18,11.099813232421875,,,,2.285552978515625,972.7846069335938,,,,,,,,,,,,,,,,,,,,,,,,,,,,,
Barometer,1.6820861727549496e+18,11.12494970703125,,,,2.1534423828125,972.7998657226562,,,,,,,,,,,,,,,,,,,,,,,,,,,,,
Barometer,1.6820861727800988e+18,11.150098876953125,,,,1.47174072265625,972.8792114257812,,,,,,,,,,,,,,,,,,,,,,,,,,,,,
Barometer,1.6820861728052406e+18,11.175240478515626,,,,1.104461669921875,972.9219360351562,,,,,,,,,,,,,,,,,,,,,,,,,,,,,
Barometer,1.6820861728303823e+18,11.20038232421875,,,,1.366058349609375,972.891357421875,,,,,,,,,,,,,,,,,,,,,,,,,,,,,
Barometer,1.6820861728555328e+18,11.22553271484375,,,,1.759765625,972.8456420898438,,,,,,,,,,,,,,,,,,,,,,,,,,,,,
Barometer,1.6820861728806676e+18,11.250667724609375,,,,1.577423095703125,972.8670043945312,,,,,,,,,,,,,,,,,,,,,,,,,,,,,
Barometer,1.6820861729058112e+18,11.275811279296875,,,,0.42010498046875,973.0012817382812,,,,,,,,,,,,,,,,,,,,,,,,,,,,,
Barometer,1.682086172930952e+18,11.300951904296875,,,,-1.18109130859375,973.1874389648438,,,,,,,,,,,,,,,,,,,,,,,,,,,,,
Barometer,1.6820861729560827e+18,11.326082763671875,,,,-2.203643798828125,973.3064575195312,,,,,,,,,,,,,,,,,,,,,,,,,,,,,
Barometer,1.682086172981224e+18,11.351223876953124,,,,-1.94207763671875,973.2759399414062,,,,,,,,,,,,,,,,,,,,,,,,,,,,,
Barometer,1.6820861730063667e+18,11.37636669921875,,,,-0.996124267578125,973.1660766601562,,,,,,,,,,,,,,,,,,,,,,,,,,,,,
Barometer,1.6820861730315082e+18,11.40150830078125,,,,-0.340850830078125,973.0897827148438,,,,,,,,,,,,,,,,,,,,,,,,,,,,,
Barometer,1.6820861730566543e+18,11.426654296875,,,,0.0,973.0501098632812,,,,,,,,,,,,,,,,,,,,,,,,,,,,,
Barometer,1.6820861730817892e+18,11.4517890625,,,,0.0,973.0501098632812,,,,,,,,,,,,,,,,,,,,,,,,,,,,,
Barometer,1.682086173106941e+18,11.47694091796875,,,,-0.129486083984375,973.0653076171875,,,,,,,,,,,,,,,,,,,,,,,,,,,,,
Barometer,1.6820861731320806e+18,11.50208056640625,,,,-0.340850830078125,973.0897827148438,,,,,,,,,,,,,,,,,,,,,,,,,,,,,
Barometer,1.682086173157222e+18,11.527221923828124,,,,-0.760986328125,973.1386108398438,,,,,,,,,,,,,,,,,,,,,,,,,,,,,
Barometer,1.6820861731823631e+18,11.552363037109375,,,,-0.94329833984375,973.1599731445312,,,,,,,,,,,,,,,,,,,,,,,,,,,,,
Barometer,1.6820861732075026e+18,11.577502685546875,,,,-0.393707275390625,973.0958862304688,,,,,,,,,,,,,,,,,,,,,,,,,,,,,
Barometer,1.6820861732326318e+18,11.6026318359375,,,,0.2906494140625,973.0165405273438,,,,,,,,,,,,,,,,,,,,,,,,,,,,,
Barometer,1.6820861732577836e+18,11.627783447265625,,,,0.314422607421875,973.0134887695312,,,,,,,,,,,,,,,,,,,,,,,,,,,,,
Barometer,1.6820861732829238e+18,11.652923828125,,,,-0.0528564453125,973.0562133789062,,,,,,,,,,,,,,,,,,,,,,,,,,,,,
Barometer,1.6820861733080637e+18,11.678063720703125,,,,0.42010498046875,973.0012817382812,,,,,,,,,,,,,,,,,,,,,,,,,,,,,
Barometer,1.682086173333204e+18,11.703203857421874,,,,1.7069091796875,972.8517456054688,,,,,,,,,,,,,,,,,,,,,,,,,,,,,
Barometer,1.682086173358345e+18,11.728344970703125,,,,2.62640380859375,972.7449340820312,,,,,,,,,,,,,,,,,,,,,,,,,,,,,
Barometer,1.6820861733834842e+18,11.753484130859375,,,,2.65283203125,972.7418823242188,,,,,,,,,,,,,,,,,,,,,,,,,,,,,
Barometer,1.682086173408625e+18,11.778625,,,,2.1534423828125,972.7998657226562,,,,,,,,,,,,,,,,,,,,,,,,,,,,,
Barometer,1.6820861734337654e+18,11.803765380859375,,,,1.865447998046875,972.8334350585938,,,,,,,,,,,,,,,,,,,,,,,,,,,,,
Barometer,1.682086173458906e+18,11.828906005859375,,,,1.73333740234375,972.8486938476562,,,,,,,,,,,,,,,,,,,,,,,,,,,,,
Barometer,1.6820861734840364e+18,11.854036376953125,,,,1.47174072265625,972.8792114257812,,,,,,,,,,,,,,,,,,,,,,,,,,,,,
Barometer,1.6820861735091745e+18,11.879174560546875,,,,1.313201904296875,972.8975219726562,,,,,,,,,,,,,,,,,,,,,,,,,,,,,
Barometer,1.6820861735343137e+18,11.904313720703126,,,,1.47174072265625,972.8792114257812,,,,,,,,,,,,,,,,,,,,,,,,,,,,,
Barometer,1.6820861735594532e+18,11.929453125,,,,1.23394775390625,972.9066772460938,,,,,,,,,,,,,,,,,,,,,,,,,,,,,
Barometer,1.6820861735845947e+18,11.9545947265625,,,,0.631500244140625,972.9768676757812,,,,,,,,,,,,,,,,,,,,,,,,,,,,,
Barometer,1.6820861736097334e+18,11.9797333984375,,,,0.367279052734375,973.0073852539062,,,,,,,,,,,,,,,,,,,,,,,,,,,,,
Barometer,1.682086173634873e+18,12.004873046875,,,,0.52581787109375,972.9890747070312,,,,,,,,,,,,,,,,,,,,,,,,,,,,,
Barometer,1.6820861736600195e+18,12.03001953125,,,,0.631500244140625,972.9768676757812,,,,,,,,,,,,,,,,,,,,,,,,,,,,,
Barometer,1.6820861736851581e+18,12.055158203125,,,,0.760986328125,972.9616088867188,,,,,,,,,,,,,,,,,,,,,,,,,,,,,
Barometer,1.6820861737102904e+18,12.08029052734375,,,,1.2603759765625,972.9036254882812,,,,,,,,,,,,,,,,,,,,,,,,,,,,,
Barometer,1.6820861737354286e+18,12.1054287109375,,,,1.654052734375,972.8578491210938,,,,,,,,,,,,,,,,,,,,,,,,,,,,,
Barometer,1.682086173760579e+18,12.1305791015625,,,,1.366058349609375,972.891357421875,,,,,,,,,,,,,,,,,,,,,,,,,,,,,
Barometer,1.6820861737857178e+18,12.1557177734375,,,,0.578643798828125,972.9829711914062,,,,,,,,,,,,,,,,,,,,,,,,,,,,,
Barometer,1.6820861738108575e+18,12.180857421875,,,,0.393707275390625,973.0043334960938,,,,,,,,,,,,,,,,,,,,,,,,,,,,,
Barometer,1.6820861738359974e+18,12.20599755859375,,,,0.893096923828125,972.9463500976562,,,,,,,,,,,,,,,,,,,,,,,,,,,,,
Barometer,1.6820861738611387e+18,12.231138671875,,,,1.4981689453125,972.8761596679688,,,,,,,,,,,,,,,,,,,,,,,,,,,,,
Barometer,1.6820861738862781e+18,12.256278076171874,,,,2.021331787109375,972.8151245117188,,,,,,,,,,,,,,,,,,,,,,,,,,,,,
Barometer,1.6820861739114196e+18,12.281419677734375,,,,2.784942626953125,972.7266235351562,,,,,,,,,,,,,,,,,,,,,,,,,,,,,
Barometer,1.6820861739365599e+18,12.306559814453125,,,,2.864227294921875,972.7174682617188,,,,,,,,,,,,,,,,,,,,,,,,,,,,,
Barometer,1.6820861739616996e+18,12.331699462890626,,,,1.73333740234375,972.8486938476562,,,,,,,,,,,,,,,,,,,,,,,,,,,,,
Barometer,1.6820861739868385e+18,12.356838623046874,,,,0.657928466796875,972.9738159179688,,,,,,,,,,,,,,,,,,,,,,,,,,,,,
Barometer,1.682086174011972e+18,12.38197216796875,,,,0.446533203125,972.9982299804688,,,,,,,,,,,,,,,,,,,,,,,,,,,,,
Barometer,1.6820861740371246e+18,12.40712451171875,,,,0.813812255859375,972.9555053710938,,,,,,,,,,,,,,,,,,,,,,,,,,,,,
Barometer,1.6820861740622556e+18,12.432255615234375,,,,1.339630126953125,972.8944702148438,,,,,,,,,,,,,,,,,,,,,,,,,,,,,
Barometer,1.6820861740874025e+18,12.457402587890625,,,,1.839019775390625,972.8364868164062,,,,,,,,,,,,,,,,,,,,,,,,,,,,,
Barometer,1.6820861741125363e+18,12.482536376953124,,,,1.73333740234375,972.8486938476562,,,,,,,,,,,,,,,,,,,,,,,,,,,,,
Barometer,1.682086174137689e+18,12.507689208984376,,,,1.577423095703125,972.8670043945312,,,,,,,,,,,,,,,,,,,,,,,,,,,,,
Barometer,1.682086174162818e+18,12.532818115234376,,,,1.313201904296875,972.8975219726562,,,,,,,,,,,,,,,,,,,,,,,,,,,,,
Barometer,1.6820861741879677e+18,12.5579677734375,,,,0.158538818359375,973.0317993164062,,,,,,,,,,,,,,,,,,,,,,,,,,,,,
Barometer,1.6820861742130975e+18,12.583097412109375,,,,-2.074188232421875,973.2911987304688,,,,,,,,,,,,,,,,,,,,,,,,,,,,,
Barometer,1.6820861742382428e+18,12.608242919921874,,,,-3.464019775390625,973.4529418945312,,,,,,,,,,,,,,,,,,,,,,,,,,,,,
Barometer,1.6820861742633812e+18,12.63338134765625,,,,-3.09674072265625,973.4102172851562,,,,,,,,,,,,,,,,,,,,,,,,,,,,,
Barometer,1.6820861742885322e+18,12.6585322265625,,,,-1.44268798828125,973.2179565429688,,,,,,,,,,,,,,,,,,,,,,,,,,,,,
Barometer,1.6820861743136678e+18,12.683667724609375,,,,0.840240478515625,972.9524536132812,,,,,,,,,,,,,,,,,,,,,,,,,,,,,
Barometer,1.6820861743388035e+18,12.708803466796875,,,,2.7056884765625,972.7357788085938,,,,,,,,,,,,,,,,,,,,,,,,,,,,,
Barometer,1.6820861743639683e+18,12.73396826171875,,,,3.1522216796875,972.6838989257812,,,,,,,,,,,,,,,,,,,,,,,,,,,,,
Barometer,1.6820861743890985e+18,12.759098388671875,,,,2.96728515625,972.7052612304688,,,,,,,,,,,,,,,,,,,,,,,,,,,,,
Barometer,1.682086174414239e+18,12.784239013671876,,,,3.046539306640625,972.696044921875,,,,,,,,,,,,,,,,,,,,,,,,,,,,,
Barometer,1.6820861744393784e+18,12.80937841796875,,,,3.12579345703125,972.6869506835938,,,,,,,,,,,,,,,,,,,,,,,,,,,,,
Barometer,1.682086174464521e+18,12.83452099609375,,,,2.83514404296875,972.7205200195312,,,,,,,,,,,,,,,,,,,,,,,,,,,,,
Barometer,1.682086174489652e+18,12.85965185546875,,,,2.547149658203125,972.7540893554688,,,,,,,,,,,,,,,,,,,,,,,,,,,,,
Barometer,1.6820861745147958e+18,12.884795654296875,,,,2.391265869140625,972.7723999023438,,,,,,,,,,,,,,,,,,,,,,,,,,,,,
Barometer,1.682086174539945e+18,12.909945068359375,,,,1.994903564453125,972.8181762695312,,,,,,,,,,,,,,,,,,,,,,,,,,,,,
Barometer,1.6820861745650785e+18,12.93507861328125,,,,1.577423095703125,972.8670043945312,,,,,,,,,,,,,,,,,,,,,,,,,,,,,
Barometer,1.682086174590227e+18,12.96022705078125,,,,1.601226806640625,972.8639526367188,,,,,,,,,,,,,,,,,,,,,,,,,,,,,
Barometer,1.682086174615366e+18,12.985365966796875,,,,1.91827392578125,972.8273315429688,,,,,,,,,,,,,,,,,,,,,,,,,,,,,
Barometer,1.682086174640506e+18,13.010506103515626,,,,1.91827392578125,972.8273315429688,,,,,,,,,,,,,,,,,,,,,,,,,,,,,
Barometer,1.682086174665646e+18,13.03564599609375,,,,1.759765625,972.8456420898438,,,,,,,,,,,,,,,,,,,,,,,,,,,,,
