sensor,time,seconds_elapsed,z,y,x,relativeAltitude,pressure,batteryLevel,batteryState,lowPowerMode,brightness,lux,bearingAccuracy,speedAccuracy,verticalAccuracy,horizontalAccuracy,speed,bearing,altitude,longitude,latitude,version,device name,recording time,platform,appVersion,device id,sensors,sampleRateMs,qz,qy,qx,qw,roll,pitch,yaw
Magnetometer,1.682086161777643e+18,0.14764306640625,-8.356999397277832,-48.507198333740234,-6.575799942016602,,,,,,,,,,,,,,,,,,,,,,,,,,,,,,,
Magnetometer,1.682086161787693e+18,0.157693115234375,-6.978399753570557,-48.568199157714844,-6.185400009155273,,,,,,,,,,,,,,,,,,,,,,,,,,,,,,,
Magnetometer,1.6820861617977428e+18,0.167742919921875,-6.112199783325195,-49.239200592041016,-6.3196001052856445,,,,,,,,,,,,,,,,,,,,,,,,,,,,,,,
Magnetometer,1.682086161807793e+18,0.17779296875,-6.002399921417236,-49.69059753417969,-6.075599670410156,,,,,,,,,,,,,,,,,,,,,,,,,,,,,,,
Magnetometer,1.682086161817843e+18,0.187843017578125,-5.014199733734131,-49.73939895629883,-5.78279972076416,,,,,,,,,,,,,,,,,,,,,,,,,,,,,,,
Magnetometer,1.682086161827893e+18,0.19789306640625,-4.843400001525879,-49.946800231933594,-6.002399921417236,,,,,,,,,,,,,,,,,,,,,,,,,,,,,,,
Magnetometer,1.682086161837943e+18,0.207943115234375,-5.111799716949463,-49.95899963378906,-6.2829999923706055,,,,,,,,,,,,,,,,,,,,,,,,,,,,,,,
Magnetometer,1.6820861618479928e+18,0.217992919921875,-4.0991997718811035,-50.27619934082031,-5.428999900817871,,,,,,,,,,,,,,,,,,,,,,,,,,,,,,,
Magnetometer,1.682086161858043e+18,0.22804296875,-4.538399696350098,-50.202999114990234,-4.940999984741211,,,,,,,,,,,,,,,,,,,,,,,,,,,,,,,
Magnetometer,1.682086161868093e+18,0.238093017578125,-4.123600006103516,-50.78860092163086,-4.770199775695801,,,,,,,,,,,,,,,,,,,,,,,,,,,,,,,
Magnetometer,1.682086161878143e+18,0.24814306640625,-4.379799842834473,-50.71540069580078,-4.697000026702881,,,,,,,,,,,,,,,,,,,,,,,,,,,,,,,
Magnetometer,1.682086161888193e+18,0.258193115234375,-3.9161999225616455,-50.54459762573242,-3.8429999351501465,,,,,,,,,,,,,,,,,,,,,,,,,,,,,,,
Magnetometer,1.6820861618982428e+18,0.268242919921875,-4.221199989318848,-50.874000549316406,-3.4769999980926514,,,,,,,,,,,,,,,,,,,,,,,,,,,,,,,
Magnetometer,1.6820861619082929e+18,0.27829296875,-4.257800102233887,-50.78860092163086,-3.5135998725891113,,,,,,,,,,,,,,,,,,,,,,,,,,,,,,,
Magnetometer,1.682086161918343e+18,0.288343017578125,-3.8917999267578125,-50.6177978515625,-3.3671998977661133,,,,,,,,,,,,,,,,,,,,,,,,,,,,,,,
Magnetometer,1.682086161928393e+18,0.29839306640625,-4.282199859619141,-50.398197174072266,-3.1598000526428223,,,,,,,,,,,,,,,,,,,,,,,,,,,,,,,
Magnetometer,1.682086161938443e+18,0.308443115234375,-5.22160005569458,-50.251800537109375,-3.9284000396728516,,,,,,,,,,,,,,,,,,,,,,,,,,,,,,,
Magnetometer,1.6820861619484928e+18,0.318492919921875,-5.929199695587158,-49.91019821166992,-4.501800060272217,,,,,,,,,,,,,,,,,,,,,,,,,,,,,,,
Magnetometer,1.6820861619585428e+18,0.32854296875,-8.234999656677246,-49.37339782714844,-4.782400131225586,,,,,,,,,,,,,,,,,,,,,,,,,,,,,,,
Magnetometer,1.682086161968593e+18,0.338593017578125,-9.46720027923584,-48.177799224853516,-5.78279972076416,,,,,,,,,,,,,,,,,,,,,,,,,,,,,,,
Magnetometer,1.682086161978643e+18,0.348642822265625,-11.60219955444336,-47.59219741821289,-6.112199783325195,,,,,,,,,,,,,,,,,,,,,,,,,,,,,,,
Magnetometer,1.682086161988693e+18,0.35869287109375,-12.163399696350098,-46.665000915527344,-6.3805999755859375,,,,,,,,,,,,,,,,,,,,,,,,,,,,,,,
Magnetometer,1.6820861619987428e+18,0.36874267578125,-13.480999946594238,-45.76219940185547,-6.953999996185303,,,,,,,,,,,,,,,,,,,,,,,,,,,,,,,
Magnetometer,1.6820861620087928e+18,0.378792724609375,-15.3597993850708,-45.274200439453125,-8.100799560546875,,,,,,,,,,,,,,,,,,,,,,,,,,,,,,,
Magnetometer,1.682086162018843e+18,0.3888427734375,-15.713600158691406,-45.00579833984375,-8.137399673461914,,,,,,,,,,,,,,,,,,,,,,,,,,,,,,,
Magnetometer,1.682086162028893e+18,0.398892822265625,-16.55539894104004,-44.62759780883789,-8.052000045776367,,,,,,,,,,,,,,,,,,,,,,,,,,,,,,,
Magnetometer,1.682086162038943e+18,0.40894287109375,-16.347999572753906,-45.04240036010742,-7.746999740600586,,,,,,,,,,,,,,,,,,,,,,,,,,,,,,,
Magnetometer,1.682086162048993e+18,0.418992919921875,-15.432999610900879,-45.786598205566406,-7.795799732208252,,,,,,,,,,,,,,,,,,,,,,,,,,,,,,,
Magnetometer,1.6820861620590428e+18,0.429042724609375,-14.27400016784668,-46.274600982666016,-7.990999698638916,,,,,,,,,,,,,,,,,,,,,,,,,,,,,,,
Magnetometer,1.6820861620690929e+18,0.4390927734375,-12.565999984741211,-47.00659942626953,-8.076399803161621,,,,,,,,,,,,,,,,,,,,,,,,,,,,,,,
Magnetometer,1.682086162079143e+18,0.449142822265625,-11.272799491882324,-47.68980026245117,-7.807999610900879,,,,,,,,,,,,,,,,,,,,,,,,,,,,,,,
Magnetometer,1.682086162089193e+18,0.45919287109375,-9.821000099182129,-48.555999755859375,-7.954400062561035,,,,,,,,,,,,,,,,,,,,,,,,,,,,,,,
Magnetometer,1.682086162099243e+18,0.469242919921875,-7.197999954223633,-49.69059753417969,-7.478600025177002,,,,,,,,,,,,,,,,,,,,,,,,,,,,,,,
Magnetometer,1.6820861621092928e+18,0.479292724609375,-5.868199825286865,-49.9833984375,-7.222399711608887,,,,,,,,,,,,,,,,,,,,,,,,,,,,,,,
Magnetometer,1.6820861621193428e+18,0.4893427734375,-4.135799884796143,-50.33720016479492,-6.6855998039245605,,,,,,,,,,,,,,,,,,,,,,,,,,,,,,,
Magnetometer,1.682086162129393e+18,0.499392822265625,-2.757200002670288,-50.59339904785156,-6.502599716186523,,,,,,,,,,,,,,,,,,,,,,,,,,,,,,,
Magnetometer,1.682086162139443e+18,0.50944287109375,-2.488800048828125,-50.78860092163086,-6.3927998542785645,,,,,,,,,,,,,,,,,,,,,,,,,,,,,,,
Magnetometer,1.682086162149493e+18,0.519492919921875,-0.8051999807357788,-50.776397705078125,-6.1975998878479,,,,,,,,,,,,,,,,,,,,,,,,,,,,,,,
Magnetometer,1.6820861621595428e+18,0.529542724609375,-0.3537999987602234,-51.252197265625,-6.5269999504089355,,,,,,,,,,,,,,,,,,,,,,,,,,,,,,,
Magnetometer,1.6820861621695928e+18,0.5395927734375,0.561199963092804,-51.0447998046875,-5.990200042724609,,,,,,,,,,,,,,,,,,,,,,,,,,,,,,,
Magnetometer,1.682086162179643e+18,0.549642822265625,2.183799982070923,-51.093597412109375,-5.721799850463867,,,,,,,,,,,,,,,,,,,,,,,,,,,,,,,
Magnetometer,1.682086162189693e+18,0.55969287109375,2.061800003051758,-50.91059875488281,-5.575399875640869,,,,,,,,,,,,,,,,,,,,,,,,,,,,,,,
Magnetometer,1.682086162199743e+18,0.569742919921875,2.427799940109253,-51.2765998840332,-5.404599666595459,,,,,,,,,,,,,,,,,,,,,,,,,,,,,,,
Magnetometer,1.6820861622097928e+18,0.579792724609375,1.6957999467849731,-51.43519973754883,-5.026400089263916,,,,,,,,,,,,,,,,,,,,,,,,,,,,,,,
Magnetometer,1.6820861622198428e+18,0.5898427734375,1.9642000198364258,-51.38639831542969,-4.953199863433838,,,,,,,,,,,,,,,,,,,,,,,,,,,,,,,
Magnetometer,1.6820861622298929e+18,0.599892822265625,2.134999990463257,-51.31319808959961,-5.453399658203125,,,,,,,,,,,,,,,,,,,,,,,,,,,,,,,
Magnetometer,1.682086162239943e+18,0.60994287109375,2.122799873352051,-50.99599838256836,-4.928800106048584,,,,,,,,,,,,,,,,,,,,,,,,,,,,,,,
Magnetometer,1.682086162249993e+18,0.619992919921875,1.524999976158142,-51.398597717285156,-5.111799716949463,,,,,,,,,,,,,,,,,,,,,,,,,,,,,,,
Magnetometer,1.682086162260043e+18,0.63004296875,1.6713999509811401,-51.23999786376953,-4.965399742126465,,,,,,,,,,,,,,,,,,,,,,,,,,,,,,,
Magnetometer,1.6820861622700928e+18,0.6400927734375,0.8905999660491943,-51.32539749145508,-5.624199867248535,,,,,,,,,,,,,,,,,,,,,,,,,,,,,,,
Magnetometer,1.6820861622801428e+18,0.650142822265625,-0.3781999945640564,-51.00819778442383,-5.721799850463867,,,,,,,,,,,,,,,,,,,,,,,,,,,,,,,
Magnetometer,1.682086162290193e+18,0.66019287109375,-0.7441999912261963,-50.398197174072266,-6.4903998374938965,,,,,,,,,,,,,,,,,,,,,,,,,,,,,,,
Magnetometer,1.682086162300243e+18,0.670242919921875,-1.6835999488830566,-50.1786003112793,-6.6977996826171875,,,,,,,,,,,,,,,,,,,,,,,,,,,,,,,
Magnetometer,1.682086162310293e+18,0.68029296875,-3.2207999229431152,-49.69059753417969,-8.186200141906738,,,,,,,,,,,,,,,,,,,,,,,,,,,,,,,
Magnetometer,1.6820861623203428e+18,0.6903427734375,-4.672599792480469,-49.59299850463867,-9.137800216674805,,,,,,,,,,,,,,,,,,,,,,,,,,,,,,,
Magnetometer,1.6820861623303928e+18,0.700392822265625,-5.78279972076416,-48.934200286865234,-9.149999618530273,,,,,,,,,,,,,,,,,,,,,,,,,,,,,,,
Magnetometer,1.682086162340443e+18,0.71044287109375,-7.576200008392334,-48.28759765625,-8.674200057983398,,,,,,,,,,,,,,,,,,,,,,,,,,,,,,,
Magnetometer,1.682086162350493e+18,0.720492919921875,-6.856400012969971,-48.37299728393555,-8.43019962310791,,,,,,,,,,,,,,,,,,,,,,,,,,,,,,,
Magnetometer,1.682086162360543e+18,0.73054296875,-7.45419979095459,-49.08060073852539,-7.905600070953369,,,,,,,,,,,,,,,,,,,,,,,,,,,,,,,
Magnetometer,1.6820861623705928e+18,0.7405927734375,-6.563600063323975,-48.98299789428711,-7.45419979095459,,,,,,,,,,,,,,,,,,,,,,,,,,,,,,,
Magnetometer,1.6820861623806428e+18,0.750642822265625,-6.856400012969971,-49.812599182128906,-6.990599632263184,,,,,,,,,,,,,,,,,,,,,,,,,,,,,,,
Magnetometer,1.6820861623906929e+18,0.76069287109375,-5.551000118255615,-50.398197174072266,-6.2342000007629395,,,,,,,,,,,,,,,,,,,,,,,,,,,,,,,
Magnetometer,1.682086162400743e+18,0.770742919921875,-5.306999683380127,-50.53239822387695,-5.587599754333496,,,,,,,,,,,,,,,,,,,,,,,,,,,,,,,
Magnetometer,1.682086162410793e+18,0.78079296875,-3.6355998516082764,-50.34939956665039,-5.404599666595459,,,,,,,,,,,,,,,,,,,,,,,,,,,,,,,
Magnetometer,1.6820861624208428e+18,0.7908427734375,-3.3183999061584473,-51.252197265625,-5.990200042724609,,,,,,,,,,,,,,,,,,,,,,,,,,,,,,,
Magnetometer,1.6820861624308928e+18,0.800892822265625,-2.40339994430542,-50.78860092163086,-5.758399963378906,,,,,,,,,,,,,,,,,,,,,,,,,,,,,,,
Magnetometer,1.6820861624409428e+18,0.81094287109375,-1.8055999279022217,-51.32539749145508,-5.026400089263916,,,,,,,,,,,,,,,,,,,,,,,,,,,,,,,
Magnetometer,1.682086162450993e+18,0.820992919921875,-0.8783999681472778,-50.98379898071289,-5.099599838256836,,,,,,,,,,,,,,,,,,,,,,,,,,,,,,,
Magnetometer,1.682086162461043e+18,0.83104296875,-0.7563999891281128,-51.33760070800781,-5.795000076293945,,,,,,,,,,,,,,,,,,,,,,,,,,,,,,,
Magnetometer,1.6820861624710927e+18,0.8410927734375,-0.21959999203681946,-51.43519973754883,-5.685199737548828,,,,,,,,,,,,,,,,,,,,,,,,,,,,,,,
Magnetometer,1.6820861624811428e+18,0.851142822265625,1.0613999366760254,-51.32539749145508,-5.477799892425537,,,,,,,,,,,,,,,,,,,,,,,,,,,,,,,
Magnetometer,1.6820861624911928e+18,0.86119287109375,0.4513999819755554,-51.17900085449219,-5.355799674987793,,,,,,,,,,,,,,,,,,,,,,,,,,,,,,,
Magnetometer,1.682086162501243e+18,0.871242919921875,1.0369999408721924,-51.22779846191406,-5.343599796295166,,,,,,,,,,,,,,,,,,,,,,,,,,,,,,,
Magnetometer,1.682086162511293e+18,0.88129296875,1.7567999362945557,-50.825199127197266,-5.70959997177124,,,,,,,,,,,,,,,,,,,,,,,,,,,,,,,
Magnetometer,1.682086162521343e+18,0.891343017578125,0.7319999933242798,-51.142398834228516,-5.758399963378906,,,,,,,,,,,,,,,,,,,,,,,,,,,,,,,
Magnetometer,1.6820861625313928e+18,0.901392822265625,1.3176000118255615,-50.75199890136719,-6.221999645233154,,,,,,,,,,,,,,,,,,,,,,,,,,,,,,,
Magnetometer,1.6820861625414428e+18,0.91144287109375,0.5489999651908875,-50.825199127197266,-6.356199741363525,,,,,,,,,,,,,,,,,,,,,,,,,,,,,,,
Magnetometer,1.6820861625514929e+18,0.921492919921875,-0.3537999987602234,-50.520198822021484,-5.660799980163574,,,,,,,,,,,,,,,,,,,,,,,,,,,,,,,
Magnetometer,1.682086162561543e+18,0.93154296875,-1.5859999656677246,-50.70319747924805,-5.916999816894531,,,,,,,,,,,,,,,,,,,,,,,,,,,,,,,
Magnetometer,1.682086162571593e+18,0.941593017578125,-3.5135998725891113,-50.37379837036133,-6.1975998878479,,,,,,,,,,,,,,,,,,,,,,,,,,,,,,,
Magnetometer,1.6820861625816428e+18,0.951642822265625,-4.233399868011475,-50.141998291015625,-7.197999954223633,,,,,,,,,,,,,,,,,,,,,,,,,,,,,,,
Magnetometer,1.6820861625916928e+18,0.96169287109375,-5.526599884033203,-49.5807991027832,-7.112599849700928,,,,,,,,,,,,,,,,,,,,,,,,,,,,,,,
Magnetometer,1.6820861626017428e+18,0.971742919921875,-7.368799686431885,-48.885398864746094,-8.2593994140625,,,,,,,,,,,,,,,,,,,,,,,,,,,,,,,
Magnetometer,1.682086162611793e+18,0.98179296875,-7.710399627685547,-48.83659744262695,-7.307799816131592,,,,,,,,,,,,,,,,,,,,,,,,,,,,,,,
Magnetometer,1.682086162621843e+18,0.991843017578125,-7.661599636077881,-49.09280014038086,-7.283400058746338,,,,,,,,,,,,,,,,,,,,,,,,,,,,,,,
Magnetometer,1.6820861626318927e+18,1.001892822265625,-5.78279972076416,-49.129398345947266,-7.393199920654297,,,,,,,,,,,,,,,,,,,,,,,,,,,,,,,
Magnetometer,1.6820861626419428e+18,1.01194287109375,-4.843400001525879,-49.763797760009766,-6.7221999168396,,,,,,,,,,,,,,,,,,,,,,,,,,,,,,,
Magnetometer,1.6820861626519928e+18,1.021992919921875,-4.1479997634887695,-49.934600830078125,-6.514800071716309,,,,,,,,,,,,,,,,,,,,,,,,,,,,,,,
Magnetometer,1.682086162662043e+18,1.03204296875,-1.5127999782562256,-50.446998596191406,-6.343999862670898,,,,,,,,,,,,,,,,,,,,,,,,,,,,,,,
Magnetometer,1.682086162672093e+18,1.042093017578125,-1.281000018119812,-50.6177978515625,-6.246399879455566,,,,,,,,,,,,,,,,,,,,,,,,,,,,,,,
Magnetometer,1.6820861626821427e+18,1.052142822265625,0.3416000008583069,-50.825199127197266,-5.636399745941162,,,,,,,,,,,,,,,,,,,,,,,,,,,,,,,
Magnetometer,1.6820861626921928e+18,1.06219287109375,0.060999996960163116,-50.99599838256836,-5.331399917602539,,,,,,,,,,,,,,,,,,,,,,,,,,,,,,,
Magnetometer,1.6820861627021937e+18,1.072193603515625,1.524999976158142,-51.4839973449707,-5.258199691772461,,,,,,,,,,,,,,,,,,,,,,,,,,,,,,,
Magnetometer,1.682086162712204e+18,1.0822041015625,3.001199960708618,-51.33760070800781,-4.831200122833252,,,,,,,,,,,,,,,,,,,,,,,,,,,,,,,
Magnetometer,1.6820861627222003e+18,1.092200439453125,3.5989999771118164,-51.31319808959961,-4.73360013961792,,,,,,,,,,,,,,,,,,,,,,,,,,,,,,,
Magnetometer,1.682086162732204e+18,1.1022041015625,3.9893999099731445,-51.215599060058594,-4.721399784088135,,,,,,,,,,,,,,,,,,,,,,,,,,,,,,,
Magnetometer,1.6820861627422042e+18,1.1122041015625,4.928800106048584,-50.947200775146484,-5.551000118255615,,,,,,,,,,,,,,,,,,,,,,,,,,,,,,,
Magnetometer,1.6820861627521943e+18,1.1221943359375,4.721399784088135,-51.30099868774414,-5.672999858856201,,,,,,,,,,,,,,,,,,,,,,,,,,,,,,,
Magnetometer,1.6820861627622042e+18,1.1322041015625,5.587599754333496,-51.17900085449219,-5.148399829864502,,,,,,,,,,,,,,,,,,,,,,,,,,,,,,,
Magnetometer,1.6820861627722043e+18,1.142204345703125,5.514400005340576,-51.00819778442383,-5.343599796295166,,,,,,,,,,,,,,,,,,,,,,,,,,,,,,,
Magnetometer,1.682086162782204e+18,1.152203857421875,4.721399784088135,-51.31319808959961,-5.990200042724609,,,,,,,,,,,,,,,,,,,,,,,,,,,,,,,
Magnetometer,1.682086162792204e+18,1.1622041015625,4.574999809265137,-51.28879928588867,-4.416399955749512,,,,,,,,,,,,,,,,,,,,,,,,,,,,,,,
Magnetometer,1.6820861628022088e+18,1.172208740234375,3.3306000232696533,-51.410797119140625,-4.31879997253418,,,,,,,,,,,,,,,,,,,,,,,,,,,,,,,
Magnetometer,1.682086162812204e+18,1.1822041015625,1.5859999656677246,-51.215599060058594,-5.343599796295166,,,,,,,,,,,,,,,,,,,,,,,,,,,,,,,
Magnetometer,1.682086162822217e+18,1.192217041015625,-0.25619998574256897,-51.264400482177734,-4.721399784088135,,,,,,,,,,,,,,,,,,,,,,,,,,,,,,,
Magnetometer,1.6820861628321933e+18,1.202193359375,-3.5379998683929443,-50.42259979248047,-5.599800109863281,,,,,,,,,,,,,,,,,,,,,,,,,,,,,,,
Magnetometer,1.6820861628422042e+18,1.2122041015625,-6.892999649047852,-49.312400817871094,-6.466000080108643,,,,,,,,,,,,,,,,,,,,,,,,,,,,,,,
Magnetometer,1.682086162852199e+18,1.222198974609375,-8.613200187683105,-48.40959930419922,-6.404999732971191,,,,,,,,,,,,,,,,,,,,,,,,,,,,,,,
Magnetometer,1.6820861628621942e+18,1.232194091796875,-10.491999626159668,-48.32419967651367,-7.746999740600586,,,,,,,,,,,,,,,,,,,,,,,,,,,,,,,
Magnetometer,1.6820861628722043e+18,1.242204345703125,-9.796599388122559,-47.95819854736328,-7.94219970703125,,,,,,,,,,,,,,,,,,,,,,,,,,,,,,,
Magnetometer,1.6820861628821947e+18,1.252194580078125,-9.564800262451172,-48.03139877319336,-7.94219970703125,,,,,,,,,,,,,,,,,,,,,,,,,,,,,,,
Magnetometer,1.682086162892204e+18,1.2622041015625,-8.418000221252441,-48.89759826660156,-9.25979995727539,,,,,,,,,,,,,,,,,,,,,,,,,,,,,,,
Magnetometer,1.682086162902204e+18,1.272203857421875,-6.831999778747559,-48.73899841308594,-7.990999698638916,,,,,,,,,,,,,,,,,,,,,,,,,,,,,,,
Magnetometer,1.68208616291219e+18,1.28218994140625,-6.112199783325195,-49.65399932861328,-7.002799987792969,,,,,,,,,,,,,,,,,,,,,,,,,,,,,,,
Magnetometer,1.682086162922207e+18,1.29220703125,-4.184599876403809,-49.67839813232422,-6.905200004577637,,,,,,,,,,,,,,,,,,,,,,,,,,,,,,,
Magnetometer,1.6820861629322038e+18,1.302203857421875,-1.5981999635696411,-50.03219985961914,-6.831999778747559,,,,,,,,,,,,,,,,,,,,,,,,,,,,,,,
Magnetometer,1.6820861629422042e+18,1.3122041015625,-0.4757999777793884,-50.874000549316406,-6.575799942016602,,,,,,,,,,,,,,,,,,,,,,,,,,,,,,,
Magnetometer,1.6820861629521935e+18,1.322193603515625,-0.5001999735832214,-50.53239822387695,-7.075999736785889,,,,,,,,,,,,,,,,,,,,,,,,,,,,,,,
Magnetometer,1.6820861629621934e+18,1.332193359375,-0.18299999833106995,-50.70319747924805,-7.295599937438965,,,,,,,,,,,,,,,,,,,,,,,,,,,,,,,
Magnetometer,1.6820861629721938e+18,1.34219384765625,1.9642000198364258,-50.37379837036133,-7.600599765777588,,,,,,,,,,,,,,,,,,,,,,,,,,,,,,,
Magnetometer,1.6820861629822042e+18,1.3522041015625,3.5867998600006104,-51.093597412109375,-6.6977996826171875,,,,,,,,,,,,,,,,,,,,,,,,,,,,,,,
Magnetometer,1.6820861629921935e+18,1.362193603515625,4.379799842834473,-50.8129997253418,-6.4781999588012695,,,,,,,,,,,,,,,,,,,,,,,,,,,,,,,
Magnetometer,1.6820861630021934e+18,1.372193359375,6.02679967880249,-50.92279815673828,-5.868199825286865,,,,,,,,,,,,,,,,,,,,,,,,,,,,,,,
Magnetometer,1.6820861630122058e+18,1.382205810546875,5.892600059509277,-51.0203971862793,-6.075599670410156,,,,,,,,,,,,,,,,,,,,,,,,,,,,,,,
Magnetometer,1.6820861630221937e+18,1.392193603515625,6.917399883270264,-50.825199127197266,-6.6977996826171875,,,,,,,,,,,,,,,,,,,,,,,,,,,,,,,
Magnetometer,1.6820861630322038e+18,1.402203857421875,7.69819974899292,-51.0447998046875,-6.087800025939941,,,,,,,,,,,,,,,,,,,,,,,,,,,,,,,
Magnetometer,1.682086163042204e+18,1.412203857421875,6.4293999671936035,-50.837398529052734,-6.4903998374938965,,,,,,,,,,,,,,,,,,,,,,,,,,,,,,,
Magnetometer,1.6820861630522043e+18,1.422204345703125,5.148399829864502,-50.71540069580078,-7.625,,,,,,,,,,,,,,,,,,,,,,,,,,,,,,,
Magnetometer,1.6820861630621937e+18,1.432193603515625,4.757999897003174,-50.70319747924805,-6.2708001136779785,,,,,,,,,,,,,,,,,,,,,,,,,,,,,,,
Magnetometer,1.6820861630721938e+18,1.44219384765625,-1.3420000076293945,-50.471397399902344,-6.96619987487793,,,,,,,,,,,,,,,,,,,,,,,,,,,,,,,
Magnetometer,1.6820861630822042e+18,1.4522041015625,-4.209000110626221,-50.3859977722168,-7.478600025177002,,,,,,,,,,,,,,,,,,,,,,,,,,,,,,,
Magnetometer,1.6820861630922043e+18,1.462204345703125,-7.014999866485596,-49.42219924926758,-7.405399799346924,,,,,,,,,,,,,,,,,,,,,,,,,,,,,,,
Magnetometer,1.6820861631021934e+18,1.472193359375,-9.93079948425293,-48.67799758911133,-9.235400199890137,,,,,,,,,,,,,,,,,,,,,,,,,,,,,,,
Magnetometer,1.682086163112204e+18,1.4822041015625,-11.480199813842773,-46.96999740600586,-8.613200187683105,,,,,,,,,,,,,,,,,,,,,,,,,,,,,,,
Magnetometer,1.682086163122204e+18,1.492203857421875,-14.151999473571777,-46.103797912597656,-9.381799697875977,,,,,,,,,,,,,,,,,,,,,,,,,,,,,,,
Magnetometer,1.6820861631321933e+18,1.502193359375,-14.713199615478516,-44.908199310302734,-9.625800132751465,,,,,,,,,,,,,,,,,,,,,,,,,,,,,,,
Magnetometer,1.6820861631422044e+18,1.512204345703125,-14.444799423217773,-45.3474006652832,-9.967399597167969,,,,,,,,,,,,,,,,,,,,,,,,,,,,,,,
Magnetometer,1.6820861631522048e+18,1.522204833984375,-13.188199996948242,-45.12779998779297,-9.74779987335205,,,,,,,,,,,,,,,,,,,,,,,,,,,,,,,
Magnetometer,1.6820861631621985e+18,1.532198486328125,-12.614799499511719,-46.237998962402344,-9.601399421691895,,,,,,,,,,,,,,,,,,,,,,,,,,,,,,,
Magnetometer,1.682086163172213e+18,1.542212890625,-10.296799659729004,-47.116397857666016,-8.832799911499023,,,,,,,,,,,,,,,,,,,,,,,,,,,,,,,
Magnetometer,1.6820861631821934e+18,1.552193359375,-9.320799827575684,-47.616600036621094,-9.076799392700195,,,,,,,,,,,,,,,,,,,,,,,,,,,,,,,
Magnetometer,1.6820861631922043e+18,1.562204345703125,-8.356999397277832,-48.617000579833984,-8.613200187683105,,,,,,,,,,,,,,,,,,,,,,,,,,,,,,,
Magnetometer,1.6820861632022003e+18,1.572200439453125,-5.551000118255615,-49.068397521972656,-8.857199668884277,,,,,,,,,,,,,,,,,,,,,,,,,,,,,,,
Magnetometer,1.682086163212204e+18,1.5822041015625,-4.160200119018555,-49.27579879760742,-8.564399719238281,,,,,,,,,,,,,,,,,,,,,,,,,,,,,,,
Magnetometer,1.682086163222204e+18,1.592203857421875,-3.6233999729156494,-50.141998291015625,-9.345199584960938,,,,,,,,,,,,,,,,,,,,,,,,,,,,,,,
Magnetometer,1.6820861632322056e+18,1.60220556640625,-1.6591999530792236,-49.99559783935547,-8.91819953918457,,,,,,,,,,,,,,,,,,,,,,,,,,,,,,,
Magnetometer,1.6820861632422057e+18,1.612205810546875,0.012199999764561653,-50.54459762573242,-8.649800300598145,,,,,,,,,,,,,,,,,,,,,,,,,,,,,,,
Magnetometer,1.6820861632522038e+18,1.622203857421875,1.500599980354309,-50.42259979248047,-8.857199668884277,,,,,,,,,,,,,,,,,,,,,,,,,,,,,,,
Magnetometer,1.6820861632621934e+18,1.632193359375,1.7201999425888062,-50.49580001831055,-8.857199668884277,,,,,,,,,,,,,,,,,,,,,,,,,,,,,,,
Magnetometer,1.6820861632722104e+18,1.64221044921875,2.256999969482422,-50.837398529052734,-8.881599426269531,,,,,,,,,,,,,,,,,,,,,,,,,,,,,,,
Magnetometer,1.682086163282204e+18,1.652203857421875,4.56279993057251,-50.75199890136719,-8.564399719238281,,,,,,,,,,,,,,,,,,,,,,,,,,,,,,,
Magnetometer,1.6820861632921935e+18,1.662193603515625,3.110999822616577,-50.70319747924805,-8.039799690246582,,,,,,,,,,,,,,,,,,,,,,,,,,,,,,,
Magnetometer,1.682086163302204e+18,1.672203857421875,4.73360013961792,-50.99599838256836,-8.064199447631836,,,,,,,,,,,,,,,,,,,,,,,,,,,,,,,
Magnetometer,1.6820861633122043e+18,1.682204345703125,4.0503997802734375,-51.2765998840332,-7.759199619293213,,,,,,,,,,,,,,,,,,,,,,,,,,,,,,,
Magnetometer,1.682086163322204e+18,1.692203857421875,0.6710000038146973,-50.776397705078125,-8.344799995422363,,,,,,,,,,,,,,,,,,,,,,,,,,,,,,,
Magnetometer,1.682086163332204e+18,1.7022041015625,-0.3416000008583069,-50.98379898071289,-8.46679973602295,,,,,,,,,,,,,,,,,,,,,,,,,,,,,,,
Magnetometer,1.682086163342204e+18,1.712203857421875,-2.537600040435791,-50.520198822021484,-8.015399932861328,,,,,,,,,,,,,,,,,,,,,,,,,,,,,,,
Magnetometer,1.6820861633522038e+18,1.722203857421875,-5.038599967956543,-49.812599182128906,-7.856800079345703,,,,,,,,,,,,,,,,,,,,,,,,,,,,,,,
Magnetometer,1.6820861633622042e+18,1.7322041015625,-7.429800033569336,-49.71500015258789,-8.161799430847168,,,,,,,,,,,,,,,,,,,,,,,,,,,,,,,
Magnetometer,1.6820861633721981e+18,1.7421982421875,-9.491600036621094,-49.251399993896484,-8.015399932861328,,,,,,,,,,,,,,,,,,,,,,,,,,,,,,,
Magnetometer,1.682086163382204e+18,1.752203857421875,-11.07759952545166,-47.823997497558594,-8.454599380493164,,,,,,,,,,,,,,,,,,,,,,,,,,,,,,,
Magnetometer,1.682086163392204e+18,1.7622041015625,-12.797800064086914,-47.45800018310547,-9.052399635314941,,,,,,,,,,,,,,,,,,,,,,,,,,,,,,,
Magnetometer,1.6820861634021934e+18,1.772193359375,-14.73759937286377,-46.45759963989258,-8.674200057983398,,,,,,,,,,,,,,,,,,,,,,,,,,,,,,,
Magnetometer,1.6820861634122043e+18,1.782204345703125,-15.518399238586426,-46.14039993286133,-8.649800300598145,,,,,,,,,,,,,,,,,,,,,,,,,,,,,,,
Magnetometer,1.6820861634221934e+18,1.792193359375,-12.9197998046875,-46.93339920043945,-8.91819953918457,,,,,,,,,,,,,,,,,,,,,,,,,,,,,,,
Magnetometer,1.682086163432211e+18,1.8022109375,-11.821800231933594,-46.89680099487305,-8.60099983215332,,,,,,,,,,,,,,,,,,,,,,,,,,,,,,,
Magnetometer,1.682086163442204e+18,1.812203857421875,-9.674599647521973,-47.94599914550781,-7.94219970703125,,,,,,,,,,,,,,,,,,,,,,,,,,,,,,,
Magnetometer,1.6820861634521933e+18,1.822193359375,-8.003199577331543,-48.60479736328125,-8.088600158691406,,,,,,,,,,,,,,,,,,,,,,,,,,,,,,,
Magnetometer,1.6820861634622044e+18,1.832204345703125,-5.111799716949463,-49.22699737548828,-8.967000007629395,,,,,,,,,,,,,,,,,,,,,,,,,,,,,,,
Magnetometer,1.6820861634721933e+18,1.842193359375,-2.927999973297119,-49.67839813232422,-8.686399459838867,,,,,,,,,,,,,,,,,,,,,,,,,,,,,,,
Magnetometer,1.6820861634821944e+18,1.8521943359375,-2.0251998901367188,-50.53239822387695,-9.162199974060059,,,,,,,,,,,,,,,,,,,,,,,,,,,,,,,
Magnetometer,1.6820861634922043e+18,1.862204345703125,-0.20739999413490295,-50.471397399902344,-8.747400283813477,,,,,,,,,,,,,,,,,,,,,,,,,,,,,,,
Magnetometer,1.6820861635022093e+18,1.872209228515625,2.342400074005127,-50.3859977722168,-8.222800254821777,,,,,,,,,,,,,,,,,,,,,,,,,,,,,,,
Magnetometer,1.6820861635122043e+18,1.882204345703125,4.269999980926514,-50.520198822021484,-9.174399375915527,,,,,,,,,,,,,,,,,,,,,,,,,,,,,,,
Magnetometer,1.682086163522204e+18,1.892203857421875,5.428999900817871,-50.73979949951172,-8.991399765014648,,,,,,,,,,,,,,,,,,,,,,,,,,,,,,,
Magnetometer,1.6820861635321935e+18,1.902193603515625,7.393199920654297,-50.05659866333008,-8.43019962310791,,,,,,,,,,,,,,,,,,,,,,,,,,,,,,,
Magnetometer,1.6820861635422042e+18,1.9122041015625,7.832399845123291,-50.2151985168457,-8.539999961853027,,,,,,,,,,,,,,,,,,,,,,,,,,,,,,,
Magnetometer,1.682086163552204e+18,1.9222041015625,8.7839994430542,-51.32539749145508,-8.613200187683105,,,,,,,,,,,,,,,,,,,,,,,,,,,,,,,
Magnetometer,1.6820861635621937e+18,1.932193603515625,9.711199760437012,-49.99559783935547,-8.747400283813477,,,,,,,,,,,,,,,,,,,,,,,,,,,,,,,
Magnetometer,1.682086163572195e+18,1.942195068359375,10.260199546813965,-50.66659927368164,-8.161799430847168,,,,,,,,,,,,,,,,,,,,,,,,,,,,,,,
Magnetometer,1.6820861635822113e+18,1.95221142578125,9.027999877929688,-50.27619934082031,-8.552199363708496,,,,,,,,,,,,,,,,,,,,,,,,,,,,,,,
Magnetometer,1.682086163592204e+18,1.9622041015625,8.369199752807617,-50.459197998046875,-8.137399673461914,,,,,,,,,,,,,,,,,,,,,,,,,,,,,,,
Magnetometer,1.6820861636022042e+18,1.9722041015625,5.880399703979492,-50.80080032348633,-8.7839994430542,,,,,,,,,,,,,,,,,,,,,,,,,,,,,,,
Magnetometer,1.6820861636121935e+18,1.982193603515625,3.5135998725891113,-51.0447998046875,-8.369199752807617,,,,,,,,,,,,,,,,,,,,,,,,,,,,,,,
Magnetometer,1.682086163622204e+18,1.992203857421875,1.4395999908447266,-51.203399658203125,-8.893799781799316,,,,,,,,,,,,,,,,,,,,,,,,,,,,,,,
Magnetometer,1.6820861636322038e+18,2.002203857421875,-0.3416000008583069,-50.459197998046875,-8.332599639892578,,,,,,,,,,,,,,,,,,,,,,,,,,,,,,,
Magnetometer,1.6820861636421934e+18,2.012193359375,-2.208199977874756,-50.16640090942383,-8.308199882507324,,,,,,,,,,,,,,,,,,,,,,,,,,,,,,,
Magnetometer,1.682086163652204e+18,2.0222041015625,-5.343599796295166,-49.556400299072266,-7.844599723815918,,,,,,,,,,,,,,,,,,,,,,,,,,,,,,,
Magnetometer,1.6820861636622042e+18,2.0322041015625,-8.076399803161621,-48.95859909057617,-8.63759994506836,,,,,,,,,,,,,,,,,,,,,,,,,,,,,,,
Magnetometer,1.6820861636721935e+18,2.042193603515625,-11.1141996383667,-48.01919937133789,-9.198800086975098,,,,,,,,,,,,,,,,,,,,,,,,,,,,,,,
Magnetometer,1.682086163682187e+18,2.05218701171875,-12.029199600219727,-47.34819793701172,-9.357399940490723,,,,,,,,,,,,,,,,,,,,,,,,,,,,,,,
Magnetometer,1.682086163692196e+18,2.062196044921875,-13.359000205993652,-47.299400329589844,-8.94260025024414,,,,,,,,,,,,,,,,,,,,,,,,,,,,,,,
Magnetometer,1.6820861637022042e+18,2.0722041015625,-13.249199867248535,-46.860198974609375,-9.333000183105469,,,,,,,,,,,,,,,,,,,,,,,,,,,,,,,
Magnetometer,1.682086163712204e+18,2.0822041015625,-12.407400131225586,-47.36039733886719,-8.94260025024414,,,,,,,,,,,,,,,,,,,,,,,,,,,,,,,
Magnetometer,1.6820861637221934e+18,2.092193359375,-10.211400032043457,-47.811798095703125,-9.186599731445312,,,,,,,,,,,,,,,,,,,,,,,,,,,,,,,
Magnetometer,1.682086163732204e+18,2.1022041015625,-9.479399681091309,-48.21439743041992,-8.588799476623535,,,,,,,,,,,,,,,,,,,,,,,,,,,,,,,
Magnetometer,1.682086163742204e+18,2.112203857421875,-7.685999870300293,-48.873199462890625,-9.149999618530273,,,,,,,,,,,,,,,,,,,,,,,,,,,,,,,
Magnetometer,1.682086163752204e+18,2.1222041015625,-5.78279972076416,-49.08060073852539,-9.479399681091309,,,,,,,,,,,,,,,,,,,,,,,,,,,,,,,
Magnetometer,1.6820861637622042e+18,2.1322041015625,-5.795000076293945,-50.129798889160156,-9.552599906921387,,,,,,,,,,,,,,,,,,,,,,,,,,,,,,,
Magnetometer,1.6820861637721956e+18,2.142195556640625,-3.9649999141693115,-49.556400299072266,-9.515999794006348,,,,,,,,,,,,,,,,,,,,,,,,,,,,,,,
Magnetometer,1.682086163782196e+18,2.152196044921875,-3.9649999141693115,-49.556400299072266,-9.515999794006348,,,,,,,,,,,,,,,,,,,,,,,,,,,,,,,
Magnetometer,1.6820861637921897e+18,2.162189697265625,-1.3420000076293945,-50.154197692871094,-9.040200233459473,,,,,,,,,,,,,,,,,,,,,,,,,,,,,,,
Magnetometer,1.682086163802194e+18,2.17219384765625,0.9149999618530273,-50.34939956665039,-8.95479965209961,,,,,,,,,,,,,,,,,,,,,,,,,,,,,,,
Magnetometer,1.682086163812204e+18,2.1822041015625,1.5371999740600586,-50.34939956665039,-9.78439998626709,,,,,,,,,,,,,,,,,,,,,,,,,,,,,,,
Magnetometer,1.682086163822204e+18,2.192203857421875,2.513200044631958,-50.31279754638672,-9.686800003051758,,,,,,,,,,,,,,,,,,,,,,,,,,,,,,,
Magnetometer,1.6820861638321856e+18,2.202185546875,2.684000015258789,-50.569000244140625,-9.284199714660645,,,,,,,,,,,,,,,,,,,,,,,,,,,,,,,
Magnetometer,1.6820861638422042e+18,2.2122041015625,2.0007998943328857,-50.947200775146484,-9.723400115966797,,,,,,,,,,,,,,,,,,,,,,,,,,,,,,,
Magnetometer,1.6820861638521935e+18,2.222193603515625,3.5013999938964844,-50.71540069580078,-9.186599731445312,,,,,,,,,,,,,,,,,,,,,,,,,,,,,,,
Magnetometer,1.6820861638622044e+18,2.232204345703125,3.3306000232696533,-50.36159896850586,-9.064599990844727,,,,,,,,,,,,,,,,,,,,,,,,,,,,,,,
Magnetometer,1.6820861638722043e+18,2.242204345703125,2.281399965286255,-50.75199890136719,-9.29640007019043,,,,,,,,,,,,,,,,,,,,,,,,,,,,,,,
Magnetometer,1.6820861638821957e+18,2.25219580078125,1.9031999111175537,-50.75199890136719,-8.869400024414062,,,,,,,,,,,,,,,,,,,,,,,,,,,,,,,
Magnetometer,1.6820861638922038e+18,2.262203857421875,0.3416000008583069,-50.71540069580078,-8.967000007629395,,,,,,,,,,,,,,,,,,,,,,,,,,,,,,,
Magnetometer,1.6820861639021947e+18,2.272194580078125,-1.5615999698638916,-50.60559844970703,-8.95479965209961,,,,,,,,,,,,,,,,,,,,,,,,,,,,,,,
Magnetometer,1.682086163912204e+18,2.2822041015625,-2.976799964904785,-49.95899963378906,-9.333000183105469,,,,,,,,,,,,,,,,,,,,,,,,,,,,,,,
Magnetometer,1.682086163922204e+18,2.292203857421875,-5.685199737548828,-49.5807991027832,-8.46679973602295,,,,,,,,,,,,,,,,,,,,,,,,,,,,,,,
Magnetometer,1.682086163932204e+18,2.3022041015625,-9.003600120544434,-48.824398040771484,-9.040200233459473,,,,,,,,,,,,,,,,,,,,,,,,,,,,,,,
Magnetometer,1.6820861639421934e+18,2.312193359375,-10.613999366760254,-47.482398986816406,-9.064599990844727,,,,,,,,,,,,,,,,,,,,,,,,,,,,,,,
Magnetometer,1.6820861639522043e+18,2.322204345703125,-13.541999816894531,-47.04319763183594,-9.12559986114502,,,,,,,,,,,,,,,,,,,,,,,,,,,,,,,
Magnetometer,1.682086163962204e+18,2.332203857421875,-15.213399887084961,-45.969600677490234,-9.27199935913086,,,,,,,,,,,,,,,,,,,,,,,,,,,,,,,
Magnetometer,1.682086163972204e+18,2.3422041015625,-15.298799514770508,-45.35960006713867,-9.650199890136719,,,,,,,,,,,,,,,,,,,,,,,,,,,,,,,
Magnetometer,1.6820861639821934e+18,2.352193359375,-15.176799774169922,-45.786598205566406,-9.25979995727539,,,,,,,,,,,,,,,,,,,,,,,,,,,,,,,
Magnetometer,1.6820861639921935e+18,2.362193603515625,-13.859199523925781,-46.36000061035156,-8.979199409484863,,,,,,,,,,,,,,,,,,,,,,,,,,,,,,,
Magnetometer,1.682086164002196e+18,2.372196044921875,-12.687999725341797,-47.018798828125,-9.235400199890137,,,,,,,,,,,,,,,,,,,,,,,,,,,,,,,
Magnetometer,1.6820861640122043e+18,2.382204345703125,-11.187399864196777,-47.32379913330078,-9.052399635314941,,,,,,,,,,,,,,,,,,,,,,,,,,,,,,,
Magnetometer,1.682086164022204e+18,2.392203857421875,-9.698999404907227,-48.141197204589844,-8.7839994430542,,,,,,,,,,,,,,,,,,,,,,,,,,,,,,,
Magnetometer,1.682086164032204e+18,2.4022041015625,-8.015399932861328,-48.70240020751953,-8.930399894714355,,,,,,,,,,,,,,,,,,,,,,,,,,,,,,,
Magnetometer,1.6820861640422054e+18,2.412205322265625,-6.6367998123168945,-49.10499954223633,-9.589200019836426,,,,,,,,,,,,,,,,,,,,,,,,,,,,,,,
Magnetometer,1.6820861640521938e+18,2.42219384765625,-4.477399826049805,-49.129398345947266,-9.174399375915527,,,,,,,,,,,,,,,,,,,,,,,,,,,,,,,
Magnetometer,1.6820861640622042e+18,2.4322041015625,-3.7697999477386475,-49.71500015258789,-9.210999488830566,,,,,,,,,,,,,,,,,,,,,,,,,,,,,,,
Magnetometer,1.6820861640721938e+18,2.44219384765625,-2.171599864959717,-50.09320068359375,-8.613200187683105,,,,,,,,,,,,,,,,,,,,,,,,,,,,,,,
Magnetometer,1.682086164082197e+18,2.452197021484375,-1.7445999383926392,-50.446998596191406,-9.78439998626709,,,,,,,,,,,,,,,,,,,,,,,,,,,,,,,
Magnetometer,1.682086164092204e+18,2.4622041015625,-0.7685999870300293,-49.89799880981445,-9.967399597167969,,,,,,,,,,,,,,,,,,,,,,,,,,,,,,,
Magnetometer,1.6820861641021962e+18,2.4721962890625,0.6832000017166138,-50.36159896850586,-9.25979995727539,,,,,,,,,,,,,,,,,,,,,,,,,,,,,,,
Magnetometer,1.6820861641122043e+18,2.482204345703125,1.8421999216079712,-50.080997467041016,-9.662400245666504,,,,,,,,,,,,,,,,,,,,,,,,,,,,,,,
Magnetometer,1.6820861641222052e+18,2.492205078125,2.15939998626709,-50.764198303222656,-9.601399421691895,,,,,,,,,,,,,,,,,,,,,,,,,,,,,,,
Magnetometer,1.6820861641321935e+18,2.502193603515625,2.061800003051758,-50.141998291015625,-9.149999618530273,,,,,,,,,,,,,,,,,,,,,,,,,,,,,,,
Magnetometer,1.682086164142204e+18,2.512203857421875,1.5615999698638916,-50.67879867553711,-8.967000007629395,,,,,,,,,,,,,,,,,,,,,,,,,,,,,,,
Magnetometer,1.682086164152204e+18,2.5222041015625,0.5123999714851379,-50.43479919433594,-8.43019962310791,,,,,,,,,,,,,,,,,,,,,,,,,,,,,,,
Magnetometer,1.6820861641622042e+18,2.5322041015625,-1.0613999366760254,-50.49580001831055,-8.747400283813477,,,,,,,,,,,,,,,,,,,,,,,,,,,,,,,
Magnetometer,1.6820861641722043e+18,2.542204345703125,-1.402999997138977,-50.410400390625,-8.63759994506836,,,,,,,,,,,,,,,,,,,,,,,,,,,,,,,
Magnetometer,1.6820861641822036e+18,2.55220361328125,-4.1967997550964355,-50.410400390625,-8.527799606323242,,,,,,,,,,,,,,,,,,,,,,,,,,,,,,,
Magnetometer,1.682086164192204e+18,2.5622041015625,-5.172800064086914,-49.91019821166992,-7.966599941253662,,,,,,,,,,,,,,,,,,,,,,,,,,,,,,,
Magnetometer,1.6820861642021934e+18,2.572193359375,-8.552199363708496,-48.885398864746094,-8.418000221252441,,,,,,,,,,,,,,,,,,,,,,,,,,,,,,,
Magnetometer,1.6820861642121935e+18,2.582193603515625,-10.516399383544922,-47.98259735107422,-8.1496000289917,,,,,,,,,,,,,,,,,,,,,,,,,,,,,,,
Magnetometer,1.682086164222204e+18,2.592203857421875,-13.029600143432617,-46.94559860229492,-9.235400199890137,,,,,,,,,,,,,,,,,,,,,,,,,,,,,,,
Magnetometer,1.682086164232196e+18,2.602196044921875,-14.298399925231934,-46.09159851074219,-8.332599639892578,,,,,,,,,,,,,,,,,,,,,,,,,,,,,,,
Magnetometer,1.6820861642422042e+18,2.6122041015625,-15.432999610900879,-45.35960006713867,-9.44279956817627,,,,,,,,,,,,,,,,,,,,,,,,,,,,,,,
Magnetometer,1.682086164252204e+18,2.6222041015625,-17.397199630737305,-44.99359893798828,-9.418399810791016,,,,,,,,,,,,,,,,,,,,,,,,,,,,,,,
Magnetometer,1.6820861642621937e+18,2.632193603515625,-16.482200622558594,-44.17620086669922,-9.25979995727539,,,,,,,,,,,,,,,,,,,,,,,,,,,,,,,
Magnetometer,1.6820861642722043e+18,2.642204345703125,-15.859999656677246,-44.163997650146484,-9.78439998626709,,,,,,,,,,,,,,,,,,,,,,,,,,,,,,,
Magnetometer,1.682086164282194e+18,2.65219384765625,-15.677000045776367,-44.834999084472656,-8.881599426269531,,,,,,,,,,,,,,,,,,,,,,,,,,,,,,,
Magnetometer,1.682086164292204e+18,2.6622041015625,-13.12720012664795,-45.920799255371094,-10.113800048828125,,,,,,,,,,,,,,,,,,,,,,,,,,,,,,,
Magnetometer,1.6820861643022042e+18,2.6722041015625,-12.944199562072754,-46.70159912109375,-10.260199546813965,,,,,,,,,,,,,,,,,,,,,,,,,,,,,,,
Magnetometer,1.6820861643121935e+18,2.682193603515625,-11.040999412536621,-46.71379852294922,-9.223199844360352,,,,,,,,,,,,,,,,,,,,,,,,,,,,,,,
Magnetometer,1.6820861643222042e+18,2.6922041015625,-9.27199935913086,-47.555599212646484,-10.430999755859375,,,,,,,,,,,,,,,,,,,,,,,,,,,,,,,
Magnetometer,1.682086164332204e+18,2.7022041015625,-8.832799911499023,-48.226600646972656,-10.150400161743164,,,,,,,,,,,,,,,,,,,,,,,,,,,,,,,
Magnetometer,1.6820861643421937e+18,2.712193603515625,-7.112599849700928,-48.714599609375,-10.918999671936035,,,,,,,,,,,,,,,,,,,,,,,,,,,,,,,
Magnetometer,1.682086164352204e+18,2.7222041015625,-4.526199817657471,-48.97079849243164,-10.321199417114258,,,,,,,,,,,,,,,,,,,,,,,,,,,,,,,
Magnetometer,1.682086164362204e+18,2.732203857421875,-3.6477999687194824,-49.385597229003906,-10.662799835205078,,,,,,,,,,,,,,,,,,,,,,,,,,,,,,,
Magnetometer,1.6820861643721935e+18,2.742193603515625,-2.476599931716919,-49.519798278808594,-10.357799530029297,,,,,,,,,,,,,,,,,,,,,,,,,,,,,,,
Magnetometer,1.6820861643822042e+18,2.7522041015625,0.012199999764561653,-49.70280075073242,-10.27239990234375,,,,,,,,,,,,,,,,,,,,,,,,,,,,,,,
Magnetometer,1.6820861643921956e+18,2.762195556640625,1.476199984550476,-50.190799713134766,-10.723799705505371,,,,,,,,,,,,,,,,,,,,,,,,,,,,,,,
Magnetometer,1.6820861644022042e+18,2.7722041015625,1.9275999069213867,-49.824798583984375,-10.382200241088867,,,,,,,,,,,,,,,,,,,,,,,,,,,,,,,
Magnetometer,1.6820861644121933e+18,2.782193359375,2.134999990463257,-49.89799880981445,-10.077199935913086,,,,,,,,,,,,,,,,,,,,,,,,,,,,,,,
Magnetometer,1.6820861644222095e+18,2.79220947265625,2.769399881362915,-50.32500076293945,-10.309000015258789,,,,,,,,,,,,,,,,,,,,,,,,,,,,,,,
Magnetometer,1.6820861644322043e+18,2.802204345703125,2.708400011062622,-50.05659866333008,-9.772199630737305,,,,,,,,,,,,,,,,,,,,,,,,,,,,,,,
Magnetometer,1.682086164442204e+18,2.812203857421875,1.524999976158142,-50.33720016479492,-8.95479965209961,,,,,,,,,,,,,,,,,,,,,,,,,,,,,,,
Magnetometer,1.6820861644522043e+18,2.822204345703125,0.3537999987602234,-50.6177978515625,-8.552199363708496,,,,,,,,,,,,,,,,,,,,,,,,,,,,,,,
Magnetometer,1.6820861644622042e+18,2.8322041015625,-0.8539999723434448,-50.66659927368164,-9.174399375915527,,,,,,,,,,,,,,,,,,,,,,,,,,,,,,,
Magnetometer,1.682086164472204e+18,2.8422041015625,-2.622999906539917,-49.92239761352539,-8.503399848937988,,,,,,,,,,,,,,,,,,,,,,,,,,,,,,,
Magnetometer,1.6820861644821937e+18,2.852193603515625,-4.489599704742432,-49.64179992675781,-8.893799781799316,,,,,,,,,,,,,,,,,,,,,,,,,,,,,,,
Magnetometer,1.6820861644922043e+18,2.862204345703125,-6.929599761962891,-49.178199768066406,-8.332599639892578,,,,,,,,,,,,,,,,,,,,,,,,,,,,,,,
Magnetometer,1.6820861645021934e+18,2.872193359375,-10.211400032043457,-48.763397216796875,-8.820599555969238,,,,,,,,,,,,,,,,,,,,,,,,,,,,,,,
Magnetometer,1.6820861645121935e+18,2.882193603515625,-12.07800006866455,-46.99440002441406,-9.12559986114502,,,,,,,,,,,,,,,,,,,,,,,,,,,,,,,
Magnetometer,1.6820861645221972e+18,2.892197265625,-14.883999824523926,-46.12820053100586,-9.381799697875977,,,,,,,,,,,,,,,,,,,,,,,,,,,,,,,
Magnetometer,1.6820861645321935e+18,2.902193603515625,-17.59239959716797,-44.29819869995117,-9.686800003051758,,,,,,,,,,,,,,,,,,,,,,,,,,,,,,,
Magnetometer,1.6820861645422042e+18,2.9122041015625,-18.043800354003906,-43.71260070800781,-9.857600212097168,,,,,,,,,,,,,,,,,,,,,,,,,,,,,,,
Magnetometer,1.6820861645522043e+18,2.922204345703125,-17.348400115966797,-44.18840026855469,-8.527799606323242,,,,,,,,,,,,,,,,,,,,,,,,,,,,,,,
Magnetometer,1.6820861645622042e+18,2.9322041015625,-16.799400329589844,-44.957000732421875,-8.991399765014648,,,,,,,,,,,,,,,,,,,,,,,,,,,,,,,
Magnetometer,1.682086164572204e+18,2.9422041015625,-15.152400016784668,-45.70119857788086,-9.247599601745605,,,,,,,,,,,,,,,,,,,,,,,,,,,,,,,
Magnetometer,1.6820861645821985e+18,2.952198486328125,-13.737199783325195,-46.34779739379883,-8.881599426269531,,,,,,,,,,,,,,,,,,,,,,,,,,,,,,,
Magnetometer,1.6820861645922043e+18,2.962204345703125,-12.041399955749512,-46.921199798583984,-9.650199890136719,,,,,,,,,,,,,,,,,,,,,,,,,,,,,,,
Magnetometer,1.6820861646022042e+18,2.9722041015625,-10.76039981842041,-47.6776008605957,-9.906399726867676,,,,,,,,,,,,,,,,,,,,,,,,,,,,,,,
Magnetometer,1.6820861646121938e+18,2.98219384765625,-9.064599990844727,-48.141197204589844,-9.833199501037598,,,,,,,,,,,,,,,,,,,,,,,,,,,,,,,
Magnetometer,1.6820861646221906e+18,2.992190673828125,-7.063799858093262,-48.446197509765625,-10.491999626159668,,,,,,,,,,,,,,,,,,,,,,,,,,,,,,,
Magnetometer,1.6820861646322048e+18,3.002204833984375,-6.307399749755859,-48.763397216796875,-9.979599952697754,,,,,,,,,,,,,,,,,,,,,,,,,,,,,,,
Magnetometer,1.6820861646421934e+18,3.012193359375,-4.233399868011475,-49.22699737548828,-10.333399772644043,,,,,,,,,,,,,,,,,,,,,,,,,,,,,,,
Magnetometer,1.6820861646522043e+18,3.022204345703125,-2.513200044631958,-49.60519790649414,-10.150400161743164,,,,,,,,,,,,,,,,,,,,,,,,,,,,,,,
Magnetometer,1.6820861646621998e+18,3.03219970703125,-1.402999997138977,-49.5807991027832,-10.784799575805664,,,,,,,,,,,,,,,,,,,,,,,,,,,,,,,
Magnetometer,1.682086164672204e+18,3.0422041015625,-0.12199999392032623,-49.80039978027344,-10.4798002243042,,,,,,,,,,,,,,,,,,,,,,,,,,,,,,,
Magnetometer,1.6820861646822042e+18,3.0522041015625,0.6466000080108643,-49.60519790649414,-10.577400207519531,,,,,,,,,,,,,,,,,,,,,,,,,,,,,,,
Magnetometer,1.6820861646921887e+18,3.062188720703125,2.549799919128418,-50.65439987182617,-9.394000053405762,,,,,,,,,,,,,,,,,,,,,,,,,,,,,,,
Magnetometer,1.6820861647022042e+18,3.0722041015625,2.0739998817443848,-50.154197692871094,-9.674599647521973,,,,,,,,,,,,,,,,,,,,,,,,,,,,,,,
Magnetometer,1.682086164712204e+18,3.0822041015625,1.7811999320983887,-49.812599182128906,-9.44279956817627,,,,,,,,,,,,,,,,,,,,,,,,,,,,,,,
Magnetometer,1.6820861647221993e+18,3.09219921875,0.14640000462532043,-50.556800842285156,-9.174399375915527,,,,,,,,,,,,,,,,,,,,,,,,,,,,,,,
Magnetometer,1.682086164732204e+18,3.1022041015625,-0.3537999987602234,-50.141998291015625,-9.662400245666504,,,,,,,,,,,,,,,,,,,,,,,,,,,,,,,
Magnetometer,1.682086164742204e+18,3.112203857421875,-6.014599800109863,-49.946800231933594,-8.906000137329102,,,,,,,,,,,,,,,,,,,,,,,,,,,,,,,
Magnetometer,1.6820861647521935e+18,3.122193603515625,-6.014599800109863,-49.946800231933594,-8.906000137329102,,,,,,,,,,,,,,,,,,,,,,,,,,,,,,,
Magnetometer,1.682086164762204e+18,3.132203857421875,-8.442399978637695,-48.97079849243164,-8.735199928283691,,,,,,,,,,,,,,,,,,,,,,,,,,,,,,,
Magnetometer,1.6820861647721933e+18,3.142193359375,-15.432999610900879,-46.83580017089844,-8.796199798583984,,,,,,,,,,,,,,,,,,,,,,,,,,,,,,,
Magnetometer,1.6820861647822042e+18,3.1522041015625,-17.51919937133789,-45.40839767456055,-8.710800170898438,,,,,,,,,,,,,,,,,,,,,,,,,,,,,,,
Magnetometer,1.682086164792204e+18,3.1622041015625,-19.92259979248047,-43.834598541259766,-8.60099983215332,,,,,,,,,,,,,,,,,,,,,,,,,,,,,,,
Magnetometer,1.6820861648021942e+18,3.172194091796875,-20.398399353027344,-43.2245979309082,-8.247200012207031,,,,,,,,,,,,,,,,,,,,,,,,,,,,,,,
Magnetometer,1.682086164812204e+18,3.1822041015625,-20.55699920654297,-42.882999420166016,-8.125200271606445,,,,,,,,,,,,,,,,,,,,,,,,,,,,,,,
Magnetometer,1.682086164822204e+18,3.192203857421875,-19.50779914855957,-43.54179763793945,-8.271599769592285,,,,,,,,,,,,,,,,,,,,,,,,,,,,,,,
Magnetometer,1.682086164832204e+18,3.2022041015625,-17.763198852539062,-44.37139892578125,-8.539999961853027,,,,,,,,,,,,,,,,,,,,,,,,,,,,,,,
Magnetometer,1.6820861648422042e+18,3.2122041015625,-14.164199829101562,-45.579200744628906,-8.722999572753906,,,,,,,,,,,,,,,,,,,,,,,,,,,,,,,
Magnetometer,1.6820861648521935e+18,3.222193603515625,-11.992599487304688,-46.65279769897461,-9.113399505615234,,,,,,,,,,,,,,,,,,,,,,,,,,,,,,,
Magnetometer,1.6820861648621975e+18,3.232197509765625,-9.991799354553223,-47.89719772338867,-9.29640007019043,,,,,,,,,,,,,,,,,,,,,,,,,,,,,,,
Magnetometer,1.6820861648722043e+18,3.242204345703125,-6.307399749755859,-48.751197814941406,-9.674599647521973,,,,,,,,,,,,,,,,,,,,,,,,,,,,,,,
Magnetometer,1.6820861648821937e+18,3.252193603515625,-4.989799976348877,-49.32460021972656,-10.028399467468262,,,,,,,,,,,,,,,,,,,,,,,,,,,,,,,
Magnetometer,1.6820861648922043e+18,3.262204345703125,-1.7933999300003052,-50.09320068359375,-9.345199584960938,,,,,,,,,,,,,,,,,,,,,,,,,,,,,,,
Magnetometer,1.6820861649022042e+18,3.2722041015625,0.3781999945640564,-49.5807991027832,-9.003600120544434,,,,,,,,,,,,,,,,,,,,,,,,,,,,,,,
Magnetometer,1.6820861649121917e+18,3.282191650390625,2.061800003051758,-50.154197692871094,-9.564800262451172,,,,,,,,,,,,,,,,,,,,,,,,,,,,,,,
Magnetometer,1.682086164922204e+18,3.292203857421875,3.8063998222351074,-50.02000045776367,-9.881999969482422,,,,,,,,,,,,,,,,,,,,,,,,,,,,,,,
Magnetometer,1.6820861649321935e+18,3.302193603515625,4.721399784088135,-49.72719955444336,-9.760000228881836,,,,,,,,,,,,,,,,,,,,,,,,,,,,,,,
Magnetometer,1.682086164942204e+18,3.312203857421875,5.965799808502197,-50.03219985961914,-9.674599647521973,,,,,,,,,,,,,,,,,,,,,,,,,,,,,,,
Magnetometer,1.6820861649522043e+18,3.322204345703125,6.246399879455566,-49.84919738769531,-9.247599601745605,,,,,,,,,,,,,,,,,,,,,,,,,,,,,,,
Magnetometer,1.682086164962194e+18,3.33219384765625,6.783199787139893,-50.60559844970703,-9.08899974822998,,,,,,,,,,,,,,,,,,,,,,,,,,,,,,,
Magnetometer,1.6820861649721938e+18,3.34219384765625,5.965799808502197,-50.446998596191406,-8.552199363708496,,,,,,,,,,,,,,,,,,,,,,,,,,,,,,,
Magnetometer,1.6820861649822042e+18,3.3522041015625,4.721399784088135,-50.154197692871094,-9.052399635314941,,,,,,,,,,,,,,,,,,,,,,,,,,,,,,,
Magnetometer,1.682086164992204e+18,3.3622041015625,3.4526000022888184,-50.886199951171875,-8.881599426269531,,,,,,,,,,,,,,,,,,,,,,,,,,,,,,,
Magnetometer,1.6820861650022042e+18,3.3722041015625,1.2932000160217285,-50.776397705078125,-8.77180004119873,,,,,,,,,,,,,,,,,,,,,,,,,,,,,,,
Magnetometer,1.6820861650121958e+18,3.38219580078125,-3.9772000312805176,-50.48360061645508,-8.210599899291992,,,,,,,,,,,,,,,,,,,,,,,,,,,,,,,
Magnetometer,1.6820861650221934e+18,3.392193359375,-8.064199447631836,-50.33720016479492,-7.881199836730957,,,,,,,,,,,,,,,,,,,,,,,,,,,,,,,
Magnetometer,1.6820861650321935e+18,3.402193603515625,-11.358200073242188,-48.95859909057617,-8.003199577331543,,,,,,,,,,,,,,,,,,,,,,,,,,,,,,,
Magnetometer,1.682086165042186e+18,3.41218603515625,-14.371600151062012,-47.71419906616211,-6.453799724578857,,,,,,,,,,,,,,,,,,,,,,,,,,,,,,,
Magnetometer,1.682086165052204e+18,3.4222041015625,-18.23900032043457,-45.75,-7.161399841308594,,,,,,,,,,,,,,,,,,,,,,,,,,,,,,,
Magnetometer,1.6820861650622e+18,3.432199951171875,-20.48379898071289,-43.99319839477539,-7.466399669647217,,,,,,,,,,,,,,,,,,,,,,,,,,,,,,,
Magnetometer,1.682086165072194e+18,3.442194091796875,-22.52120018005371,-42.931800842285156,-7.502999782562256,,,,,,,,,,,,,,,,,,,,,,,,,,,,,,,
Magnetometer,1.6820861650822042e+18,3.4522041015625,-21.14259910583496,-43.23679733276367,-7.625,,,,,,,,,,,,,,,,,,,,,,,,,,,,,,,
Magnetometer,1.6820861650922043e+18,3.462204345703125,-20.21539878845215,-43.907798767089844,-7.45419979095459,,,,,,,,,,,,,,,,,,,,,,,,,,,,,,,
Magnetometer,1.6820861651022042e+18,3.4722041015625,-17.409399032592773,-44.76179885864258,-6.990599632263184,,,,,,,,,,,,,,,,,,,,,,,,,,,,,,,
Magnetometer,1.6820861651121935e+18,3.482193603515625,-15.90880012512207,-46.65279769897461,-7.637199878692627,,,,,,,,,,,,,,,,,,,,,,,,,,,,,,,
Magnetometer,1.682086165122207e+18,3.49220703125,-11.870599746704102,-48.116798400878906,-8.46679973602295,,,,,,,,,,,,,,,,,,,,,,,,,,,,,,,
Magnetometer,1.6820861651321935e+18,3.502193603515625,-7.649399757385254,-49.629600524902344,-8.052000045776367,,,,,,,,,,,,,,,,,,,,,,,,,,,,,,,
Magnetometer,1.6820861651421857e+18,3.512185791015625,-4.245599746704102,-49.53199768066406,-7.844599723815918,,,,,,,,,,,,,,,,,,,,,,,,,,,,,,,
Magnetometer,1.6820861651521938e+18,3.52219384765625,-0.21959999203681946,-50.459197998046875,-8.332599639892578,,,,,,,,,,,,,,,,,,,,,,,,,,,,,,,
Magnetometer,1.6820861651622016e+18,3.53220166015625,2.293599843978882,-50.54459762573242,-7.917799949645996,,,,,,,,,,,,,,,,,,,,,,,,,,,,,,,
Magnetometer,1.6820861651722043e+18,3.542204345703125,5.733999729156494,-50.36159896850586,-8.332599639892578,,,,,,,,,,,,,,,,,,,,,,,,,,,,,,,
Magnetometer,1.6820861651821934e+18,3.552193359375,8.369199752807617,-50.459197998046875,-7.929999828338623,,,,,,,,,,,,,,,,,,,,,,,,,,,,,,,
Magnetometer,1.6820861651922045e+18,3.56220458984375,9.821000099182129,-49.9833984375,-8.43019962310791,,,,,,,,,,,,,,,,,,,,,,,,,,,,,,,
Magnetometer,1.682086165202198e+18,3.572197998046875,11.1141996383667,-49.69059753417969,-8.832799911499023,,,,,,,,,,,,,,,,,,,,,,,,,,,,,,,
Magnetometer,1.682086165212204e+18,3.5822041015625,12.212200164794922,-49.66619873046875,-9.040200233459473,,,,,,,,,,,,,,,,,,,,,,,,,,,,,,,
Magnetometer,1.682086165222204e+18,3.592203857421875,13.944600105285645,-49.519798278808594,-8.722999572753906,,,,,,,,,,,,,,,,,,,,,,,,,,,,,,,
Magnetometer,1.6820861652321938e+18,3.60219384765625,14.054399490356445,-49.08060073852539,-9.223199844360352,,,,,,,,,,,,,,,,,,,,,,,,,,,,,,,
Magnetometer,1.682086165242204e+18,3.612203857421875,14.90839958190918,-49.16600036621094,-10.0649995803833,,,,,,,,,,,,,,,,,,,,,,,,,,,,,,,
Magnetometer,1.682086165252204e+18,3.6222041015625,15.56719970703125,-48.873199462890625,-9.418399810791016,,,,,,,,,,,,,,,,,,,,,,,,,,,,,,,
Magnetometer,1.682086165262204e+18,3.632203857421875,13.834799766540527,-49.00740051269531,-9.528200149536133,,,,,,,,,,,,,,,,,,,,,,,,,,,,,,,
Magnetometer,1.682086165272204e+18,3.6422041015625,13.005199432373047,-49.47100067138672,-9.454999923706055,,,,,,,,,,,,,,,,,,,,,,,,,,,,,,,
Magnetometer,1.6820861652822e+18,3.652199951171875,10.44320011138916,-50.080997467041016,-9.686800003051758,,,,,,,,,,,,,,,,,,,,,,,,,,,,,,,
Magnetometer,1.6820861652922043e+18,3.662204345703125,7.271199703216553,-50.59339904785156,-8.77180004119873,,,,,,,,,,,,,,,,,,,,,,,,,,,,,,,
Magnetometer,1.6820861653022042e+18,3.6722041015625,5.477799892425537,-50.98379898071289,-8.479000091552734,,,,,,,,,,,,,,,,,,,,,,,,,,,,,,,
Magnetometer,1.6820861653121964e+18,3.6821962890625,1.7811999320983887,-51.70359802246094,-8.198399543762207,,,,,,,,,,,,,,,,,,,,,,,,,,,,,,,
Magnetometer,1.682086165322204e+18,3.692203857421875,-0.9149999618530273,-51.23999786376953,-7.332200050354004,,,,,,,,,,,,,,,,,,,,,,,,,,,,,,,
Magnetometer,1.682086165332204e+18,3.7022041015625,-4.0381999015808105,-51.16679763793945,-7.319999694824219,,,,,,,,,,,,,,,,,,,,,,,,,,,,,,,
Magnetometer,1.6820861653421937e+18,3.712193603515625,-6.160999774932861,-50.874000549316406,-6.770999908447266,,,,,,,,,,,,,,,,,,,,,,,,,,,,,,,
Magnetometer,1.6820861653521943e+18,3.7221943359375,-7.405399799346924,-49.934600830078125,-5.977999687194824,,,,,,,,,,,,,,,,,,,,,,,,,,,,,,,
Magnetometer,1.6820861653622042e+18,3.7322041015625,-7.929999828338623,-50.556800842285156,-5.599800109863281,,,,,,,,,,,,,,,,,,,,,,,,,,,,,,,
Magnetometer,1.682086165372204e+18,3.7422041015625,-8.015399932861328,-50.80080032348633,-4.56279993057251,,,,,,,,,,,,,,,,,,,,,,,,,,,,,,,
Magnetometer,1.6820861653822042e+18,3.7522041015625,-6.661200046539307,-51.60599899291992,-3.5745999813079834,,,,,,,,,,,,,,,,,,,,,,,,,,,,,,,
Magnetometer,1.682086165392204e+18,3.7622041015625,-5.990200042724609,-52.26479721069336,-2.671799898147583,,,,,,,,,,,,,,,,,,,,,,,,,,,,,,,
Magnetometer,1.6820861654022044e+18,3.772204345703125,-3.2695999145507812,-52.533199310302734,-2.586400032043457,,,,,,,,,,,,,,,,,,,,,,,,,,,,,,,
Magnetometer,1.6820861654122043e+18,3.782204345703125,-1.281000018119812,-52.30139923095703,-2.586400032043457,,,,,,,,,,,,,,,,,,,,,,,,,,,,,,,
Magnetometer,1.68208616542219e+18,3.792190185546875,1.232200026512146,-52.49659729003906,-3.6477999687194824,,,,,,,,,,,,,,,,,,,,,,,,,,,,,,,
Magnetometer,1.682086165432204e+18,3.8022041015625,4.1479997634887695,-51.55719757080078,-4.330999851226807,,,,,,,,,,,,,,,,,,,,,,,,,,,,,,,
Magnetometer,1.682086165442204e+18,3.812203857421875,6.7953996658325195,-51.66699981689453,-4.965399742126465,,,,,,,,,,,,,,,,,,,,,,,,,,,,,,,
Magnetometer,1.6820861654521935e+18,3.822193603515625,9.137800216674805,-51.093597412109375,-5.990200042724609,,,,,,,,,,,,,,,,,,,,,,,,,,,,,,,
Magnetometer,1.682086165462204e+18,3.832203857421875,11.211799621582031,-51.03260040283203,-6.1975998878479,,,,,,,,,,,,,,,,,,,,,,,,,,,,,,,
Magnetometer,1.6820861654722056e+18,3.84220556640625,13.74940013885498,-49.66619873046875,-7.38100004196167,,,,,,,,,,,,,,,,,,,,,,,,,,,,,,,
Magnetometer,1.682086165482204e+18,3.852203857421875,16.994600296020508,-48.79999923706055,-7.856800079345703,,,,,,,,,,,,,,,,,,,,,,,,,,,,,,,
Magnetometer,1.682086165492204e+18,3.8622041015625,17.55579948425293,-49.05619812011719,-8.80840015411377,,,,,,,,,,,,,,,,,,,,,,,,,,,,,,,
Magnetometer,1.6820861655021934e+18,3.872193359375,20.471599578857422,-47.05540084838867,-9.015799522399902,,,,,,,,,,,,,,,,,,,,,,,,,,,,,,,
Magnetometer,1.682086165512204e+18,3.8822041015625,20.691200256347656,-47.14080047607422,-9.12559986114502,,,,,,,,,,,,,,,,,,,,,,,,,,,,,,,
Magnetometer,1.6820861655222042e+18,3.8922041015625,21.715999603271484,-46.83580017089844,-8.271599769592285,,,,,,,,,,,,,,,,,,,,,,,,,,,,,,,
Magnetometer,1.682086165532204e+18,3.9022041015625,22.8627986907959,-46.115997314453125,-8.857199668884277,,,,,,,,,,,,,,,,,,,,,,,,,,,,,,,
Magnetometer,1.6820861655422034e+18,3.912203369140625,21.252399444580078,-46.34779739379883,-9.284199714660645,,,,,,,,,,,,,,,,,,,,,,,,,,,,,,,
Magnetometer,1.6820861655521935e+18,3.922193603515625,20.947399139404297,-46.62839889526367,-9.821000099182129,,,,,,,,,,,,,,,,,,,,,,,,,,,,,,,
Magnetometer,1.6820861655621937e+18,3.932193603515625,20.715599060058594,-47.05540084838867,-9.320799827575684,,,,,,,,,,,,,,,,,,,,,,,,,,,,,,,
Magnetometer,1.6820861655722045e+18,3.94220458984375,19.678600311279297,-47.872798919677734,-9.57699966430664,,,,,,,,,,,,,,,,,,,,,,,,,,,,,,,
Magnetometer,1.6820861655821934e+18,3.952193359375,17.90959930419922,-48.617000579833984,-8.991399765014648,,,,,,,,,,,,,,,,,,,,,,,,,,,,,,,
Magnetometer,1.682086165592204e+18,3.9622041015625,15.872200012207031,-49.01959991455078,-8.698599815368652,,,,,,,,,,,,,,,,,,,,,,,,,,,,,,,
Magnetometer,1.6820861656022042e+18,3.9722041015625,13.810400009155273,-49.934600830078125,-7.807999610900879,,,,,,,,,,,,,,,,,,,,,,,,,,,,,,,
Magnetometer,1.6820861656121935e+18,3.982193603515625,11.760799407958984,-50.43479919433594,-7.832399845123291,,,,,,,,,,,,,,,,,,,,,,,,,,,,,,,
Magnetometer,1.682086165622204e+18,3.992203857421875,9.906399726867676,-50.99599838256836,-6.819799900054932,,,,,,,,,,,,,,,,,,,,,,,,,,,,,,,
Magnetometer,1.682086165632204e+18,4.0022041015625,6.307399749755859,-51.37419891357422,-7.039400100708008,,,,,,,,,,,,,,,,,,,,,,,,,,,,,,,
Magnetometer,1.682086165642204e+18,4.012203857421875,3.4282000064849854,-51.81340026855469,-7.161399841308594,,,,,,,,,,,,,,,,,,,,,,,,,,,,,,,
Magnetometer,1.6820861656522043e+18,4.022204345703125,1.0857999324798584,-51.43519973754883,-6.612400054931641,,,,,,,,,,,,,,,,,,,,,,,,,,,,,,,
Magnetometer,1.6820861656622019e+18,4.032201904296875,-2.622999906539917,-51.715797424316406,-6.624599933624268,,,,,,,,,,,,,,,,,,,,,,,,,,,,,,,
Magnetometer,1.6820861656722166e+18,4.042216552734375,-4.404200077056885,-51.06919860839844,-6.3684000968933105,,,,,,,,,,,,,,,,,,,,,,,,,,,,,,,
Magnetometer,1.6820861656822042e+18,4.0522041015625,-5.636399745941162,-50.67879867553711,-6.868599891662598,,,,,,,,,,,,,,,,,,,,,,,,,,,,,,,
Magnetometer,1.6820861656921935e+18,4.062193603515625,-7.173599720001221,-50.02000045776367,-6.404999732971191,,,,,,,,,,,,,,,,,,,,,,,,,,,,,,,
Magnetometer,1.6820861657022042e+18,4.0722041015625,-7.21019983291626,-50.202999114990234,-6.929599761962891,,,,,,,,,,,,,,,,,,,,,,,,,,,,,,,
Magnetometer,1.682086165712204e+18,4.0822041015625,-7.673799991607666,-50.141998291015625,-7.039400100708008,,,,,,,,,,,,,,,,,,,,,,,,,,,,,,,
Magnetometer,1.6820861657221934e+18,4.092193359375,-8.11299991607666,-50.398197174072266,-6.624599933624268,,,,,,,,,,,,,,,,,,,,,,,,,,,,,,,
Magnetometer,1.682086165732204e+18,4.1022041015625,-6.3805999755859375,-50.69099807739258,-6.2342000007629395,,,,,,,,,,,,,,,,,,,,,,,,,,,,,,,
Magnetometer,1.682086165742205e+18,4.112204833984375,-5.807199954986572,-50.8495979309082,-6.453799724578857,,,,,,,,,,,,,,,,,,,,,,,,,,,,,,,
Magnetometer,1.6820861657522043e+18,4.122204345703125,-6.087800025939941,-50.93499755859375,-5.721799850463867,,,,,,,,,,,,,,,,,,,,,,,,,,,,,,,
Magnetometer,1.6820861657622042e+18,4.1322041015625,-5.892600059509277,-50.154197692871094,-5.990200042724609,,,,,,,,,,,,,,,,,,,,,,,,,,,,,,,
Magnetometer,1.6820861657721935e+18,4.142193603515625,-6.978399753570557,-50.71540069580078,-6.5513997077941895,,,,,,,,,,,,,,,,,,,,,,,,,,,,,,,
Magnetometer,1.6820861657822044e+18,4.152204345703125,-6.941799640655518,-50.6422004699707,-7.173599720001221,,,,,,,,,,,,,,,,,,,,,,,,,,,,,,,
Magnetometer,1.682086165792204e+18,4.1622041015625,-7.820199966430664,-50.75199890136719,-6.96619987487793,,,,,,,,,,,,,,,,,,,,,,,,,,,,,,,
Magnetometer,1.6820861658022042e+18,4.1722041015625,-8.491199493408203,-50.410400390625,-6.112199783325195,,,,,,,,,,,,,,,,,,,,,,,,,,,,,,,
Magnetometer,1.682086165812204e+18,4.1822041015625,-8.625399589538574,-50.91059875488281,-5.306999683380127,,,,,,,,,,,,,,,,,,,,,,,,,,,,,,,
Magnetometer,1.6820861658222034e+18,4.192203369140625,-9.064599990844727,-50.764198303222656,-5.70959997177124,,,,,,,,,,,,,,,,,,,,,,,,,,,,,,,
Magnetometer,1.6820861658322043e+18,4.202204345703125,-9.869799613952637,-50.520198822021484,-5.477799892425537,,,,,,,,,,,,,,,,,,,,,,,,,,,,,,,
Magnetometer,1.6820861658421934e+18,4.212193359375,-10.296799659729004,-50.263999938964844,-5.148399829864502,,,,,,,,,,,,,,,,,,,,,,,,,,,,,,,
Magnetometer,1.6820861658521938e+18,4.22219384765625,-10.089399337768555,-49.91019821166992,-5.136199951171875,,,,,,,,,,,,,,,,,,,,,,,,,,,,,,,
Magnetometer,1.6820861658622042e+18,4.2322041015625,-11.43139934539795,-49.95899963378906,-5.233799934387207,,,,,,,,,,,,,,,,,,,,,,,,,,,,,,,
Magnetometer,1.6820861658721981e+18,4.2421982421875,-12.212200164794922,-50.141998291015625,-4.831200122833252,,,,,,,,,,,,,,,,,,,,,,,,,,,,,,,
Magnetometer,1.6820861658821944e+18,4.2521943359375,-12.358599662780762,-49.70280075073242,-4.489599704742432,,,,,,,,,,,,,,,,,,,,,,,,,,,,,,,
Magnetometer,1.6820861658921935e+18,4.262193603515625,-13.175999641418457,-50.080997467041016,-4.294399738311768,,,,,,,,,,,,,,,,,,,,,,,,,,,,,,,
Magnetometer,1.682086165902198e+18,4.272197998046875,-14.164199829101562,-49.141597747802734,-4.233399868011475,,,,,,,,,,,,,,,,,,,,,,,,,,,,,,,
Magnetometer,1.682086165912204e+18,4.2822041015625,-14.10319995880127,-48.34859848022461,-3.7697999477386475,,,,,,,,,,,,,,,,,,,,,,,,,,,,,,,
Magnetometer,1.682086165922204e+18,4.292203857421875,-15.542799949645996,-48.3120002746582,-4.184599876403809,,,,,,,,,,,,,,,,,,,,,,,,,,,,,,,
Magnetometer,1.6820861659322148e+18,4.30221484375,-16.372400283813477,-47.72639846801758,-3.8307998180389404,,,,,,,,,,,,,,,,,,,,,,,,,,,,,,,
Magnetometer,1.6820861659421934e+18,4.312193359375,-17.287399291992188,-47.482398986816406,-3.7087998390197754,,,,,,,,,,,,,,,,,,,,,,,,,,,,,,,
Magnetometer,1.6820861659522043e+18,4.322204345703125,-18.751399993896484,-46.57959747314453,-4.282199859619141,,,,,,,,,,,,,,,,,,,,,,,,,,,,,,,
Magnetometer,1.6820861659621934e+18,4.332193359375,-19.94700050354004,-46.00619888305664,-4.245599746704102,,,,,,,,,,,,,,,,,,,,,,,,,,,,,,,
Magnetometer,1.6820861659722043e+18,4.342204345703125,-20.53260040283203,-44.895999908447266,-4.062600135803223,,,,,,,,,,,,,,,,,,,,,,,,,,,,,,,
Magnetometer,1.6820861659821934e+18,4.352193359375,-23.045799255371094,-42.79759979248047,-4.770199775695801,,,,,,,,,,,,,,,,,,,,,,,,,,,,,,,
Magnetometer,1.6820861659921935e+18,4.362193603515625,-23.81439971923828,-42.48040008544922,-4.855599880218506,,,,,,,,,,,,,,,,,,,,,,,,,,,,,,,
Magnetometer,1.6820861660022042e+18,4.3722041015625,-25.21739959716797,-41.199398040771484,-4.453000068664551,,,,,,,,,,,,,,,,,,,,,,,,,,,,,,,
Magnetometer,1.6820861660121958e+18,4.38219580078125,-25.766399383544922,-39.47919845581055,-4.56279993057251,,,,,,,,,,,,,,,,,,,,,,,,,,,,,,,
