sensor,time,seconds_elapsed,z,y,x,relativeAltitude,pressure,batteryLevel,batteryState,lowPowerMode,brightness,lux,bearingAccuracy,speedAccuracy,verticalAccuracy,horizontalAccuracy,speed,bearing,altitude,longitude,latitude,version,device name,recording time,platform,appVersion,device id,sensors,sampleRateMs,qz,qy,qx,qw,roll,pitch,yaw
Gyroscope,1.6820861617726203e+18,0.142620361328125,0.14248432219028473,0.009162978269159794,1.9129245281219482,,,,,,,,,,,,,,,,,,,,,,,,,,,,,,,
Gyroscope,1.6820861617894925e+18,0.159492431640625,0.025961773470044136,-0.13607023656368256,1.5196800231933594,,,,,,,,,,,,,,,,,,,,,,,,,,,,,,,
Gyroscope,1.6820861618063644e+18,0.176364501953125,-0.023976460099220276,-0.4427245855331421,0.9294314980506897,,,,,,,,,,,,,,,,,,,,,,,,,,,,,,,
Gyroscope,1.6820861618232164e+18,0.19321630859375,-0.09743300825357437,-0.470060795545578,0.5190827250480652,,,,,,,,,,,,,,,,,,,,,,,,,,,,,,,
Gyroscope,1.6820861618401106e+18,0.210110595703125,-0.182648703455925,-0.1892155110836029,0.30772337317466736,,,,,,,,,,,,,,,,,,,,,,,,,,,,,,,
Gyroscope,1.68208616185698e+18,0.22697998046875,-0.2854267954826355,0.09147707372903824,0.166460782289505,,,,,,,,,,,,,,,,,,,,,,,,,,,,,,,
Gyroscope,1.6820861618738437e+18,0.24384375,-0.3397938013076782,0.6690501570701599,0.17867808043956757,,,,,,,,,,,,,,,,,,,,,,,,,,,,,,,
Gyroscope,1.6820861618907297e+18,0.260729736328125,-0.34315356612205505,0.973566472530365,0.13484850525856018,,,,,,,,,,,,,,,,,,,,,,,,,,,,,,,
Gyroscope,1.6820861619075994e+18,0.277599365234375,-0.30695977807044983,0.9625709056854248,-0.09483683109283447,,,,,,,,,,,,,,,,,,,,,,,,,,,,,,,
Gyroscope,1.682086161924472e+18,0.29447216796875,-0.16172657907009125,0.6336199641227722,-0.6591235995292664,,,,,,,,,,,,,,,,,,,,,,,,,,,,,,,
Gyroscope,1.6820861619413443e+18,0.31134423828125,0.06230825558304787,0.0959058403968811,-1.5748106241226196,,,,,,,,,,,,,,,,,,,,,,,,,,,,,,,
Gyroscope,1.6820861619582172e+18,0.32821728515625,0.22067506611347198,0.013897184282541275,-2.753016948699951,,,,,,,,,,,,,,,,,,,,,,,,,,,,,,,
Gyroscope,1.6820861619750892e+18,0.345089111328125,0.3914119005203247,-0.7919867634773254,-3.8403570652008057,,,,,,,,,,,,,,,,,,,,,,,,,,,,,,,
Gyroscope,1.682086161991962e+18,0.361962158203125,0.5711590051651001,-0.5684100985527039,-3.4854443073272705,,,,,,,,,,,,,,,,,,,,,,,,,,,,,,,
Gyroscope,1.682086162008834e+18,0.378833984375,0.526107668876648,0.45173484086990356,-1.873218297958374,,,,,,,,,,,,,,,,,,,,,,,,,,,,,,,
Gyroscope,1.682086162025707e+18,0.39570703125,0.5151121020317078,0.15073099732398987,0.07192938029766083,,,,,,,,,,,,,,,,,,,,,,,,,,,,,,,
Gyroscope,1.682086162042577e+18,0.412576904296875,0.2194533348083496,-0.9398161768913269,1.701565146446228,,,,,,,,,,,,,,,,,,,,,,,,,,,,,,,
Gyroscope,1.6820861620594442e+18,0.4294443359375,-0.0959058403968811,-1.1620184183120728,2.6928467750549316,,,,,,,,,,,,,,,,,,,,,,,,,,,,,,,
Gyroscope,1.682086162076324e+18,0.446323974609375,-0.19914206862449646,-1.0680978298187256,3.073262929916382,,,,,,,,,,,,,,,,,,,,,,,,,,,,,,,
Gyroscope,1.682086162093197e+18,0.463197021484375,-0.318566232919693,-0.6255260109901428,3.0114128589630127,,,,,,,,,,,,,,,,,,,,,,,,,,,,,,,
Gyroscope,1.682086162110069e+18,0.480069091796875,-0.3738495409488678,-0.004428773187100887,2.881451368331909,,,,,,,,,,,,,,,,,,,,,,,,,,,,,,,
Gyroscope,1.6820861621269317e+18,0.496931640625,-0.3292563557624817,0.48380526900291443,2.629469394683838,,,,,,,,,,,,,,,,,,,,,,,,,,,,,,,
Gyroscope,1.6820861621438141e+18,0.513814208984375,-0.05345070734620094,0.11881329119205475,2.2817344665527344,,,,,,,,,,,,,,,,,,,,,,,,,,,,,,,
Gyroscope,1.6820861621606769e+18,0.5306767578125,0.03084869496524334,-2.1791090965270996,1.6045902967453003,,,,,,,,,,,,,,,,,,,,,,,,,,,,,,,
Gyroscope,1.6820861621775593e+18,0.547559326171875,-0.14538592100143433,-3.386331558227539,0.6522513628005981,,,,,,,,,,,,,,,,,,,,,,,,,,,,,,,
Gyroscope,1.6820861621944325e+18,0.5644326171875,-0.23060162365436554,-3.193145275115967,-0.03145955875515938,,,,,,,,,,,,,,,,,,,,,,,,,,,,,,,
Gyroscope,1.6820861622113044e+18,0.581304443359375,-0.27320948243141174,-2.800511598587036,-0.3602577745914459,,,,,,,,,,,,,,,,,,,,,,,,,,,,,,,
Gyroscope,1.6820861622281677e+18,0.598167724609375,-0.19425514340400696,-1.9804251194000244,-0.38408151268959045,,,,,,,,,,,,,,,,,,,,,,,,,,,,,,,
Gyroscope,1.682086162245049e+18,0.615049072265625,-0.0679587572813034,-0.6010913848876953,-0.5797111392021179,,,,,,,,,,,,,,,,,,,,,,,,,,,,,,,
Gyroscope,1.6820861622619226e+18,0.631922607421875,0.1647808998823166,0.4508185386657715,-1.1898127794265747,,,,,,,,,,,,,,,,,,,,,,,,,,,,,,,
Gyroscope,1.6820861622787942e+18,0.648794189453125,0.5572618246078491,-1.1733194589614868,-2.2678372859954834,,,,,,,,,,,,,,,,,,,,,,,,,,,,,,,
Gyroscope,1.6820861622956677e+18,0.665667724609375,1.2935070991516113,-0.6130032539367676,-2.694221258163452,,,,,,,,,,,,,,,,,,,,,,,,,,,,,,,
Gyroscope,1.682086162312537e+18,0.682537109375,1.3410019874572754,1.5783231258392334,-2.141082763671875,,,,,,,,,,,,,,,,,,,,,,,,,,,,,,,
Gyroscope,1.6820861623294152e+18,0.699415283203125,0.6931793093681335,3.8405098915100098,-1.2021827697753906,,,,,,,,,,,,,,,,,,,,,,,,,,,,,,,
Gyroscope,1.6820861623462807e+18,0.71628076171875,-0.43020185828208923,1.9937114715576172,-0.24984388053417206,,,,,,,,,,,,,,,,,,,,,,,,,,,,,,,
Gyroscope,1.682086162363161e+18,0.7331611328125,-0.849255383014679,0.3712533414363861,0.7194465398788452,,,,,,,,,,,,,,,,,,,,,,,,,,,,,,,
Gyroscope,1.6820861623800192e+18,0.750019287109375,-0.6133087277412415,0.4358523488044739,1.3617713451385498,,,,,,,,,,,,,,,,,,,,,,,,,,,,,,,
Gyroscope,1.6820861623968998e+18,0.76689990234375,-0.33368512988090515,0.4928155243396759,1.5948164463043213,,,,,,,,,,,,,,,,,,,,,,,,,,,,,,,
Gyroscope,1.6820861624137649e+18,0.783764892578125,-0.10797043144702911,0.6206390857696533,1.7304285764694214,,,,,,,,,,,,,,,,,,,,,,,,,,,,,,,
Gyroscope,1.6820861624306478e+18,0.800647705078125,-0.08292495459318161,0.755182147026062,1.831068515777588,,,,,,,,,,,,,,,,,,,,,,,,,,,,,,,
Gyroscope,1.6820861624475136e+18,0.817513671875,-0.1699732542037964,1.0432051420211792,1.7507398128509521,,,,,,,,,,,,,,,,,,,,,,,,,,,,,,,
Gyroscope,1.6820861624643935e+18,0.8343935546875,0.023518312722444534,1.641547679901123,1.553277611732483,,,,,,,,,,,,,,,,,,,,,,,,,,,,,,,
Gyroscope,1.6820861624812646e+18,0.8512646484375,0.3171917796134949,1.8715384006500244,1.2811371088027954,,,,,,,,,,,,,,,,,,,,,,,,,,,,,,,
Gyroscope,1.6820861624981376e+18,0.8681376953125,0.42760565876960754,1.6780468225479126,0.88987797498703,,,,,,,,,,,,,,,,,,,,,,,,,,,,,,,
Gyroscope,1.6820861625150098e+18,0.885009765625,0.252287358045578,0.7344127297401428,0.005650503560900688,,,,,,,,,,,,,,,,,,,,,,,,,,,,,,,
Gyroscope,1.6820861625318802e+18,0.901880126953125,0.03329215571284294,0.09468411654233932,-1.3987287282943726,,,,,,,,,,,,,,,,,,,,,,,,,,,,,,,
Gyroscope,1.6820861625487578e+18,0.9187578125,0.20525072515010834,-0.370947927236557,-2.7336220741271973,,,,,,,,,,,,,,,,,,,,,,,,,,,,,,,
Gyroscope,1.682086162565628e+18,0.9356279296875,0.4008803069591522,-0.45952337980270386,-3.344334602355957,,,,,,,,,,,,,,,,,,,,,,,,,,,,,,,
Gyroscope,1.682086162582488e+18,0.952488037109375,0.41890084743499756,-0.4999932050704956,-2.838690757751465,,,,,,,,,,,,,,,,,,,,,,,,,,,,,,,
Gyroscope,1.6820861625993748e+18,0.969374755859375,0.3459024429321289,-0.22067506611347198,-1.4381295442581177,,,,,,,,,,,,,,,,,,,,,,,,,,,,,,,
Gyroscope,1.682086162616245e+18,0.986244873046875,0.14309518039226532,-0.1368338167667389,0.294895201921463,,,,,,,,,,,,,,,,,,,,,,,,,,,,,,,
Gyroscope,1.6820861626331185e+18,1.003118408203125,-0.06429356336593628,0.0074830991216003895,1.9541579484939575,,,,,,,,,,,,,,,,,,,,,,,,,,,,,,,
Gyroscope,1.6820861626499904e+18,1.019990478515625,-0.17150041460990906,0.14355333149433136,2.860987424850464,,,,,,,,,,,,,,,,,,,,,,,,,,,,,,,
Gyroscope,1.6820861626668534e+18,1.036853271484375,-0.19135354459285736,0.00733038317412138,2.789363384246826,,,,,,,,,,,,,,,,,,,,,,,,,,,,,,,
Gyroscope,1.6820861626837353e+18,1.0537353515625,-0.13759739696979523,-0.2587014436721802,2.2600486278533936,,,,,,,,,,,,,,,,,,,,,,,,,,,,,,,
Gyroscope,1.682086162700608e+18,1.07060791015625,-0.0907134860754013,-0.22999076545238495,1.948660135269165,,,,,,,,,,,,,,,,,,,,,,,,,,,,,,,
Gyroscope,1.6820861627174802e+18,1.087480224609375,-0.03420845419168472,0.032681290060281754,1.8345810174942017,,,,,,,,,,,,,,,,,,,,,,,,,,,,,,,
Gyroscope,1.682086162734353e+18,1.104352783203125,-0.12140946835279465,0.3430008292198181,1.4257594347000122,,,,,,,,,,,,,,,,,,,,,,,,,,,,,,,
Gyroscope,1.6820861627512253e+18,1.121225341796875,-0.16081027686595917,0.6707300543785095,0.6090326309204102,,,,,,,,,,,,,,,,,,,,,,,,,,,,,,,
Gyroscope,1.6820861627680993e+18,1.138099365234375,-0.13607023656368256,0.7258606553077698,-0.5676465034484863,,,,,,,,,,,,,,,,,,,,,,,,,,,,,,,
Gyroscope,1.6820861627849708e+18,1.154970703125,-0.13484850525856018,0.48517972230911255,-1.9734001159667969,,,,,,,,,,,,,,,,,,,,,,,,,,,,,,,
Gyroscope,1.6820861628018435e+18,1.171843505859375,-0.09758572280406952,0.1258382350206375,-3.4127514362335205,,,,,,,,,,,,,,,,,,,,,,,,,,,,,,,
Gyroscope,1.6820861628187154e+18,1.18871533203125,0.06490442901849747,-0.17776179313659668,-4.53002405166626,,,,,,,,,,,,,,,,,,,,,,,,,,,,,,,
Gyroscope,1.6820861628355884e+18,1.20558837890625,0.3660610020160675,-0.4207334518432617,-4.747033596038818,,,,,,,,,,,,,,,,,,,,,,,,,,,,,,,
Gyroscope,1.6820861628524585e+18,1.22245849609375,0.6827946305274963,-0.8298604488372803,-3.3683109283447266,,,,,,,,,,,,,,,,,,,,,,,,,,,,,,,
Gyroscope,1.6820861628693363e+18,1.23933642578125,0.6340781450271606,-0.3338378667831421,-0.5149593949317932,,,,,,,,,,,,,,,,,,,,,,,,,,,,,,,
Gyroscope,1.6820861628862057e+18,1.256205810546875,0.2519819140434265,0.3400992155075073,2.136043071746826,,,,,,,,,,,,,,,,,,,,,,,,,,,,,,,
Gyroscope,1.682086162903079e+18,1.273078857421875,0.17058411240577698,0.5500841736793518,3.272099733352661,,,,,,,,,,,,,,,,,,,,,,,,,,,,,,,
Gyroscope,1.6820861629199506e+18,1.28995068359375,0.14156801998615265,0.38240164518356323,3.110373020172119,,,,,,,,,,,,,,,,,,,,,,,,,,,,,,,
Gyroscope,1.6820861629368154e+18,1.3068154296875,0.07757988572120667,-0.018936822190880775,2.6374106407165527,,,,,,,,,,,,,,,,,,,,,,,,,,,,,,,
Gyroscope,1.682086162953692e+18,1.32369189453125,0.0022907445672899485,-0.3191770911216736,2.662914276123047,,,,,,,,,,,,,,,,,,,,,,,,,,,,,,,
Gyroscope,1.6820861629705692e+18,1.3405693359375,-0.1495092660188675,-0.28985556960105896,2.895043134689331,,,,,,,,,,,,,,,,,,,,,,,,,,,,,,,
Gyroscope,1.682086162987441e+18,1.35744091796875,-0.19776763021945953,-0.032681290060281754,2.7282769680023193,,,,,,,,,,,,,,,,,,,,,,,,,,,,,,,
Gyroscope,1.6820861630043046e+18,1.3743046875,-0.20387627184391022,0.30512720346450806,1.878563404083252,,,,,,,,,,,,,,,,,,,,,,,,,,,,,,,
Gyroscope,1.6820861630211804e+18,1.391180419921875,-0.22311852872371674,0.45814892649650574,0.3399465084075928,,,,,,,,,,,,,,,,,,,,,,,,,,,,,,,
Gyroscope,1.682086163038059e+18,1.40805908203125,-0.27351492643356323,0.46150869131088257,-1.6333009004592896,,,,,,,,,,,,,,,,,,,,,,,,,,,,,,,
Gyroscope,1.6820861630549307e+18,1.4249306640625,-0.2741257846355438,0.08704829961061478,-3.7230708599090576,,,,,,,,,,,,,,,,,,,,,,,,,,,,,,,
Gyroscope,1.6820861630717852e+18,1.44178515625,-0.13209961354732513,-0.12461651116609573,-5.439907550811768,,,,,,,,,,,,,,,,,,,,,,,,,,,,,,,
Gyroscope,1.6820861630886653e+18,1.458665283203125,0.08857546001672745,0.1238529309630394,-6.283512592315674,,,,,,,,,,,,,,,,,,,,,,,,,,,,,,,
Gyroscope,1.682086163105553e+18,1.475552978515625,0.3127630054950714,0.1293507218360901,-5.926919937133789,,,,,,,,,,,,,,,,,,,,,,,,,,,,,,,
Gyroscope,1.6820861631224125e+18,1.49241259765625,0.569631814956665,0.04444044828414917,-3.6891679763793945,,,,,,,,,,,,,,,,,,,,,,,,,,,,,,,
Gyroscope,1.6820861631392955e+18,1.50929541015625,0.6243042945861816,0.4034765064716339,0.15577064454555511,,,,,,,,,,,,,,,,,,,,,,,,,,,,,,,
Gyroscope,1.6820861631561551e+18,1.526155029296875,0.4106541574001312,0.7629706859588623,3.335935115814209,,,,,,,,,,,,,,,,,,,,,,,,,,,,,,,
Gyroscope,1.6820861631730386e+18,1.54303857421875,0.3481931984424591,0.9529497623443604,4.344626426696777,,,,,,,,,,,,,,,,,,,,,,,,,,,,,,,
Gyroscope,1.6820861631899126e+18,1.55991259765625,0.3500257730484009,0.4567744731903076,3.6024250984191895,,,,,,,,,,,,,,,,,,,,,,,,,,,,,,,
Gyroscope,1.6820861632067745e+18,1.5767744140625,0.3604104816913605,-0.4535674452781677,2.922990083694458,,,,,,,,,,,,,,,,,,,,,,,,,,,,,,,
Gyroscope,1.682086163223657e+18,1.593656982421875,0.1722639948129654,-0.9182831645011902,2.9136745929718018,,,,,,,,,,,,,,,,,,,,,,,,,,,,,,,
Gyroscope,1.6820861632405297e+18,1.61052978515625,-0.02626720629632473,-0.8023715019226074,2.8942794799804688,,,,,,,,,,,,,,,,,,,,,,,,,,,,,,,
Gyroscope,1.6820861632573914e+18,1.627391357421875,-0.11774427443742752,-0.32330042123794556,2.423455238342285,,,,,,,,,,,,,,,,,,,,,,,,,,,,,,,
Gyroscope,1.6820861632742748e+18,1.64427490234375,-0.2025018334388733,0.361174076795578,1.5184582471847534,,,,,,,,,,,,,,,,,,,,,,,,,,,,,,,
Gyroscope,1.6820861632911468e+18,1.661146728515625,-0.39675697684288025,0.9738719463348389,0.22678372263908386,,,,,,,,,,,,,,,,,,,,,,,,,,,,,,,
Gyroscope,1.6820861633080095e+18,1.678009521484375,-0.5873469114303589,1.1479685306549072,-1.2867876291275024,,,,,,,,,,,,,,,,,,,,,,,,,,,,,,,
Gyroscope,1.6820861633248924e+18,1.694892333984375,-0.6887505650520325,0.9837985038757324,-2.8707611560821533,,,,,,,,,,,,,,,,,,,,,,,,,,,,,,,
Gyroscope,1.6820861633417654e+18,1.711765380859375,-0.5468770861625671,0.8701775670051575,-4.2978949546813965,,,,,,,,,,,,,,,,,,,,,,,,,,,,,,,
Gyroscope,1.682086163358637e+18,1.728636962890625,-0.3116939961910248,0.029626963660120964,-5.302004814147949,,,,,,,,,,,,,,,,,,,,,,,,,,,,,,,
Gyroscope,1.6820861633754998e+18,1.745499755859375,-0.16019940376281738,-1.0319041013717651,-5.333311557769775,,,,,,,,,,,,,,,,,,,,,,,,,,,,,,,
Gyroscope,1.6820861633923784e+18,1.76237841796875,0.0065668015740811825,-1.3254249095916748,-3.7394115924835205,,,,,,,,,,,,,,,,,,,,,,,,,,,,,,,
Gyroscope,1.6820861634092557e+18,1.779255615234375,0.4205807149410248,-0.48976120352745056,-0.03726277872920036,,,,,,,,,,,,,,,,,,,,,,,,,,,,,,,
Gyroscope,1.6820861634261258e+18,1.796125732421875,0.574976921081543,0.5198463201522827,3.5717291831970215,,,,,,,,,,,,,,,,,,,,,,,,,,,,,,,
Gyroscope,1.6820861634429885e+18,1.812988525390625,0.7802276611328125,0.750142514705658,5.139514923095703,,,,,,,,,,,,,,,,,,,,,,,,,,,,,,,
Gyroscope,1.6820861634598725e+18,1.82987255859375,0.5977316498756409,0.25106561183929443,4.831180572509766,,,,,,,,,,,,,,,,,,,,,,,,,,,,,,,
Gyroscope,1.6820861634767352e+18,1.8467353515625,0.15851953625679016,-0.3781255781650543,4.2310051918029785,,,,,,,,,,,,,,,,,,,,,,,,,,,,,,,
Gyroscope,1.6820861634936136e+18,1.863613525390625,-0.0027488935738801956,-0.7825183868408203,3.8736491203308105,,,,,,,,,,,,,,,,,,,,,,,,,,,,,,,
Gyroscope,1.6820861635105047e+18,1.880504638671875,-0.007788531947880983,-0.8878926634788513,3.545309066772461,,,,,,,,,,,,,,,,,,,,,,,,,,,,,,,
Gyroscope,1.6820861635273605e+18,1.897360595703125,-0.06933320313692093,-0.46822822093963623,2.94269061088562,,,,,,,,,,,,,,,,,,,,,,,,,,,,,,,
Gyroscope,1.6820861635442388e+18,1.91423876953125,-0.14294247329235077,0.21105393767356873,2.014939069747925,,,,,,,,,,,,,,,,,,,,,,,,,,,,,,,
Gyroscope,1.682086163561108e+18,1.93110791015625,-0.18539759516716003,1.0343475341796875,0.698066234588623,,,,,,,,,,,,,,,,,,,,,,,,,,,,,,,
Gyroscope,1.6820861635779812e+18,1.947981201171875,-0.2324342280626297,1.510364294052124,-0.9912815690040588,,,,,,,,,,,,,,,,,,,,,,,,,,,,,,,
Gyroscope,1.682086163594856e+18,1.96485595703125,-0.342237263917923,1.4537066221237183,-2.8299858570098877,,,,,,,,,,,,,,,,,,,,,,,,,,,,,,,
Gyroscope,1.6820861636117238e+18,1.981723876953125,-0.3672827184200287,1.2188289165496826,-4.351498603820801,,,,,,,,,,,,,,,,,,,,,,,,,,,,,,,
Gyroscope,1.682086163628598e+18,1.998597900390625,-0.3390302062034607,0.5458080768585205,-5.408753395080566,,,,,,,,,,,,,,,,,,,,,,,,,,,,,,,
Gyroscope,1.682086163645472e+18,2.015471923828125,-0.33200526237487793,-0.6585127115249634,-6.0817742347717285,,,,,,,,,,,,,,,,,,,,,,,,,,,,,,,
Gyroscope,1.6820861636623437e+18,2.03234375,-0.35475999116897583,-1.6221526861190796,-5.856517791748047,,,,,,,,,,,,,,,,,,,,,,,,,,,,,,,
Gyroscope,1.682086163679215e+18,2.049215087890625,-0.20693060755729675,-1.1229230165481567,-3.5604281425476074,,,,,,,,,,,,,,,,,,,,,,,,,,,,,,,
Gyroscope,1.682086163696091e+18,2.0660908203125,0.07895433157682419,-0.3651446998119354,0.1443169116973877,,,,,,,,,,,,,,,,,,,,,,,,,,,,,,,
Gyroscope,1.6820861637129603e+18,2.082960205078125,0.2817615866661072,0.02977968007326126,2.758820056915283,,,,,,,,,,,,,,,,,,,,,,,,,,,,,,,
Gyroscope,1.6820861637298322e+18,2.099832275390625,0.4973970353603363,0.24694228172302246,3.5156822204589844,,,,,,,,,,,,,,,,,,,,,,,,,,,,,,,
Gyroscope,1.6820861637466941e+18,2.116694091796875,0.4311181604862213,0.07101308554410934,3.032029628753662,,,,,,,,,,,,,,,,,,,,,,,,,,,,,,,
Gyroscope,1.682086163763579e+18,2.133578857421875,0.29245173931121826,-0.1872301995754242,2.5471553802490234,,,,,,,,,,,,,,,,,,,,,,,,,,,,,,,
Gyroscope,1.682086163780452e+18,2.1504521484375,0.2275473028421402,-0.30054569244384766,2.4020748138427734,,,,,,,,,,,,,,,,,,,,,,,,,,,,,,,
Gyroscope,1.6820861637973345e+18,2.16733447265625,0.18356500566005707,-0.182648703455925,2.3177754878997803,,,,,,,,,,,,,,,,,,,,,,,,,,,,,,,
Gyroscope,1.682086163814195e+18,2.18419482421875,0.1316414624452591,0.09728029370307922,2.0700695514678955,,,,,,,,,,,,,,,,,,,,,,,,,,,,,,,
Gyroscope,1.6820861638310723e+18,2.201072265625,0.029168816283345222,0.3455969989299774,1.5456417798995972,,,,,,,,,,,,,,,,,,,,,,,,,,,,,,,
Gyroscope,1.682086163847942e+18,2.21794189453125,-0.13469578325748444,0.4193589985370636,0.6035348773002625,,,,,,,,,,,,,,,,,,,,,,,,,,,,,,,
Gyroscope,1.6820861638648082e+18,2.23480810546875,-0.33719760179519653,0.44180828332901,-0.7809911966323853,,,,,,,,,,,,,,,,,,,,,,,,,,,,,,,
Gyroscope,1.682086163881685e+18,2.25168505859375,-0.5216789245605469,0.4415028691291809,-2.4307854175567627,,,,,,,,,,,,,,,,,,,,,,,,,,,,,,,
Gyroscope,1.6820861638985626e+18,2.2685625,-0.5674937963485718,0.328340083360672,-4.096614837646484,,,,,,,,,,,,,,,,,,,,,,,,,,,,,,,
Gyroscope,1.6820861639154332e+18,2.28543310546875,-0.427452951669693,-0.09773843735456467,-5.375461578369141,,,,,,,,,,,,,,,,,,,,,,,,,,,,,,,
Gyroscope,1.6820861639323052e+18,2.30230517578125,-0.3367394804954529,-0.9831876158714294,-5.805052280426025,,,,,,,,,,,,,,,,,,,,,,,,,,,,,,,
Gyroscope,1.6820861639491756e+18,2.319175537109375,-0.31261029839515686,-1.0103710889816284,-4.477642059326172,,,,,,,,,,,,,,,,,,,,,,,,,,,,,,,
Gyroscope,1.6820861639660529e+18,2.336052978515625,-0.1134682223200798,-0.00855211354792118,-1.236391305923462,,,,,,,,,,,,,,,,,,,,,,,,,,,,,,,
Gyroscope,1.6820861639829233e+18,2.35292333984375,0.30085113644599915,0.5245805382728577,2.0616703033447266,,,,,,,,,,,,,,,,,,,,,,,,,,,,,,,
Gyroscope,1.6820861639997952e+18,2.369795166015625,0.5132794976234436,0.5998696684837341,3.4884986877441406,,,,,,,,,,,,,,,,,,,,,,,,,,,,,,,
Gyroscope,1.6820861640166636e+18,2.38666357421875,0.44654250144958496,0.31551191210746765,3.266601800918579,,,,,,,,,,,,,,,,,,,,,,,,,,,,,,,
Gyroscope,1.6820861640335406e+18,2.40354052734375,0.37461310625076294,-0.1014036312699318,2.7516424655914307,,,,,,,,,,,,,,,,,,,,,,,,,,,,,,,
Gyroscope,1.6820861640504028e+18,2.42040283203125,0.3065016269683838,-0.41370847821235657,2.601522445678711,,,,,,,,,,,,,,,,,,,,,,,,,,,,,,,
Gyroscope,1.682086164067286e+18,2.4372861328125,0.23060162365436554,-0.4948008358478546,2.598926067352295,,,,,,,,,,,,,,,,,,,,,,,,,,,,,,,
Gyroscope,1.6820861640841587e+18,2.45415869140625,0.12751811742782593,-0.4521929919719696,2.4045183658599854,,,,,,,,,,,,,,,,,,,,,,,,,,,,,,,
Gyroscope,1.682086164101031e+18,2.471031005859375,-0.036041051149368286,-0.2015855312347412,1.8949040174484253,,,,,,,,,,,,,,,,,,,,,,,,,,,,,,,
Gyroscope,1.6820861641179013e+18,2.4879013671875,-0.2542726695537567,0.10537425428628922,0.9779952764511108,,,,,,,,,,,,,,,,,,,,,,,,,,,,,,,
Gyroscope,1.6820861641347738e+18,2.504773681640625,-0.42149701714515686,0.44226643443107605,-0.3674354553222656,,,,,,,,,,,,,,,,,,,,,,,,,,,,,,,
Gyroscope,1.6820861641516518e+18,2.52165185546875,-0.4970915913581848,0.7238753437995911,-1.93598473072052,,,,,,,,,,,,,,,,,,,,,,,,,,,,,,,
Gyroscope,1.682086164168525e+18,2.538525146484375,-0.4482223689556122,0.6685920357704163,-3.439629554748535,,,,,,,,,,,,,,,,,,,,,,,,,,,,,,,
Gyroscope,1.682086164185391e+18,2.55539111328125,-0.20616702735424042,0.3701843321323395,-4.590346813201904,,,,,,,,,,,,,,,,,,,,,,,,,,,,,,,
Gyroscope,1.682086164202264e+18,2.57226416015625,-0.02122756652534008,-0.013591751456260681,-5.156160831451416,,,,,,,,,,,,,,,,,,,,,,,,,,,,,,,
Gyroscope,1.6820861642191421e+18,2.58914208984375,0.10720685124397278,-0.20097467303276062,-4.641812324523926,,,,,,,,,,,,,,,,,,,,,,,,,,,,,,,
Gyroscope,1.6820861642360118e+18,2.60601171875,0.17027868330478668,-0.275958389043808,-2.863736152648926,,,,,,,,,,,,,,,,,,,,,,,,,,,,,,,
Gyroscope,1.682086164252885e+18,2.622885009765625,0.1999056488275528,-0.11407908797264099,-0.43020185828208923,,,,,,,,,,,,,,,,,,,,,,,,,,,,,,,
Gyroscope,1.6820861642697572e+18,2.639757080078125,0.3280346393585205,-0.33246341347694397,1.430799126625061,,,,,,,,,,,,,,,,,,,,,,,,,,,,,,,
Gyroscope,1.6820861642866273e+18,2.65662744140625,0.4715879559516907,-0.3448334336280823,2.3600778579711914,,,,,,,,,,,,,,,,,,,,,,,,,,,,,,,
Gyroscope,1.682086164303505e+18,2.6735048828125,0.37048977613449097,-0.5835290551185608,2.752100706100464,,,,,,,,,,,,,,,,,,,,,,,,,,,,,,,
Gyroscope,1.6820861643203756e+18,2.69037548828125,0.27641651034355164,-0.7947356700897217,3.0001118183135986,,,,,,,,,,,,,,,,,,,,,,,,,,,,,,,
Gyroscope,1.6820861643372506e+18,2.70725048828125,0.2701551616191864,-0.8654433488845825,3.2226195335388184,,,,,,,,,,,,,,,,,,,,,,,,,,,,,,,
Gyroscope,1.6820861643541204e+18,2.724120361328125,0.23457226157188416,-0.8103127479553223,3.3796119689941406,,,,,,,,,,,,,,,,,,,,,,,,,,,,,,,
Gyroscope,1.6820861643709824e+18,2.740982421875,0.10231992602348328,-0.6201809644699097,3.2236886024475098,,,,,,,,,,,,,,,,,,,,,,,,,,,,,,,
Gyroscope,1.6820861643878625e+18,2.757862548828125,-0.1036943718791008,-0.2223549485206604,2.579225778579712,,,,,,,,,,,,,,,,,,,,,,,,,,,,,,,
Gyroscope,1.6820861644047194e+18,2.77471923828125,-0.3404046595096588,0.32498031854629517,1.5086843967437744,,,,,,,,,,,,,,,,,,,,,,,,,,,,,,,
Gyroscope,1.6820861644216113e+18,2.791611328125,-0.5910121202468872,0.7874053120613098,0.11438451707363129,,,,,,,,,,,,,,,,,,,,,,,,,,,,,,,
Gyroscope,1.68208616443848e+18,2.80847998046875,-0.7666358947753906,0.9312640428543091,-1.4749341011047363,,,,,,,,,,,,,,,,,,,,,,,,,,,,,,,
Gyroscope,1.6820861644553556e+18,2.825355712890625,-0.71318519115448,0.7101308703422546,-3.1337387561798096,,,,,,,,,,,,,,,,,,,,,,,,,,,,,,,
Gyroscope,1.68208616447223e+18,2.84222998046875,-0.5244278311729431,0.33536502718925476,-4.686100006103516,,,,,,,,,,,,,,,,,,,,,,,,,,,,,,,
Gyroscope,1.6820861644891016e+18,2.8591015625,-0.23396138846874237,-0.24953845143318176,-5.688835144042969,,,,,,,,,,,,,,,,,,,,,,,,,,,,,,,
Gyroscope,1.6820861645059725e+18,2.875972412109375,0.18249599635601044,-0.6067419052124023,-5.690820693969727,,,,,,,,,,,,,,,,,,,,,,,,,,,,,,,
Gyroscope,1.68208616452285e+18,2.89285009765625,0.32910364866256714,0.33368512988090515,-3.894876718521118,,,,,,,,,,,,,,,,,,,,,,,,,,,,,,,
Gyroscope,1.682086164539705e+18,2.909705078125,0.07070764899253845,0.6577491760253906,-0.8868235945701599,,,,,,,,,,,,,,,,,,,,,,,,,,,,,,,
Gyroscope,1.6820861645565875e+18,2.92658740234375,0.09315694868564606,0.42867469787597656,1.8150333166122437,,,,,,,,,,,,,,,,,,,,,,,,,,,,,,,
Gyroscope,1.682086164573464e+18,2.943464111328125,0.5988006591796875,0.28099802136421204,3.1618385314941406,,,,,,,,,,,,,,,,,,,,,,,,,,,,,,,
Gyroscope,1.682086164590337e+18,2.9603369140625,0.7846564054489136,0.008704829961061478,3.4045047760009766,,,,,,,,,,,,,,,,,,,,,,,,,,,,,,,
Gyroscope,1.6820861646072095e+18,2.97720947265625,0.6207917928695679,-0.4680754840373993,3.3768630027770996,,,,,,,,,,,,,,,,,,,,,,,,,,,,,,,
Gyroscope,1.6820861646240827e+18,2.994082763671875,0.4254676401615143,-0.8333728909492493,3.4605515003204346,,,,,,,,,,,,,,,,,,,,,,,,,,,,,,,
Gyroscope,1.6820861646409544e+18,3.010954345703125,0.21013765037059784,-0.7353290319442749,3.4623842239379883,,,,,,,,,,,,,,,,,,,,,,,,,,,,,,,
Gyroscope,1.6820861646578278e+18,3.027827880859375,-0.06963863968849182,-0.33108896017074585,3.099224805831909,,,,,,,,,,,,,,,,,,,,,,,,,,,,,,,
Gyroscope,1.6820861646746998e+18,3.04469970703125,-0.3289509415626526,0.1085812970995903,2.3550381660461426,,,,,,,,,,,,,,,,,,,,,,,,,,,,,,,
Gyroscope,1.6820861646915727e+18,3.06157275390625,-0.4495968222618103,0.4156937897205353,1.0503827333450317,,,,,,,,,,,,,,,,,,,,,,,,,,,,,,,
Gyroscope,1.682086164708445e+18,3.07844482421875,-0.49464812874794006,0.5115996599197388,-0.9789115786552429,,,,,,,,,,,,,,,,,,,,,,,,,,,,,,,
Gyroscope,1.6820861647253181e+18,3.095318115234375,-0.6505714654922485,0.7881689071655273,-3.4100024700164795,,,,,,,,,,,,,,,,,,,,,,,,,,,,,,,
Gyroscope,1.68208616474219e+18,3.112190185546875,-0.8593347072601318,1.1624765396118164,-5.530468463897705,,,,,,,,,,,,,,,,,,,,,,,,,,,,,,,
Gyroscope,1.682086164759059e+18,3.129058837890625,-0.7492262125015259,0.8017606139183044,-6.791752338409424,,,,,,,,,,,,,,,,,,,,,,,,,,,,,,,
Gyroscope,1.6820861647759355e+18,3.145935546875,-0.46899178624153137,-0.5448917746543884,-6.736316680908203,,,,,,,,,,,,,,,,,,,,,,,,,,,,,,,
Gyroscope,1.682086164792799e+18,3.162799072265625,-0.3127630054950714,0.11407908797264099,-4.429841995239258,,,,,,,,,,,,,,,,,,,,,,,,,,,,,,,
Gyroscope,1.682086164809678e+18,3.179677978515625,-0.1281289905309677,-0.26343563199043274,-0.06062837690114975,,,,,,,,,,,,,,,,,,,,,,,,,,,,,,,
Gyroscope,1.6820861648265564e+18,3.196556396484375,0.42867469787597656,-0.7805330753326416,3.61189341545105,,,,,,,,,,,,,,,,,,,,,,,,,,,,,,,
Gyroscope,1.682086164843424e+18,3.213424072265625,0.9454666972160339,-1.0427470207214355,5.404019355773926,,,,,,,,,,,,,,,,,,,,,,,,,,,,,,,
Gyroscope,1.6820861648603013e+18,3.23030126953125,0.761443555355072,-0.9783006906509399,5.820018768310547,,,,,,,,,,,,,,,,,,,,,,,,,,,,,,,
Gyroscope,1.6820861648771712e+18,3.247171142578125,0.42241331934928894,-1.078635334968567,5.440213203430176,,,,,,,,,,,,,,,,,,,,,,,,,,,,,,,
Gyroscope,1.6820861648940447e+18,3.264044677734375,0.2739730477333069,-1.098793864250183,4.786128997802734,,,,,,,,,,,,,,,,,,,,,,,,,,,,,,,
Gyroscope,1.6820861649109143e+18,3.280914306640625,0.11804971098899841,-0.7076873779296875,3.978107213973999,,,,,,,,,,,,,,,,,,,,,,,,,,,,,,,
Gyroscope,1.6820861649277926e+18,3.297792724609375,-0.14340060949325562,-0.08491026610136032,2.8690812587738037,,,,,,,,,,,,,,,,,,,,,,,,,,,,,,,
Gyroscope,1.6820861649446618e+18,3.314661865234375,-0.39797869324684143,0.5630650520324707,1.398576021194458,,,,,,,,,,,,,,,,,,,,,,,,,,,,,,,
Gyroscope,1.682086164961535e+18,3.331534912109375,-0.49693888425827026,1.103833556175232,-0.35155296325683594,,,,,,,,,,,,,,,,,,,,,,,,,,,,,,,
Gyroscope,1.682086164978408e+18,3.348407958984375,-0.5623014569282532,1.3016011714935303,-2.2855522632598877,,,,,,,,,,,,,,,,,,,,,,,,,,,,,,,
Gyroscope,1.6820861649952804e+18,3.3652802734375,-0.7799221873283386,1.5112806558609009,-4.441143035888672,,,,,,,,,,,,,,,,,,,,,,,,,,,,,,,
Gyroscope,1.6820861650121551e+18,3.382155029296875,-1.1498011350631714,1.4164438247680664,-6.629873275756836,,,,,,,,,,,,,,,,,,,,,,,,,,,,,,,
Gyroscope,1.6820861650290235e+18,3.3990234375,-1.2079859972000122,1.1232284307479858,-7.956672668457031,,,,,,,,,,,,,,,,,,,,,,,,,,,,,,,
Gyroscope,1.6820861650458875e+18,3.415887451171875,-1.1201741695404053,-0.5195409059524536,-7.998363971710205,,,,,,,,,,,,,,,,,,,,,,,,,,,,,,,
Gyroscope,1.682086165062768e+18,3.43276806640625,-0.8848382830619812,-1.1033753156661987,-5.450597763061523,,,,,,,,,,,,,,,,,,,,,,,,,,,,,,,
Gyroscope,1.6820861650796454e+18,3.4496455078125,-0.13118331134319305,-0.7434229850769043,0.4053090810775757,,,,,,,,,,,,,,,,,,,,,,,,,,,,,,,
Gyroscope,1.6820861650965138e+18,3.466513671875,0.47937649488449097,-0.988074541091919,4.810258388519287,,,,,,,,,,,,,,,,,,,,,,,,,,,,,,,
Gyroscope,1.682086165113378e+18,3.4833779296875,0.726471483707428,-1.5007431507110596,7.05640983581543,,,,,,,,,,,,,,,,,,,,,,,,,,,,,,,
Gyroscope,1.6820861651302584e+18,3.500258544921875,0.6892086863517761,-1.454164743423462,7.6448259353637695,,,,,,,,,,,,,,,,,,,,,,,,,,,,,,,
Gyroscope,1.682086165147137e+18,3.517136962890625,0.670577347278595,-1.3590224981307983,7.20759916305542,,,,,,,,,,,,,,,,,,,,,,,,,,,,,,,
Gyroscope,1.682086165164008e+18,3.534008056640625,0.4404338300228119,-0.5387831330299377,6.338184833526611,,,,,,,,,,,,,,,,,,,,,,,,,,,,,,,
Gyroscope,1.6820861651808776e+18,3.550877685546875,0.19914206862449646,0.4101960062980652,5.368283748626709,,,,,,,,,,,,,,,,,,,,,,,,,,,,,,,
Gyroscope,1.6820861651977536e+18,3.567753662109375,0.002138028386980295,1.2235630750656128,4.492302894592285,,,,,,,,,,,,,,,,,,,,,,,,,,,,,,,
Gyroscope,1.6820861652146227e+18,3.584622802734375,0.0006108652451075613,1.209971308708191,3.2597296237945557,,,,,,,,,,,,,,,,,,,,,,,,,,,,,,,
Gyroscope,1.6820861652314975e+18,3.60149755859375,-0.01237002108246088,0.6997461318969727,1.5978707075119019,,,,,,,,,,,,,,,,,,,,,,,,,,,,,,,
Gyroscope,1.6820861652483697e+18,3.61836962890625,-0.26862800121307373,0.5479460954666138,-0.4127921760082245,,,,,,,,,,,,,,,,,,,,,,,,,,,,,,,
Gyroscope,1.68208616526524e+18,3.635239990234375,-0.6172793507575989,1.4028520584106445,-2.585181713104248,,,,,,,,,,,,,,,,,,,,,,,,,,,,,,,
Gyroscope,1.682086165282117e+18,3.6521171875,-0.864068865776062,1.3703234195709229,-4.835762023925781,,,,,,,,,,,,,,,,,,,,,,,,,,,,,,,
Gyroscope,1.6820861652989878e+18,3.66898779296875,-0.9541715383529663,0.09208793938159943,-6.467535972595215,,,,,,,,,,,,,,,,,,,,,,,,,,,,,,,
Gyroscope,1.6820861653158602e+18,3.685860107421875,-1.3629931211471558,-1.1311696767807007,-7.0977959632873535,,,,,,,,,,,,,,,,,,,,,,,,,,,,,,,
Gyroscope,1.6820861653327334e+18,3.7027333984375,-2.1085541248321533,-2.8903088569641113,-6.369644641876221,,,,,,,,,,,,,,,,,,,,,,,,,,,,,,,
Gyroscope,1.6820861653496056e+18,3.719605712890625,-2.3217461109161377,-2.9095511436462402,-3.506671905517578,,,,,,,,,,,,,,,,,,,,,,,,,,,,,,,
Gyroscope,1.6820861653664748e+18,3.736474853515625,-1.8587101697921753,-0.8090910315513611,0.26633724570274353,,,,,,,,,,,,,,,,,,,,,,,,,,,,,,,
Gyroscope,1.6820861653833508e+18,3.753350830078125,-0.9230173826217651,0.6372851729393005,3.1890220642089844,,,,,,,,,,,,,,,,,,,,,,,,,,,,,,,
Gyroscope,1.6820861654002237e+18,3.7702236328125,0.3300199508666992,0.9590584635734558,4.898222923278809,,,,,,,,,,,,,,,,,,,,,,,,,,,,,,,
Gyroscope,1.6820861654170854e+18,3.78708544921875,1.4912748336791992,1.2713632583618164,5.765804290771484,,,,,,,,,,,,,,,,,,,,,,,,,,,,,,,
Gyroscope,1.6820861654339505e+18,3.803950439453125,1.9579758644104004,1.5207489728927612,6.102543830871582,,,,,,,,,,,,,,,,,,,,,,,,,,,,,,,
Gyroscope,1.6820861654508416e+18,3.820841552734375,1.8351919651031494,1.400255799293518,5.923713207244873,,,,,,,,,,,,,,,,,,,,,,,,,,,,,,,
Gyroscope,1.6820861654677043e+18,3.837704345703125,1.443169116973877,0.9173668622970581,5.387984275817871,,,,,,,,,,,,,,,,,,,,,,,,,,,,,,,
Gyroscope,1.6820861654845842e+18,3.854584228515625,0.5143485069274902,0.20830504596233368,4.332408905029297,,,,,,,,,,,,,,,,,,,,,,,,,,,,,,,
Gyroscope,1.6820861655014628e+18,3.871462890625,0.054367005825042725,1.186300277709961,3.0724995136260986,,,,,,,,,,,,,,,,,,,,,,,,,,,,,,,
Gyroscope,1.682086165518334e+18,3.888333984375,-0.19685132801532745,1.698510766029358,1.82877779006958,,,,,,,,,,,,,,,,,,,,,,,,,,,,,,,
Gyroscope,1.6820861655351982e+18,3.9051982421875,-0.385303258895874,2.004401683807373,0.45723262429237366,,,,,,,,,,,,,,,,,,,,,,,,,,,,,,,
Gyroscope,1.6820861655520773e+18,3.922077392578125,-0.5928447246551514,1.5917620658874512,-1.0852020978927612,,,,,,,,,,,,,,,,,,,,,,,,,,,,,,,
Gyroscope,1.6820861655689398e+18,3.938939697265625,-0.7261660695075989,0.7513642311096191,-2.6364943981170654,,,,,,,,,,,,,,,,,,,,,,,,,,,,,,,
Gyroscope,1.6820861655858227e+18,3.95582275390625,-0.8408560156822205,-0.23121249675750732,-4.172820568084717,,,,,,,,,,,,,,,,,,,,,,,,,,,,,,,
Gyroscope,1.6820861656026934e+18,3.972693359375,-0.8746063113212585,-0.969443142414093,-5.370421886444092,,,,,,,,,,,,,,,,,,,,,,,,,,,,,,,
Gyroscope,1.682086165619561e+18,3.98956103515625,-0.9828822016716003,-1.6783522367477417,-6.170197010040283,,,,,,,,,,,,,,,,,,,,,,,,,,,,,,,
Gyroscope,1.6820861656364524e+18,4.006452392578125,-0.9326385259628296,-1.5583171844482422,-6.546948432922363,,,,,,,,,,,,,,,,,,,,,,,,,,,,,,,
Gyroscope,1.6820861656533133e+18,4.023313232421875,-0.8808676600456238,-2.409252643585205,-6.409350872039795,,,,,,,,,,,,,,,,,,,,,,,,,,,,,,,
Gyroscope,1.6820861656701757e+18,4.04017578125,-0.33567044138908386,-1.8564194440841675,-4.657083988189697,,,,,,,,,,,,,,,,,,,,,,,,,,,,,,,
Gyroscope,1.6820861656870602e+18,4.057060302734375,-0.013744467869400978,-0.8086328506469727,-2.074345588684082,,,,,,,,,,,,,,,,,,,,,,,,,,,,,,,
Gyroscope,1.682086165703932e+18,4.073931884765625,-0.17623461782932281,0.2168571650981903,-0.013439035043120384,,,,,,,,,,,,,,,,,,,,,,,,,,,,,,,
Gyroscope,1.6820861657208038e+18,4.090803955078125,-0.24144448339939117,0.5192354321479797,1.1432342529296875,,,,,,,,,,,,,,,,,,,,,,,,,,,,,,,
Gyroscope,1.682086165737677e+18,4.107677001953125,0.0861319974064827,1.2347114086151123,1.3240504264831543,,,,,,,,,,,,,,,,,,,,,,,,,,,,,,,
Gyroscope,1.682086165754541e+18,4.124541015625,0.46899178624153137,2.5282185077667236,0.5381723046302795,,,,,,,,,,,,,,,,,,,,,,,,,,,,,,,
Gyroscope,1.6820861657714117e+18,4.14141162109375,0.4092797040939331,3.352428436279297,-0.3784310221672058,,,,,,,,,,,,,,,,,,,,,,,,,,,,,,,
Gyroscope,1.682086165788284e+18,4.158283935546875,0.16783522069454193,3.230102777481079,-0.6210972666740417,,,,,,,,,,,,,,,,,,,,,,,,,,,,,,,
Gyroscope,1.6820861658051653e+18,4.175165283203125,-0.13775011897087097,2.3289237022399902,-0.6073527932167053,,,,,,,,,,,,,,,,,,,,,,,,,,,,,,,
Gyroscope,1.6820861658220534e+18,4.192053466796875,-0.15622878074645996,1.722640037536621,-0.7961101531982422,,,,,,,,,,,,,,,,,,,,,,,,,,,,,,,
Gyroscope,1.6820861658389112e+18,4.2089111328125,-0.11850785464048386,1.5891659259796143,-1.0311405658721924,,,,,,,,,,,,,,,,,,,,,,,,,,,,,,,
Gyroscope,1.682086165855787e+18,4.225787109375,-0.2788599729537964,1.0283915996551514,-1.200502872467041,,,,,,,,,,,,,,,,,,,,,,,,,,,,,,,
Gyroscope,1.6820861658726556e+18,4.242655517578125,-0.24678955972194672,0.41630467772483826,-1.3585642576217651,,,,,,,,,,,,,,,,,,,,,,,,,,,,,,,
Gyroscope,1.68208616588952e+18,4.25952001953125,-0.3436116874217987,-0.29168814420700073,-1.5644259452819824,,,,,,,,,,,,,,,,,,,,,,,,,,,,,,,
Gyroscope,1.682086165906404e+18,4.276404052734375,-0.39125919342041016,-0.8454375267028809,-1.9683605432510376,,,,,,,,,,,,,,,,,,,,,,,,,,,,,,,
Gyroscope,1.6820861659232758e+18,4.29327587890625,-0.4213443100452423,-1.0192286968231201,-2.412306785583496,,,,,,,,,,,,,,,,,,,,,,,,,,,,,,,
Gyroscope,1.6820861659401492e+18,4.310149169921875,-0.42378777265548706,-1.1484266519546509,-2.637563467025757,,,,,,,,,,,,,,,,,,,,,,,,,,,,,,,
Gyroscope,1.6820861659570214e+18,4.327021484375,-0.42989641427993774,-1.0708467960357666,-2.6195428371429443,,,,,,,,,,,,,,,,,,,,,,,,,,,,,,,
Gyroscope,1.6820861659738944e+18,4.343894287109375,-0.4473060667514801,-0.7590000629425049,-2.559983491897583,,,,,,,,,,,,,,,,,,,,,,,,,,,,,,,
Gyroscope,1.6820861659907666e+18,4.3607666015625,-0.42668938636779785,-0.7199047207832336,-2.7226264476776123,,,,,,,,,,,,,,,,,,,,,,,,,,,,,,,
Gyroscope,1.6820861660076398e+18,4.377639892578125,-0.24694228172302246,-1.1649199724197388,-3.062267541885376,,,,,,,,,,,,,,,,,,,,,,,,,,,,,,,
Gyroscope,1.6820861660245117e+18,4.39451171875,-0.01114829070866108,-1.6641496419906616,-3.229491949081421,,,,,,,,,,,,,,,,,,,,,,,,,,,,,,,
Gyroscope,1.6820861660413852e+18,4.41138525390625,0.48747047781944275,-1.8151860237121582,-3.1476359367370605,,,,,,,,,,,,,,,,,,,,,,,,,,,,,,,
Gyroscope,1.682086166058257e+18,4.4282568359375,1.0769554376602173,-1.6982053518295288,-2.9990429878234863,,,,,,,,,,,,,,,,,,,,,,,,,,,,,,,
Gyroscope,1.6820861660751204e+18,4.445120361328125,1.5167783498764038,-1.3005321025848389,-2.4755313396453857,,,,,,,,,,,,,,,,,,,,,,,,,,,,,,,
Gyroscope,1.6820861660920026e+18,4.46200244140625,1.9521726369857788,-1.3886494636535645,-1.6108516454696655,,,,,,,,,,,,,,,,,,,,,,,,,,,,,,,
Gyroscope,1.6820861661088655e+18,4.478865478515625,2.3831379413604736,-1.483791708946228,-0.8344419002532959,,,,,,,,,,,,,,,,,,,,,,,,,,,,,,,
Gyroscope,1.6820861661257498e+18,4.495749755859375,3.00423526763916,-1.189354658126831,-0.32528573274612427,,,,,,,,,,,,,,,,,,,,,,,,,,,,,,,
Gyroscope,1.6820861661426168e+18,4.512616943359375,3.7305541038513184,-0.6333145499229431,-0.0006108652451075613,,,,,,,,,,,,,,,,,,,,,,,,,,,,,,,
Gyroscope,1.6820861661594962e+18,4.52949609375,4.254523754119873,-0.1241583600640297,0.3094032406806946,,,,,,,,,,,,,,,,,,,,,,,,,,,,,,,
Gyroscope,1.682086166176367e+18,4.5463671875,4.331950664520264,0.021991148591041565,0.38866302371025085,,,,,,,,,,,,,,,,,,,,,,,,,,,,,,,
Gyroscope,1.6820861661932296e+18,4.5632294921875,4.177402019500732,0.19883663952350616,0.05971207842230797,,,,,,,,,,,,,,,,,,,,,,,,,,,,,,,
Gyroscope,1.6820861662101138e+18,4.58011376953125,3.9576432704925537,0.2719877362251282,-0.456163614988327,,,,,,,,,,,,,,,,,,,,,,,,,,,,,,,
Gyroscope,1.6820861662269737e+18,4.5969736328125,3.840815305709839,0.304210901260376,-0.8596401214599609,,,,,,,,,,,,,,,,,,,,,,,,,,,,,,,
Gyroscope,1.6820861662438574e+18,4.613857421875,3.8261544704437256,0.3433062732219696,-0.902553379535675,,,,,,,,,,,,,,,,,,,,,,,,,,,,,,,
Gyroscope,1.68208616626073e+18,4.630730224609375,3.646101951599121,0.1872301995754242,-0.7081455588340759,,,,,,,,,,,,,,,,,,,,,,,,,,,,,,,
Gyroscope,1.6820861662776026e+18,4.6476025390625,3.17161226272583,-0.4332561790943146,-0.7999280095100403,,,,,,,,,,,,,,,,,,,,,,,,,,,,,,,
Gyroscope,1.6820861662944745e+18,4.664474609375,2.3687827587127686,-0.06398813426494598,-0.8839219808578491,,,,,,,,,,,,,,,,,,,,,,,,,,,,,,,
Gyroscope,1.6820861663113487e+18,4.6813486328125,1.5709927082061768,0.06582073122262955,-0.9100365042686462,,,,,,,,,,,,,,,,,,,,,,,,,,,,,,,
Gyroscope,1.6820861663282204e+18,4.698220458984375,0.9607383012771606,0.25763240456581116,-0.9017898440361023,,,,,,,,,,,,,,,,,,,,,,,,,,,,,,,
Gyroscope,1.682086166345093e+18,4.715093017578125,0.6731734871864319,0.3341432809829712,-0.907898485660553,,,,,,,,,,,,,,,,,,,,,,,,,,,,,,,
Gyroscope,1.6820861663619658e+18,4.7319658203125,0.4352414906024933,0.36621370911598206,-0.8058840036392212,,,,,,,,,,,,,,,,,,,,,,,,,,,,,,,
Gyroscope,1.6820861663788388e+18,4.7488388671875,-0.17776179313659668,0.08659014850854874,-0.36590829491615295,,,,,,,,,,,,,,,,,,,,,,,,,,,,,,,
Gyroscope,1.6820861663957002e+18,4.7657001953125,-1.2365440130233765,-0.43447789549827576,0.23976461589336395,,,,,,,,,,,,,,,,,,,,,,,,,,,,,,,
Gyroscope,1.6820861664125821e+18,4.78258203125,-2.0114264488220215,-0.7322747111320496,0.6780604124069214,,,,,,,,,,,,,,,,,,,,,,,,,,,,,,,
Gyroscope,1.6820861664294587e+18,4.799458740234375,-2.3164010047912598,-0.6296493411064148,0.9902125597000122,,,,,,,,,,,,,,,,,,,,,,,,,,,,,,,
Gyroscope,1.6820861664463268e+18,4.816326904296875,-2.6287059783935547,-0.5881105065345764,1.399950385093689,,,,,,,,,,,,,,,,,,,,,,,,,,,,,,,
Gyroscope,1.6820861664632044e+18,4.833204345703125,-3.0077476501464844,-0.5444336533546448,1.718363881111145,,,,,,,,,,,,,,,,,,,,,,,,,,,,,,,
Gyroscope,1.682086166480075e+18,4.850074951171875,-3.3924400806427,-0.36361753940582275,2.0358612537384033,,,,,,,,,,,,,,,,,,,,,,,,,,,,,,,
Gyroscope,1.6820861664969472e+18,4.866947265625,-3.6829066276550293,-0.47937649488449097,2.3015875816345215,,,,,,,,,,,,,,,,,,,,,,,,,,,,,,,
Gyroscope,1.682086166513824e+18,4.883823974609375,-4.315762996673584,-0.5154175758361816,2.5101981163024902,,,,,,,,,,,,,,,,,,,,,,,,,,,,,,,
Gyroscope,1.6820861665306883e+18,4.900688232421875,-4.898375511169434,0.1319468915462494,2.498591661453247,,,,,,,,,,,,,,,,,,,,,,,,,,,,,,,
Gyroscope,1.6820861665475643e+18,4.917564208984375,-4.961905479431152,0.1290452778339386,2.573575258255005,,,,,,,,,,,,,,,,,,,,,,,,,,,,,,,
Gyroscope,1.6820861665644406e+18,4.934440673828125,-5.044066905975342,0.3533855378627777,2.6119070053100586,,,,,,,,,,,,,,,,,,,,,,,,,,,,,,,
Gyroscope,1.682086166581311e+18,4.95131103515625,-5.039180278778076,0.3016147017478943,2.6363415718078613,,,,,,,,,,,,,,,,,,,,,,,,,,,,,,,
Gyroscope,1.6820861665981832e+18,4.96818310546875,-5.031085968017578,0.08429940044879913,2.6474900245666504,,,,,,,,,,,,,,,,,,,,,,,,,,,,,,,
Gyroscope,1.682086166615057e+18,4.985056884765625,-5.0294060707092285,-0.14844025671482086,2.638479709625244,,,,,,,,,,,,,,,,,,,,,,,,,,,,,,,
Gyroscope,1.6820861666319288e+18,5.0019287109375,-5.034140586853027,-0.39187005162239075,2.6051876544952393,,,,,,,,,,,,,,,,,,,,,,,,,,,,,,,
Gyroscope,1.682086166648802e+18,5.018802001953125,-6.5562639236450195,-2.124436616897583,-2.5613579750061035,,,,,,,,,,,,,,,,,,,,,,,,,,,,,,,
Gyroscope,1.6820861666656742e+18,5.03567431640625,-6.3050456047058105,-5.37744665145874,-4.894557952880859,,,,,,,,,,,,,,,,,,,,,,,,,,,,,,,
Gyroscope,1.6820861666825446e+18,5.052544677734375,-5.0208539962768555,0.7304421067237854,-4.1749587059021,,,,,,,,,,,,,,,,,,,,,,,,,,,,,,,
Gyroscope,1.682086166699422e+18,5.069421875,-2.19163179397583,5.039638042449951,-2.9886581897735596,,,,,,,,,,,,,,,,,,,,,,,,,,,,,,,
Gyroscope,1.6820861667162926e+18,5.086292724609375,-0.2145664244890213,2.975371837615967,-2.9433014392852783,,,,,,,,,,,,,,,,,,,,,,,,,,,,,,,
Gyroscope,1.682086166733165e+18,5.1031650390625,-0.29138273000717163,-0.7255551815032959,-2.563037872314453,,,,,,,,,,,,,,,,,,,,,,,,,,,,,,,
Gyroscope,1.682086166750019e+18,5.12001904296875,-0.5453499555587769,-3.001028299331665,-1.5048664808273315,,,,,,,,,,,,,,,,,,,,,,,,,,,,,,,
Gyroscope,1.6820861667668997e+18,5.136899658203125,-1.4129313230514526,-1.9955440759658813,-0.16722436249256134,,,,,,,,,,,,,,,,,,,,,,,,,,,,,,,
Gyroscope,1.6820861667837732e+18,5.153773193359375,-2.5331053733825684,0.4103487432003021,0.9842566251754761,,,,,,,,,,,,,,,,,,,,,,,,,,,,,,,
Gyroscope,1.6820861668006423e+18,5.170642333984375,-2.993239641189575,0.6294966340065002,1.8112154006958008,,,,,,,,,,,,,,,,,,,,,,,,,,,,,,,
Gyroscope,1.6820861668175314e+18,5.187531494140625,-2.900999069213867,-1.0848966836929321,2.3548855781555176,,,,,,,,,,,,,,,,,,,,,,,,,,,,,,,
Gyroscope,1.6820861668344028e+18,5.20440283203125,-2.6792550086975098,-2.200183868408203,2.669023036956787,,,,,,,,,,,,,,,,,,,,,,,,,,,,,,,
Gyroscope,1.6820861668512627e+18,5.2212626953125,-2.4746150970458984,-2.0502164363861084,2.7392725944519043,,,,,,,,,,,,,,,,,,,,,,,,,,,,,,,
Gyroscope,1.682086166868144e+18,5.23814404296875,-2.4225387573242188,-1.6125315427780151,2.431243658065796,,,,,,,,,,,,,,,,,,,,,,,,,,,,,,,
Gyroscope,1.6820861668850225e+18,5.2550224609375,-2.5257749557495117,-1.5132659673690796,1.7869335412979126,,,,,,,,,,,,,,,,,,,,,,,,,,,,,,,
Gyroscope,1.6820861669018918e+18,5.271891845703125,-2.607936382293701,-1.2927435636520386,0.841619610786438,,,,,,,,,,,,,,,,,,,,,,,,,,,,,,,
Gyroscope,1.6820861669187546e+18,5.288754638671875,-2.3910791873931885,-0.9190467596054077,-0.17837265133857727,,,,,,,,,,,,,,,,,,,,,,,,,,,,,,,
Gyroscope,1.6820861669356375e+18,5.305637451171875,-1.8159496784210205,-0.554818332195282,-1.0595457553863525,,,,,,,,,,,,,,,,,,,,,,,,,,,,,,,
Gyroscope,1.6820861669524972e+18,5.3224970703125,-1.3040446043014526,0.0933096632361412,-1.645365595817566,,,,,,,,,,,,,,,,,,,,,,,,,,,,,,,
Gyroscope,1.6820861669693855e+18,5.339385498046875,-0.9666942358016968,0.8100073337554932,-1.9420933723449707,,,,,,,,,,,,,,,,,,,,,,,,,,,,,,,
Gyroscope,1.6820861669862564e+18,5.35625634765625,-0.6261368989944458,1.4917329549789429,-2.0135645866394043,,,,,,,,,,,,,,,,,,,,,,,,,,,,,,,
Gyroscope,1.682086167003128e+18,5.373128173828125,-0.17119498550891876,1.769982099533081,-1.7328720092773438,,,,,,,,,,,,,,,,,,,,,,,,,,,,,,,
Gyroscope,1.6820861670200013e+18,5.390001220703125,0.19318613409996033,2.0065395832061768,-1.144608736038208,,,,,,,,,,,,,,,,,,,,,,,,,,,,,,,
Gyroscope,1.682086167036863e+18,5.406863037109375,0.5309945940971375,2.6623034477233887,-0.45066583156585693,,,,,,,,,,,,,,,,,,,,,,,,,,,,,,,
Gyroscope,1.6820861670537467e+18,5.42374658203125,1.2072224617004395,2.6917777061462402,0.30802878737449646,,,,,,,,,,,,,,,,,,,,,,,,,,,,,,,
Gyroscope,1.6820861670706127e+18,5.44061279296875,2.0593793392181396,2.244929790496826,1.1027644872665405,,,,,,,,,,,,,,,,,,,,,,,,,,,,,,,
Gyroscope,1.6820861670874924e+18,5.457492431640625,2.8735101222991943,1.7104226350784302,1.8541287183761597,,,,,,,,,,,,,,,,,,,,,,,,,,,,,,,
Gyroscope,1.6820861671043523e+18,5.474352294921875,3.456275463104248,1.2533427476882935,2.392606496810913,,,,,,,,,,,,,,,,,,,,,,,,,,,,,,,
Gyroscope,1.6820861671212378e+18,5.49123779296875,3.6410622596740723,0.0403171069920063,2.6422975063323975,,,,,,,,,,,,,,,,,,,,,,,,,,,,,,,
Gyroscope,1.6820861671380992e+18,5.50809912109375,3.550654172897339,-1.8226691484451294,2.5784621238708496,,,,,,,,,,,,,,,,,,,,,,,,,,,,,,,
Gyroscope,1.6820861671549814e+18,5.5249814453125,3.406337261199951,-3.475059747695923,2.4833199977874756,,,,,,,,,,,,,,,,,,,,,,,,,,,,,,,
Gyroscope,1.6820861671718566e+18,5.541856689453125,3.330742835998535,-3.858530282974243,2.6360361576080322,,,,,,,,,,,,,,,,,,,,,,,,,,,,,,,
Gyroscope,1.682086167188726e+18,5.55872607421875,3.347388744354248,-4.015217304229736,2.68872332572937,,,,,,,,,,,,,,,,,,,,,,,,,,,,,,,
Gyroscope,1.682086167205603e+18,5.57560302734375,4.757266044616699,-3.5582900047302246,0.40943244099617004,,,,,,,,,,,,,,,,,,,,,,,,,,,,,,,
Gyroscope,1.6820861672224707e+18,5.592470703125,6.90323543548584,1.1340713500976562,-3.409238815307617,,,,,,,,,,,,,,,,,,,,,,,,,,,,,,,
Gyroscope,1.6820861672393498e+18,5.609349853515625,7.144069194793701,-0.8732318878173828,-3.798818349838257,,,,,,,,,,,,,,,,,,,,,,,,,,,,,,,
Gyroscope,1.6820861672562194e+18,5.626219482421875,6.369644641876221,-1.4772248268127441,-4.25406551361084,,,,,,,,,,,,,,,,,,,,,,,,,,,,,,,
Gyroscope,1.6820861672730903e+18,5.64309033203125,4.6549458503723145,-1.8718438148498535,-4.528954982757568,,,,,,,,,,,,,,,,,,,,,,,,,,,,,,,
Gyroscope,1.6820861672899645e+18,5.659964599609375,2.546086311340332,-1.913382649421692,-4.285219669342041,,,,,,,,,,,,,,,,,,,,,,,,,,,,,,,
Gyroscope,1.6820861673068265e+18,5.676826416015625,0.460897833108902,-1.7904460430145264,-3.5743253231048584,,,,,,,,,,,,,,,,,,,,,,,,,,,,,,,
Gyroscope,1.6820861673237107e+18,5.693710693359375,-0.5572618246078491,-1.2518155574798584,-2.5471553802490234,,,,,,,,,,,,,,,,,,,,,,,,,,,,,,,
Gyroscope,1.6820861673405827e+18,5.710582763671875,-0.46563202142715454,-0.403781920671463,-1.221577763557434,,,,,,,,,,,,,,,,,,,,,,,,,,,,,,,
Gyroscope,1.6820861673574556e+18,5.72745556640625,0.37629300355911255,-0.14584407210350037,0.3604104816913605,,,,,,,,,,,,,,,,,,,,,,,,,,,,,,,
Gyroscope,1.6820861673743278e+18,5.744327880859375,1.4579826593399048,0.31230485439300537,1.4561500549316406,,,,,,,,,,,,,,,,,,,,,,,,,,,,,,,
Gyroscope,1.682086167391201e+18,5.761200927734375,2.224465847015381,0.30543261766433716,2.140624523162842,,,,,,,,,,,,,,,,,,,,,,,,,,,,,,,
Gyroscope,1.6820861674080732e+18,5.7780732421875,2.9100093841552734,1.1087204217910767,2.592817544937134,,,,,,,,,,,,,,,,,,,,,,,,,,,,,,,
Gyroscope,1.6820861674249577e+18,5.794957763671875,3.3794591426849365,1.5818355083465576,2.5841126441955566,,,,,,,,,,,,,,,,,,,,,,,,,,,,,,,
Gyroscope,1.6820861674418194e+18,5.8118193359375,3.4571919441223145,1.57313072681427,2.076789140701294,,,,,,,,,,,,,,,,,,,,,,,,,,,,,,,
Gyroscope,1.682086167458692e+18,5.828692138671875,3.0981557369232178,1.7150042057037354,1.379333734512329,,,,,,,,,,,,,,,,,,,,,,,,,,,,,,,
Gyroscope,1.682086167475562e+18,5.84556201171875,2.5500569343566895,1.9144517183303833,0.7461718916893005,,,,,,,,,,,,,,,,,,,,,,,,,,,,,,,
Gyroscope,1.6820861674924375e+18,5.8624375,2.2256875038146973,1.7266106605529785,0.2721404731273651,,,,,,,,,,,,,,,,,,,,,,,,,,,,,,,
Gyroscope,1.6820861675093135e+18,5.8793134765625,2.166128158569336,1.0427470207214355,-0.060933809727430344,,,,,,,,,,,,,,,,,,,,,,,,,,,,,,,
Gyroscope,1.6820861675261788e+18,5.8961787109375,2.113593816757202,0.35552358627319336,-0.294895201921463,,,,,,,,,,,,,,,,,,,,,,,,,,,,,,,
Gyroscope,1.6820861675430548e+18,5.913054931640625,1.9141463041305542,0.2177734673023224,-0.4714352488517761,,,,,,,,,,,,,,,,,,,,,,,,,,,,,,,
Gyroscope,1.682086167559931e+18,5.929930908203125,1.4370604753494263,0.33399057388305664,-0.5378668308258057,,,,,,,,,,,,,,,,,,,,,,,,,,,,,,,
Gyroscope,1.6820861675767908e+18,5.946790771484375,0.8158105611801147,0.3101668357849121,-0.46105054020881653,,,,,,,,,,,,,,,,,,,,,,,,,,,,,,,
Gyroscope,1.682086167593673e+18,5.9636728515625,0.13408492505550385,-0.03420845419168472,-0.260992169380188,,,,,,,,,,,,,,,,,,,,,,,,,,,,,,,
Gyroscope,1.6820861676105462e+18,5.980546142578125,-0.7930558323860168,-0.603076696395874,0.00733038317412138,,,,,,,,,,,,,,,,,,,,,,,,,,,,,,,
Gyroscope,1.6820861676274194e+18,5.99741943359375,-1.8907806873321533,-1.095739483833313,0.25335636734962463,,,,,,,,,,,,,,,,,,,,,,,,,,,,,,,
Gyroscope,1.6820861676442913e+18,6.014291259765625,-2.8066203594207764,-1.331380844116211,0.4812090992927551,,,,,,,,,,,,,,,,,,,,,,,,,,,,,,,
Gyroscope,1.6820861676611648e+18,6.031164794921875,-3.3073770999908447,-0.9167560338973999,0.8810204267501831,,,,,,,,,,,,,,,,,,,,,,,,,,,,,,,
Gyroscope,1.682086167678037e+18,6.048037109375,-3.439018726348877,0.6282749176025391,1.758681058883667,,,,,,,,,,,,,,,,,,,,,,,,,,,,,,,
Gyroscope,1.6820861676949076e+18,6.06490771484375,-3.4521522521972656,2.858543872833252,2.750115394592285,,,,,,,,,,,,,,,,,,,,,,,,,,,,,,,
Gyroscope,1.6820861677117752e+18,6.081775146484375,-3.425884962081909,4.686710834503174,3.558748245239258,,,,,,,,,,,,,,,,,,,,,,,,,,,,,,,
Gyroscope,1.6820861677286556e+18,6.098655517578125,-3.34204363822937,5.229311943054199,4.057061672210693,,,,,,,,,,,,,,,,,,,,,,,,,,,,,,,
Gyroscope,1.6820861677455278e+18,6.11552783203125,-3.2120821475982666,4.747950077056885,4.329202175140381,,,,,,,,,,,,,,,,,,,,,,,,,,,,,,,
Gyroscope,1.6820861677623964e+18,6.132396484375,-3.003929853439331,4.4848198890686035,4.560567378997803,,,,,,,,,,,,,,,,,,,,,,,,,,,,,,,
Gyroscope,1.682086167779267e+18,6.14926708984375,-5.856365203857422,-5.895460605621338,-1.6760615110397339,,,,,,,,,,,,,,,,,,,,,,,,,,,,,,,
Gyroscope,1.6820861677961467e+18,6.166146728515625,-6.503118515014648,-4.061032295227051,-4.109290599822998,,,,,,,,,,,,,,,,,,,,,,,,,,,,,,,
Gyroscope,1.682086167813019e+18,6.183018798828125,-5.216636657714844,1.1143709421157837,-4.676020622253418,,,,,,,,,,,,,,,,,,,,,,,,,,,,,,,
Gyroscope,1.6820861678298895e+18,6.1998896484375,-3.0688343048095703,1.5723671913146973,-4.4093780517578125,,,,,,,,,,,,,,,,,,,,,,,,,,,,,,,
Gyroscope,1.6820861678467564e+18,6.21675634765625,-1.0390818119049072,1.3935363292694092,-3.7151296138763428,,,,,,,,,,,,,,,,,,,,,,,,,,,,,,,
Gyroscope,1.6820861678636344e+18,6.233634521484375,-0.05971207842230797,1.2947288751602173,-2.8481593132019043,,,,,,,,,,,,,,,,,,,,,,,,,,,,,,,
Gyroscope,1.6820861678805123e+18,6.25051220703125,-0.32162055373191833,0.8875871896743774,-1.8087719678878784,,,,,,,,,,,,,,,,,,,,,,,,,,,,,,,
Gyroscope,1.682086167897383e+18,6.2673828125,-1.4775303602218628,1.0112874507904053,-0.34147366881370544,,,,,,,,,,,,,,,,,,,,,,,,,,,,,,,
Gyroscope,1.682086167914255e+18,6.284255126953125,-2.8849637508392334,0.5041165351867676,0.8713992834091187,,,,,,,,,,,,,,,,,,,,,,,,,,,,,,,
Gyroscope,1.6820861679311286e+18,6.301128662109375,-3.698636293411255,-0.646295428276062,1.4036155939102173,,,,,,,,,,,,,,,,,,,,,,,,,,,,,,,
Gyroscope,1.6820861679480008e+18,6.318000732421875,-3.8982365131378174,-1.0963504314422607,1.7614299058914185,,,,,,,,,,,,,,,,,,,,,,,,,,,,,,,
Gyroscope,1.6820861679648737e+18,6.334873779296875,-3.969860553741455,-1.503339409828186,1.8635971546173096,,,,,,,,,,,,,,,,,,,,,,,,,,,,,,,
Gyroscope,1.682086167981746e+18,6.351745849609375,-3.900527238845825,-1.5992451906204224,1.5651894807815552,,,,,,,,,,,,,,,,,,,,,,,,,,,,,,,
Gyroscope,1.6820861679986086e+18,6.368608642578125,-3.5529448986053467,-1.3878858089447021,1.074512004852295,,,,,,,,,,,,,,,,,,,,,,,,,,,,,,,
Gyroscope,1.6820861680154918e+18,6.385491943359375,-3.064710855484009,-0.8866708874702454,0.5511531829833984,,,,,,,,,,,,,,,,,,,,,,,,,,,,,,,
Gyroscope,1.6820861680323543e+18,6.402354248046875,-2.607936382293701,-0.5083925724029541,0.10461067408323288,,,,,,,,,,,,,,,,,,,,,,,,,,,,,,,
Gyroscope,1.6820861680492372e+18,6.4192373046875,-2.176970958709717,-0.21960605680942535,-0.16859880089759827,,,,,,,,,,,,,,,,,,,,,,,,,,,,,,,
Gyroscope,1.682086168066092e+18,6.436092041015625,-1.614822268486023,0.37598755955696106,-0.28619036078453064,,,,,,,,,,,,,,,,,,,,,,,,,,,,,,,
Gyroscope,1.6820861680829824e+18,6.452982421875,-0.7776314616203308,0.9692904353141785,-0.35094207525253296,,,,,,,,,,,,,,,,,,,,,,,,,,,,,,,
Gyroscope,1.6820861680998374e+18,6.46983740234375,0.24419337511062622,1.0308351516723633,-0.27122417092323303,,,,,,,,,,,,,,,,,,,,,,,,,,,,,,,
Gyroscope,1.6820861681167173e+18,6.48671728515625,1.1349875926971436,1.0952813625335693,0.012217304669320583,,,,,,,,,,,,,,,,,,,,,,,,,,,,,,,
Gyroscope,1.6820861681336008e+18,6.503600830078125,1.7986927032470703,1.3483322858810425,0.4156937897205353,,,,,,,,,,,,,,,,,,,,,,,,,,,,,,,
Gyroscope,1.6820861681504768e+18,6.520476806640625,2.425440549850464,1.5012013912200928,0.770301103591919,,,,,,,,,,,,,,,,,,,,,,,,,,,,,,,
Gyroscope,1.6820861681673439e+18,6.53734375,3.1364874839782715,1.5289957523345947,0.9871582388877869,,,,,,,,,,,,,,,,,,,,,,,,,,,,,,,
Gyroscope,1.6820861681842163e+18,6.55421630859375,3.759722948074341,0.7951938509941101,1.0919215679168701,,,,,,,,,,,,,,,,,,,,,,,,,,,,,,,
Gyroscope,1.6820861682010947e+18,6.5710947265625,4.02651834487915,-1.1081095933914185,1.3034337759017944,,,,,,,,,,,,,,,,,,,,,,,,,,,,,,,
Gyroscope,1.6820861682179643e+18,6.58796435546875,3.969555139541626,-3.1448869705200195,1.6823228597640991,,,,,,,,,,,,,,,,,,,,,,,,,,,,,,,
Gyroscope,1.6820861682348273e+18,6.6048271484375,3.8513526916503906,-4.974733829498291,2.104888916015625,,,,,,,,,,,,,,,,,,,,,,,,,,,,,,,
Gyroscope,1.6820861682517102e+18,6.621710205078125,3.478266716003418,-6.032905101776123,2.55754017829895,,,,,,,,,,,,,,,,,,,,,,,,,,,,,,,
Gyroscope,1.6820861682685832e+18,6.638583251953125,3.268739938735962,-5.952118396759033,2.901151657104492,,,,,,,,,,,,,,,,,,,,,,,,,,,,,,,
Gyroscope,1.6820861682854554e+18,6.655455322265625,3.258049726486206,-4.798651695251465,2.870455741882324,,,,,,,,,,,,,,,,,,,,,,,,,,,,,,,
Gyroscope,1.6820861683023288e+18,6.672328857421875,4.85668420791626,5.814062595367432,-0.8720101118087769,,,,,,,,,,,,,,,,,,,,,,,,,,,,,,,
Gyroscope,1.682086168319201e+18,6.689200927734375,4.907996654510498,4.748866558074951,-0.8718574047088623,,,,,,,,,,,,,,,,,,,,,,,,,,,,,,,
Gyroscope,1.682086168336074e+18,6.706073974609375,3.730095863342285,5.136155128479004,-1.0016663074493408,,,,,,,,,,,,,,,,,,,,,,,,,,,,,,,
Gyroscope,1.6820861683529382e+18,6.722938232421875,2.5117251873016357,5.712048053741455,-1.1044443845748901,,,,,,,,,,,,,,,,,,,,,,,,,,,,,,,
Gyroscope,1.68208616836982e+18,6.73981982421875,2.1539108753204346,5.156160831451416,-0.9512699246406555,,,,,,,,,,,,,,,,,,,,,,,,,,,,,,,
Gyroscope,1.6820861683866985e+18,6.756698486328125,2.4223861694335938,-0.3637702465057373,-2.031890630722046,,,,,,,,,,,,,,,,,,,,,,,,,,,,,,,
Gyroscope,1.6820861684035653e+18,6.7735654296875,1.7046194076538086,-3.992462635040283,-3.081204414367676,,,,,,,,,,,,,,,,,,,,,,,,,,,,,,,
Gyroscope,1.6820861684204252e+18,6.79042529296875,0.3747658133506775,-3.8647916316986084,-3.573561668395996,,,,,,,,,,,,,,,,,,,,,,,,,,,,,,,
Gyroscope,1.6820861684373123e+18,6.807312255859375,-0.6850853562355042,-2.9376509189605713,-3.4461963176727295,,,,,,,,,,,,,,,,,,,,,,,,,,,,,,,
Gyroscope,1.682086168454181e+18,6.82418115234375,-1.0001391172409058,-1.962251901626587,-2.780505895614624,,,,,,,,,,,,,,,,,,,,,,,,,,,,,,,
Gyroscope,1.6820861684710564e+18,6.841056396484375,0.09728029370307922,-1.108567714691162,-1.5673274993896484,,,,,,,,,,,,,,,,,,,,,,,,,,,,,,,
Gyroscope,1.6820861684879194e+18,6.85791943359375,1.3889548778533936,0.42577308416366577,-0.41004329919815063,,,,,,,,,,,,,,,,,,,,,,,,,,,,,,,
Gyroscope,1.6820861685047982e+18,6.874798095703125,2.0636556148529053,1.6537649631500244,0.2028072625398636,,,,,,,,,,,,,,,,,,,,,,,,,,,,,,,
Gyroscope,1.6820861685216778e+18,6.891677734375,2.6235134601593018,1.5821410417556763,0.4712825417518616,,,,,,,,,,,,,,,,,,,,,,,,,,,,,,,
Gyroscope,1.6820861685385472e+18,6.908547119140625,3.240640163421631,1.4188872575759888,0.3966042697429657,,,,,,,,,,,,,,,,,,,,,,,,,,,,,,,
Gyroscope,1.6820861685554194e+18,6.92541943359375,3.486818790435791,1.2747230529785156,0.09743300825357437,,,,,,,,,,,,,,,,,,,,,,,,,,,,,,,
Gyroscope,1.6820861685722926e+18,6.942292724609375,3.2768337726593018,1.1391109228134155,-0.2684752643108368,,,,,,,,,,,,,,,,,,,,,,,,,,,,,,,
Gyroscope,1.682086168589154e+18,6.959154052734375,2.8522825241088867,0.856433093547821,-0.6359107494354248,,,,,,,,,,,,,,,,,,,,,,,,,,,,,,,
Gyroscope,1.6820861686060385e+18,6.97603857421875,2.4020748138427734,0.5163338780403137,-0.9395107626914978,,,,,,,,,,,,,,,,,,,,,,,,,,,,,,,
Gyroscope,1.6820861686229107e+18,6.99291064453125,2.018451452255249,0.22632557153701782,-1.09024178981781,,,,,,,,,,,,,,,,,,,,,,,,,,,,,,,
Gyroscope,1.682086168639781e+18,7.009781005859375,1.7388279438018799,0.11499538272619247,-1.0186177492141724,,,,,,,,,,,,,,,,,,,,,,,,,,,,,,,
Gyroscope,1.6820861686566497e+18,7.026649658203125,1.4926491975784302,-0.02015855349600315,-0.7043276429176331,,,,,,,,,,,,,,,,,,,,,,,,,,,,,,,
Gyroscope,1.682086168673529e+18,7.043529052734375,1.2014192342758179,-0.2993239760398865,-0.22586742043495178,,,,,,,,,,,,,,,,,,,,,,,,,,,,,,,
Gyroscope,1.6820861686904013e+18,7.0604013671875,0.8307767510414124,-0.6725626587867737,0.2588541507720947,,,,,,,,,,,,,,,,,,,,,,,,,,,,,,,
Gyroscope,1.6820861687072753e+18,7.077275146484375,0.3003929853439331,-0.7961101531982422,0.6988298296928406,,,,,,,,,,,,,,,,,,,,,,,,,,,,,,,
Gyroscope,1.6820861687241462e+18,7.094146240234375,-0.3497203588485718,-0.8161159753799438,1.0954340696334839,,,,,,,,,,,,,,,,,,,,,,,,,,,,,,,
Gyroscope,1.6820861687410289e+18,7.11102880859375,-1.074512004852295,-1.1021536588668823,1.3768903017044067,,,,,,,,,,,,,,,,,,,,,,,,,,,,,,,
Gyroscope,1.6820861687578929e+18,7.127892822265625,-1.7951802015304565,-1.282511591911316,1.5511395931243896,,,,,,,,,,,,,,,,,,,,,,,,,,,,,,,
Gyroscope,1.6820861687747656e+18,7.144765625,-2.464535713195801,-1.1592695713043213,1.6658295392990112,,,,,,,,,,,,,,,,,,,,,,,,,,,,,,,
Gyroscope,1.6820861687916372e+18,7.16163720703125,-2.9300150871276855,-1.0589349269866943,1.7160731554031372,,,,,,,,,,,,,,,,,,,,,,,,,,,,,,,
Gyroscope,1.682086168808521e+18,7.17852099609375,-3.040276288986206,0.16523905098438263,1.8736764192581177,,,,,,,,,,,,,,,,,,,,,,,,,,,,,,,
Gyroscope,1.6820861688253814e+18,7.19538134765625,-3.1803171634674072,1.6630805730819702,2.2069034576416016,,,,,,,,,,,,,,,,,,,,,,,,,,,,,,,
Gyroscope,1.6820861688422566e+18,7.212256591796875,-3.2919528484344482,3.32784104347229,2.5499043464660645,,,,,,,,,,,,,,,,,,,,,,,,,,,,,,,
Gyroscope,1.6820861688591293e+18,7.22912939453125,-3.0729575157165527,5.347972393035889,2.8403706550598145,,,,,,,,,,,,,,,,,,,,,,,,,,,,,,,
Gyroscope,1.682086168876006e+18,7.246005859375,-2.782796621322632,5.867666244506836,3.106707811355591,,,,,,,,,,,,,,,,,,,,,,,,,,,,,,,
Gyroscope,1.682086168892874e+18,7.2628740234375,-2.582127332687378,5.753892421722412,3.3599116802215576,,,,,,,,,,,,,,,,,,,,,,,,,,,,,,,
Gyroscope,1.6820861689097477e+18,7.279747802734375,-3.76308274269104,1.062447428703308,1.710117220878601,,,,,,,,,,,,,,,,,,,,,,,,,,,,,,,
Gyroscope,1.682086168926603e+18,7.29660302734375,-4.155869007110596,0.256868839263916,-1.396132469177246,,,,,,,,,,,,,,,,,,,,,,,,,,,,,,,
Gyroscope,1.6820861689434936e+18,7.31349365234375,-2.850297212600708,1.5552629232406616,-2.6140451431274414,,,,,,,,,,,,,,,,,,,,,,,,,,,,,,,
Gyroscope,1.6820861689603658e+18,7.33036572265625,-1.9425514936447144,-0.0754418596625328,-3.11785626411438,,,,,,,,,,,,,,,,,,,,,,,,,,,,,,,
Gyroscope,1.6820861689772388e+18,7.34723876953125,-1.038318157196045,-2.269211769104004,-3.551265001296997,,,,,,,,,,,,,,,,,,,,,,,,,,,,,,,
