sensor,time,seconds_elapsed,z,y,x,relativeAltitude,pressure,batteryLevel,batteryState,lowPowerMode,brightness,lux,bearingAccuracy,speedAccuracy,verticalAccuracy,horizontalAccuracy,speed,bearing,altitude,longitude,latitude,version,device name,recording time,platform,appVersion,device id,sensors,sampleRateMs,qz,qy,qx,qw,roll,pitch,yaw
Orientation,1.6820861618316736e+18,0.201673583984375,,,,,,,,,,,,,,,,,,,,,,,,,,,,-0.8909574747085571,-0.4357583224773407,0.05958431959152222,0.11295627057552338,0.012608303688466549,-0.9107195138931274,2.8955507278442383
Orientation,1.6820861618485356e+18,0.21853564453125,,,,,,,,,,,,,,,,,,,,,,,,,,,,-0.8902440071105957,-0.4377354085445404,0.05974103510379791,0.11083505302667618,0.015311749652028084,-0.9151030778884888,2.9014077186584473
Orientation,1.682086161865421e+18,0.235421142578125,,,,,,,,,,,,,,,,,,,,,,,,,,,,-0.8898302316665649,-0.43851983547210693,0.0628846287727356,0.10930681973695755,0.026408813893795013,-0.9176304936408997,2.9101829528808594
Orientation,1.682086161882298e+18,0.252298095703125,,,,,,,,,,,,,,,,,,,,,,,,,,,,-0.8890252709388733,-0.438968300819397,0.07022435963153839,0.10958787798881531,0.04734155908226967,-0.9204914569854736,2.9197683334350586
Orientation,1.6820861618991626e+18,0.26916259765625,,,,,,,,,,,,,,,,,,,,,,,,,,,,-0.8883745670318604,-0.4385090470314026,0.07906261086463928,0.11067809164524078,0.07187210023403168,-0.9216854572296143,2.929396152496338
Orientation,1.6820861619160353e+18,0.286035400390625,,,,,,,,,,,,,,,,,,,,,,,,,,,,-0.8888030648231506,-0.43584898114204407,0.0866146832704544,0.11208352446556091,0.09272107481956482,-0.9176635146141052,2.936533212661743
Orientation,1.6820861619329085e+18,0.302908447265625,,,,,,,,,,,,,,,,,,,,,,,,,,,,-0.8917824625968933,-0.4286351799964905,0.08976789563894272,0.11374422907829285,0.10120167583227158,-0.90256667137146,2.9369468688964844
Orientation,1.6820861619497805e+18,0.319780517578125,,,,,,,,,,,,,,,,,,,,,,,,,,,,-0.8983597159385681,-0.41449448466300964,0.08757100254297256,0.11608383804559708,0.09503797441720963,-0.8711367249488831,2.9288363456726074
Orientation,1.6820861619666476e+18,0.3366474609375,,,,,,,,,,,,,,,,,,,,,,,,,,,,-0.9086776375770569,-0.3909621238708496,0.08359436690807343,0.12027322500944138,0.08486740291118622,-0.819237470626831,2.915266513824463
Orientation,1.6820861619835256e+18,0.353525634765625,,,,,,,,,,,,,,,,,,,,,,,,,,,,-0.9212373495101929,-0.36232250928878784,0.07000339776277542,0.12305950373411179,0.054649535566568375,-0.7543281316757202,2.897656202316284
Orientation,1.6820861620003976e+18,0.3703974609375,,,,,,,,,,,,,,,,,,,,,,,,,,,,-0.9300312399864197,-0.3385343849658966,0.06285540014505386,0.1283961534500122,0.03928040713071823,-0.7021176218986511,2.8816027641296387
Orientation,1.6820861620172708e+18,0.387270751953125,,,,,,,,,,,,,,,,,,,,,,,,,,,,-0.9328641295433044,-0.32776257395744324,0.06442335993051529,0.1348554939031601,0.040906067937612534,-0.6801267862319946,2.8689351081848145
Orientation,1.682086162034141e+18,0.404140869140625,,,,,,,,,,,,,,,,,,,,,,,,,,,,-0.930804431438446,-0.3328275680541992,0.06235456466674805,0.13762594759464264,0.03173861280083656,-0.6902862787246704,2.859417676925659
Orientation,1.682086162051018e+18,0.42101806640625,,,,,,,,,,,,,,,,,,,,,,,,,,,,-0.9253426790237427,-0.3500584363937378,0.0559941790997982,0.13440515100955963,0.012726658023893833,-0.7246853113174438,2.857936382293701
Orientation,1.6820861620678884e+18,0.437888427734375,,,,,,,,,,,,,,,,,,,,,,,,,,,,-0.9172796010971069,-0.37348946928977966,0.05073924735188484,0.12856630980968475,-0.00412390660494566,-0.7729293704032898,2.861407995223999
Orientation,1.6820861620847608e+18,0.4547607421875,,,,,,,,,,,,,,,,,,,,,,,,,,,,-0.907930314540863,-0.3981257677078247,0.04702563211321831,0.12225785851478577,-0.01761763170361519,-0.8248403668403625,2.8661837577819824
Orientation,1.6820861621016333e+18,0.47163330078125,,,,,,,,,,,,,,,,,,,,,,,,,,,,-0.8981415033340454,-0.4211618900299072,0.04783365875482559,0.11694692075252533,-0.019640043377876282,-0.875265896320343,2.8734402656555176
Orientation,1.6820861621185052e+18,0.488505126953125,,,,,,,,,,,,,,,,,,,,,,,,,,,,-0.8881609439849854,-0.44212251901626587,0.05311363935470581,0.11347642540931702,-0.009933237917721272,-0.9229846000671387,2.8824985027313232
Orientation,1.6820861621353743e+18,0.505374267578125,,,,,,,,,,,,,,,,,,,,,,,,,,,,-0.8784733414649963,-0.46044039726257324,0.0605144277215004,0.11232727766036987,0.005065481644123793,-0.9659053087234497,2.8898961544036865
Orientation,1.6820861621522376e+18,0.522237548828125,,,,,,,,,,,,,,,,,,,,,,,,,,,,-0.8701980113983154,-0.476669579744339,0.05937715992331505,0.1096174493432045,-0.0021592944394797087,-1.002114176750183,2.8897933959960938
Orientation,1.6820861621691264e+18,0.53912646484375,,,,,,,,,,,,,,,,,,,,,,,,,,,,-0.8658652305603027,-0.4889162480831146,0.04076646268367767,0.09785983711481094,-0.04835044592618942,-1.0248762369155884,2.8893046379089355
Orientation,1.6820861621859958e+18,0.555995849609375,,,,,,,,,,,,,,,,,,,,,,,,,,,,-0.8650075793266296,-0.4946604371070862,0.01696952059864998,0.08237060159444809,-0.10185939073562622,-1.0324654579162598,2.8938682079315186
Orientation,1.6820861622028682e+18,0.5728681640625,,,,,,,,,,,,,,,,,,,,,,,,,,,,-0.8659699559211731,-0.49548158049583435,-0.0046894606202840805,0.06761772930622101,-0.1465558260679245,-1.0304102897644043,2.9026596546173096
Orientation,1.682086162219741e+18,0.589740966796875,,,,,,,,,,,,,,,,,,,,,,,,,,,,-0.867357075214386,-0.49413877725601196,-0.022992104291915894,0.0546809621155262,-0.181917205452919,-1.024924635887146,2.9131338596343994
Orientation,1.6820861622366134e+18,0.60661328125,,,,,,,,,,,,,,,,,,,,,,,,,,,,-0.8687145709991455,-0.4919143319129944,-0.03433452546596527,0.046652406454086304,-0.20265962183475494,-1.018768310546875,2.9208273887634277
Orientation,1.6820861622534856e+18,0.623485595703125,,,,,,,,,,,,,,,,,,,,,,,,,,,,-0.8715852499008179,-0.4867953360080719,-0.03612803667783737,0.04543449729681015,-0.20202378928661346,-1.0070971250534058,2.9258668422698975
Orientation,1.6820861622703493e+18,0.640349365234375,,,,,,,,,,,,,,,,,,,,,,,,,,,,-0.877510666847229,-0.47582438588142395,-0.03553816303610802,0.047992974519729614,-0.19582635164260864,-0.9821098446846008,2.927360773086548
Orientation,1.682086162287231e+18,0.65723095703125,,,,,,,,,,,,,,,,,,,,,,,,,,,,-0.8865829706192017,-0.4574234187602997,-0.04992842301726341,0.04734733700752258,-0.2248198688030243,-0.9379708170890808,2.9206137657165527
Orientation,1.682086162304104e+18,0.67410400390625,,,,,,,,,,,,,,,,,,,,,,,,,,,,-0.8958773016929626,-0.43706247210502625,-0.056588854640722275,0.05637477710843086,-0.2415667176246643,-0.8894545435905457,2.9003472328186035
Orientation,1.6820861623209748e+18,0.690974853515625,,,,,,,,,,,,,,,,,,,,,,,,,,,,-0.903095006942749,-0.42081642150878906,-0.044407207518815994,0.07321923971176147,-0.21746739745140076,-0.8534783720970154,2.8806066513061523
Orientation,1.6820861623378496e+18,0.707849609375,,,,,,,,,,,,,,,,,,,,,,,,,,,,-0.9071153998374939,-0.4109840393066406,-0.018034731969237328,0.08893001079559326,-0.15861311554908752,-0.8366638422012329,2.8755111694335938
Orientation,1.6820861623547187e+18,0.72471875,,,,,,,,,,,,,,,,,,,,,,,,,,,,-0.9076451659202576,-0.410266250371933,-0.005898975767195225,0.08847089856863022,-0.12493374198675156,-0.8386009335517883,2.8915152549743652
Orientation,1.6820861623715924e+18,0.741592529296875,,,,,,,,,,,,,,,,,,,,,,,,,,,,-0.9049550890922546,-0.4172382950782776,0.0002344924141652882,0.08347681164741516,-0.10582055896520615,-0.8559637665748596,2.909316062927246
Orientation,1.6820861623884695e+18,0.758469482421875,,,,,,,,,,,,,,,,,,,,,,,,,,,,-0.9001488089561462,-0.4279482066631317,0.006531360559165478,0.08093179762363434,-0.09051528573036194,-0.8811818361282349,2.919555425643921
Orientation,1.6820861624053386e+18,0.775338623046875,,,,,,,,,,,,,,,,,,,,,,,,,,,,-0.8943095207214355,-0.43991222977638245,0.012585747987031937,0.08080407977104187,-0.07913460582494736,-0.9089670181274414,2.922694444656372
Orientation,1.682086162422209e+18,0.792208984375,,,,,,,,,,,,,,,,,,,,,,,,,,,,-0.8876239657402039,-0.4527326226234436,0.019016006961464882,0.08243429660797119,-0.06925994902849197,-0.9387966990470886,2.9212427139282227
Orientation,1.6820861624390863e+18,0.80908642578125,,,,,,,,,,,,,,,,,,,,,,,,,,,,-0.8804261088371277,-0.4658333361148834,0.026743276044726372,0.08446300029754639,-0.05591435730457306,-0.9698153138160706,2.920844793319702
Orientation,1.682086162455956e+18,0.8259560546875,,,,,,,,,,,,,,,,,,,,,,,,,,,,-0.8734012842178345,-0.47754403948783875,0.0376221239566803,0.08778662979602814,-0.03348676115274429,-0.9987235069274902,2.922975778579712
Orientation,1.6820861624728287e+18,0.84282861328125,,,,,,,,,,,,,,,,,,,,,,,,,,,,-0.8665452003479004,-0.48724186420440674,0.051192183047533035,0.09525798261165619,-0.007898061536252499,-1.023985505104065,2.9181764125823975
Orientation,1.6820861624897014e+18,0.859701416015625,,,,,,,,,,,,,,,,,,,,,,,,,,,,-0.860327959060669,-0.4946027994155884,0.06442316621541977,0.10513675957918167,0.013629226945340633,-1.044329285621643,2.9062306880950928
Orientation,1.6820861625065738e+18,0.87657373046875,,,,,,,,,,,,,,,,,,,,,,,,,,,,-0.8560595512390137,-0.498775452375412,0.07377055287361145,0.11376757174730301,0.026064114645123482,-1.0567221641540527,2.8925621509552
Orientation,1.6820861625234465e+18,0.893446533203125,,,,,,,,,,,,,,,,,,,,,,,,,,,,-0.8570078611373901,-0.4959147870540619,0.07634525746107101,0.11737729609012604,0.029073959216475487,-1.0510156154632568,2.886223554611206
Orientation,1.6820861625403187e+18,0.910318603515625,,,,,,,,,,,,,,,,,,,,,,,,,,,,-0.8643873929977417,-0.4829707443714142,0.07396766543388367,0.11875425279140472,0.02518676407635212,-1.0207792520523071,2.8826329708099365
Orientation,1.6820861625571912e+18,0.927191162109375,,,,,,,,,,,,,,,,,,,,,,,,,,,,-0.8763224482536316,-0.4615354537963867,0.06670402735471725,0.12080851197242737,0.009544797241687775,-0.9702457189559937,2.872634172439575
Orientation,1.6820861625740639e+18,0.94406396484375,,,,,,,,,,,,,,,,,,,,,,,,,,,,-0.8887290954589844,-0.43755096197128296,0.058043573051691055,0.12385742366313934,-0.008548596873879433,-0.9142529368400574,2.8604421615600586
Orientation,1.6820861625909317e+18,0.960931640625,,,,,,,,,,,,,,,,,,,,,,,,,,,,-0.8975893259048462,-0.4193020462989807,0.05052533373236656,0.1263584941625595,-0.023722520098090172,-0.8718036413192749,2.850830078125
Orientation,1.682086162607809e+18,0.97780908203125,,,,,,,,,,,,,,,,,,,,,,,,,,,,-0.9007770419120789,-0.41217783093452454,0.04707568883895874,0.12842878699302673,-0.03210550546646118,-0.8551241755485535,2.843719720840454
Orientation,1.6820861626246707e+18,0.994670654296875,,,,,,,,,,,,,,,,,,,,,,,,,,,,-0.8980088829994202,-0.41822123527526855,0.0469207800924778,0.12833349406719208,-0.0357138067483902,-0.8682135939598083,2.8411386013031006
Orientation,1.682086162641552e+18,1.0115517578125,,,,,,,,,,,,,,,,,,,,,,,,,,,,-0.8898347020149231,-0.4354243278503418,0.050161562860012054,0.1268213540315628,-0.0343676395714283,-0.9069601893424988,2.8417041301727295
Orientation,1.6820861626584266e+18,1.028426513671875,,,,,,,,,,,,,,,,,,,,,,,,,,,,-0.8789981007575989,-0.4569529592990875,0.05493704974651337,0.12465213239192963,-0.030078791081905365,-0.9562195539474487,2.8442599773406982
Orientation,1.6820861626753034e+18,1.045303466796875,,,,,,,,,,,,,,,,,,,,,,,,,,,,-0.8687814474105835,-0.4764818251132965,0.05788663029670715,0.12179093807935715,-0.028701052069664,-1.0010119676589966,2.847337007522583
Orientation,1.6820861626921702e+18,1.062170166015625,,,,,,,,,,,,,,,,,,,,,,,,,,,,-0.8602933883666992,-0.49233120679855347,0.05844935029745102,0.11869712173938751,-0.03206969425082207,-1.0371817350387573,2.8490753173828125
Orientation,1.6820861627090445e+18,1.07904443359375,,,,,,,,,,,,,,,,,,,,,,,,,,,,-0.8523244857788086,-0.5063765048980713,0.05947054177522659,0.1165727823972702,-0.03473566845059395,-1.0697063207626343,2.8491580486297607
Orientation,1.6820861627259167e+18,1.095916748046875,,,,,,,,,,,,,,,,,,,,,,,,,,,,-0.844595193862915,-0.5190162658691406,0.06217718496918678,0.11582442373037338,-0.033504556864500046,-1.099808692932129,2.848482370376587
Orientation,1.6820861627427873e+18,1.112787353515625,,,,,,,,,,,,,,,,,,,,,,,,,,,,-0.8389121294021606,-0.52748703956604,0.06711319088935852,0.11610207706689835,-0.022735772654414177,-1.1211813688278198,2.8522744178771973
Orientation,1.6820861627596644e+18,1.129664306640625,,,,,,,,,,,,,,,,,,,,,,,,,,,,-0.8370896577835083,-0.5291280150413513,0.0732119008898735,0.11808688193559647,-0.005581467878073454,-1.1270413398742676,2.857778787612915
Orientation,1.682086162776537e+18,1.146537109375,,,,,,,,,,,,,,,,,,,,,,,,,,,,-0.8408522605895996,-0.5218909978866577,0.07759124040603638,0.12073488533496857,0.010072881355881691,-1.1115851402282715,2.86262583732605
Orientation,1.6820861627934042e+18,1.163404052734375,,,,,,,,,,,,,,,,,,,,,,,,,,,,-0.850905179977417,-0.5046333074569702,0.07846681773662567,0.12307951599359512,0.019470898434519768,-1.0718882083892822,2.865859031677246
Orientation,1.6820861628102794e+18,1.180279541015625,,,,,,,,,,,,,,,,,,,,,,,,,,,,-0.8665082454681396,-0.4773608148097992,0.07498107850551605,0.12517209351062775,0.019582420587539673,-1.008522629737854,2.8654727935791016
Orientation,1.6820861628271521e+18,1.197152099609375,,,,,,,,,,,,,,,,,,,,,,,,,,,,-0.8848036527633667,-0.44286227226257324,0.06769018620252609,0.12811590731143951,0.010540592484176159,-0.9290249943733215,2.859281539916992
Orientation,1.682086162844025e+18,1.214025146484375,,,,,,,,,,,,,,,,,,,,,,,,,,,,-0.9009575247764587,-0.40938422083854675,0.0569567047059536,0.1320461481809616,-0.008330203592777252,-0.8521800637245178,2.846759796142578
Orientation,1.6820861628608973e+18,1.230897216796875,,,,,,,,,,,,,,,,,,,,,,,,,,,,-0.9095151424407959,-0.3901190161705017,0.0455242395401001,0.13607682287693024,-0.033773671835660934,-0.8067288994789124,2.8301520347595215
Orientation,1.6820861628777777e+18,1.247777587890625,,,,,,,,,,,,,,,,,,,,,,,,,,,,-0.907933235168457,-0.3927620053291321,0.043411362916231155,0.13968077301979065,-0.044892098754644394,-0.8115148544311523,2.8170087337493896
Orientation,1.6820861628946424e+18,1.264642333984375,,,,,,,,,,,,,,,,,,,,,,,,,,,,-0.89872807264328,-0.41207247972488403,0.049142688512802124,0.14166611433029175,-0.04332737252116203,-0.8550533056259155,2.8091626167297363
Orientation,1.6820861629115172e+18,1.28151708984375,,,,,,,,,,,,,,,,,,,,,,,,,,,,-0.8864548206329346,-0.43639591336250305,0.05654511600732803,0.1433841437101364,-0.04060801491141319,-0.9106554388999939,2.8009846210479736
Orientation,1.682086162928387e+18,1.298386962890625,,,,,,,,,,,,,,,,,,,,,,,,,,,,-0.8750154376029968,-0.4580754339694977,0.06173895671963692,0.14388565719127655,-0.04149087145924568,-0.9603859782218933,2.794020891189575
Orientation,1.6820861629452646e+18,1.3152646484375,,,,,,,,,,,,,,,,,,,,,,,,,,,,-0.8647844791412354,-0.47728094458580017,0.06367714703083038,0.14246374368667603,-0.048175666481256485,-1.0040152072906494,2.788599729537964
Orientation,1.68208616296213e+18,1.3321298828125,,,,,,,,,,,,,,,,,,,,,,,,,,,,-0.8536959886550903,-0.4976195991039276,0.06460100412368774,0.139301136136055,-0.0570262186229229,-1.0504151582717896,2.7850430011749268
Orientation,1.682086162979017e+18,1.349016845703125,,,,,,,,,,,,,,,,,,,,,,,,,,,,-0.8414589166641235,-0.5187608599662781,0.06703301519155502,0.13542766869068146,-0.06109623610973358,-1.0999575853347778,2.784977912902832
Orientation,1.6820861629958674e+18,1.365867431640625,,,,,,,,,,,,,,,,,,,,,,,,,,,,-0.8300384879112244,-0.5369385480880737,0.0712723359465599,0.1328657567501068,-0.05889091268181801,-1.1440049409866333,2.786221742630005
Orientation,1.6820861630127396e+18,1.382739501953125,,,,,,,,,,,,,,,,,,,,,,,,,,,,-0.8229395151138306,-0.547233521938324,0.07645062357187271,0.1321413218975067,-0.04823359102010727,-1.1703438758850098,2.791203737258911
Orientation,1.682086163029634e+18,1.399634033203125,,,,,,,,,,,,,,,,,,,,,,,,,,,,-0.823518693447113,-0.5455859303474426,0.08062966912984848,0.13286003470420837,-0.031069902703166008,-1.1681451797485352,2.8011465072631836
Orientation,1.6820861630464888e+18,1.41648876953125,,,,,,,,,,,,,,,,,,,,,,,,,,,,-0.8334372043609619,-0.5297667980194092,0.08207033574581146,0.1341419517993927,-0.012526780366897583,-1.1315510272979736,2.81447434425354
Orientation,1.6820861630633646e+18,1.433364501953125,,,,,,,,,,,,,,,,,,,,,,,,,,,,-0.8520412445068359,-0.49960294365882874,0.0782584622502327,0.1352715790271759,-0.0036951915826648474,-1.0603711605072021,2.824531316757202
Orientation,1.6820861630802427e+18,1.45024267578125,,,,,,,,,,,,,,,,,,,,,,,,,,,,-0.8754704594612122,-0.45764729380607605,0.07120471447706223,0.13798722624778748,-0.0028437329456210136,-0.9630974531173706,2.827448844909668
Orientation,1.6820861630971128e+18,1.46711279296875,,,,,,,,,,,,,,,,,,,,,,,,,,,,-0.8983892798423767,-0.4100601375102997,0.06456879526376724,0.14345084130764008,-0.002488860860466957,-0.8561303019523621,2.8237791061401367
Orientation,1.6820861631139858e+18,1.48398583984375,,,,,,,,,,,,,,,,,,,,,,,,,,,,-0.9160515666007996,-0.3677225112915039,0.05724387988448143,0.14950866997241974,-0.007024326827377081,-0.7626259922981262,2.81520938873291
Orientation,1.6820861631308472e+18,1.50084716796875,,,,,,,,,,,,,,,,,,,,,,,,,,,,-0.9233710169792175,-0.3469015061855316,0.05255516618490219,0.1558315008878708,-0.014672080054879189,-0.7168551087379456,2.8017196655273438
Orientation,1.6820861631477307e+18,1.517730712890625,,,,,,,,,,,,,,,,,,,,,,,,,,,,-0.9189016819000244,-0.3555537462234497,0.05667543783783913,0.1612113118171692,-0.014147445559501648,-0.7365164160728455,2.788790225982666
Orientation,1.682086163164603e+18,1.534602783203125,,,,,,,,,,,,,,,,,,,,,,,,,,,,-0.9059938192367554,-0.3840252459049225,0.0672738179564476,0.16484540700912476,-0.006767540704458952,-0.8009656667709351,2.7787656784057617
Orientation,1.6820861631814653e+18,1.55146533203125,,,,,,,,,,,,,,,,,,,,,,,,,,,,-0.8907886743545532,-0.41491034626960754,0.0787549689412117,0.16775797307491302,0.0017084473511204123,-0.872002124786377,2.7700986862182617
Orientation,1.6820861631983478e+18,1.56834765625,,,,,,,,,,,,,,,,,,,,,,,,,,,,-0.8780528903007507,-0.43988895416259766,0.08364313840866089,0.16889265179634094,-0.0028410744853317738,-0.9285378456115723,2.7601137161254883
Orientation,1.682086163215221e+18,1.585220947265625,,,,,,,,,,,,,,,,,,,,,,,,,,,,-0.8670850396156311,-0.46221891045570374,0.08181444555521011,0.16680431365966797,-0.02202325314283371,-0.9770671725273132,2.7497830390930176
Orientation,1.6820861632320932e+18,1.60209326171875,,,,,,,,,,,,,,,,,,,,,,,,,,,,-0.855737566947937,-0.4851076304912567,0.07865843921899796,0.1618536412715912,-0.04332364723086357,-1.0269252061843872,2.7432968616485596
Orientation,1.6820861632489661e+18,1.618966064453125,,,,,,,,,,,,,,,,,,,,,,,,,,,,-0.844373345375061,-0.5064053535461426,0.07769796252250671,0.15668603777885437,-0.05778653547167778,-1.0748919248580933,2.740192174911499
Orientation,1.6820861632658417e+18,1.635841552734375,,,,,,,,,,,,,,,,,,,,,,,,,,,,-0.8348469734191895,-0.5224944949150085,0.08010828495025635,0.15366461873054504,-0.06072235479950905,-1.1129930019378662,2.739759922027588
Orientation,1.6820861632827082e+18,1.652708251953125,,,,,,,,,,,,,,,,,,,,,,,,,,,,-0.8292517066001892,-0.5303218364715576,0.08660751581192017,0.15362095832824707,-0.045642878860235214,-1.1340909004211426,2.7461719512939453
Orientation,1.682086163299576e+18,1.669576171875,,,,,,,,,,,,,,,,,,,,,,,,,,,,-0.8295992016792297,-0.5276668071746826,0.09583794325590134,0.15539705753326416,-0.011727286502718925,-1.1320613622665405,2.763801336288452
Orientation,1.682086163316452e+18,1.6864521484375,,,,,,,,,,,,,,,,,,,,,,,,,,,,-0.8368601202964783,-0.5138848423957825,0.1040603443980217,0.1573498696088791,0.027644703164696693,-1.1036280393600464,2.786903142929077
Orientation,1.6820861633333325e+18,1.70333251953125,,,,,,,,,,,,,,,,,,,,,,,,,,,,-0.8506193161010742,-0.4887872636318207,0.10959337651729584,0.15975995361804962,0.06068433076143265,-1.0482698678970337,2.805372953414917
Orientation,1.6820861633502013e+18,1.720201416015625,,,,,,,,,,,,,,,,,,,,,,,,,,,,-0.868976891040802,-0.4539775252342224,0.11013780534267426,0.16325846314430237,0.07647767663002014,-0.9701204299926758,2.8104960918426514
Orientation,1.682086163367074e+18,1.737073974609375,,,,,,,,,,,,,,,,,,,,,,,,,,,,-0.8894758224487305,-0.4137996733188629,0.10157865285873413,0.16517983376979828,0.06897591799497604,-0.8783507943153381,2.806779623031616
Orientation,1.682086163383944e+18,1.75394384765625,,,,,,,,,,,,,,,,,,,,,,,,,,,,-0.9076499938964844,-0.37664419412612915,0.08572650700807571,0.16420069336891174,0.045478519052267075,-0.7921642661094666,2.8026702404022217
Orientation,1.682086163400821e+18,1.770821044921875,,,,,,,,,,,,,,,,,,,,,,,,,,,,-0.9172052145004272,-0.3561065196990967,0.07235987484455109,0.16336089372634888,0.02226816490292549,-0.7435252666473389,2.797757148742676
Orientation,1.6820861634176914e+18,1.78769140625,,,,,,,,,,,,,,,,,,,,,,,,,,,,-0.913413941860199,-0.36479008197784424,0.07112271338701248,0.16596612334251404,0.012218387797474861,-0.761512041091919,2.7870078086853027
Orientation,1.6820861634345638e+18,1.804563720703125,,,,,,,,,,,,,,,,,,,,,,,,,,,,-0.8985952734947205,-0.39635545015335083,0.08014560490846634,0.17031019926071167,0.013417806476354599,-0.8325137495994568,2.772909164428711
Orientation,1.6820861634514373e+18,1.821437255859375,,,,,,,,,,,,,,,,,,,,,,,,,,,,-0.8790109157562256,-0.4344595670700073,0.08986788988113403,0.17466746270656586,0.010254341177642345,-0.9193100333213806,2.7543609142303467
Orientation,1.682086163468309e+18,1.83830908203125,,,,,,,,,,,,,,,,,,,,,,,,,,,,-0.860563337802887,-0.4688449800014496,0.09517768025398254,0.17480400204658508,-0.0001827706873882562,-0.9976823925971985,2.7406914234161377
Orientation,1.6820861634851817e+18,1.855181640625,,,,,,,,,,,,,,,,,,,,,,,,,,,,-0.8441032767295837,-0.4992002844810486,0.0972028374671936,0.16982494294643402,-0.011300197802484035,-1.0670247077941895,2.737839698791504
Orientation,1.6820861635020547e+18,1.8720546875,,,,,,,,,,,,,,,,,,,,,,,,,,,,-0.8282175064086914,-0.5274428725242615,0.09644915163516998,0.16296423971652985,-0.02857292629778385,-1.1316393613815308,2.734879493713379
Orientation,1.682086163518927e+18,1.888927001953125,,,,,,,,,,,,,,,,,,,,,,,,,,,,-0.8131314516067505,-0.5524808168411255,0.09561078250408173,0.15633587539196014,-0.04645008593797684,-1.19001305103302,2.7302587032318115
Orientation,1.682086163535799e+18,1.905799072265625,,,,,,,,,,,,,,,,,,,,,,,,,,,,-0.8002942204475403,-0.5717378258705139,0.09753810614347458,0.15209001302719116,-0.05432494729757309,-1.2369413375854492,2.7273240089416504
Orientation,1.6820861635526676e+18,1.922667724609375,,,,,,,,,,,,,,,,,,,,,,,,,,,,-0.7915739417076111,-0.5828313827514648,0.10340958833694458,0.15173909068107605,-0.04396464675664902,-1.2666095495224,2.7305212020874023
Orientation,1.682086163569545e+18,1.939544921875,,,,,,,,,,,,,,,,,,,,,,,,,,,,-0.789088249206543,-0.5832462310791016,0.11287890374660492,0.156275674700737,-0.01411215215921402,-1.27218496799469,2.7401394844055176
Orientation,1.6820861635864174e+18,1.95641748046875,,,,,,,,,,,,,,,,,,,,,,,,,,,,-0.7949507236480713,-0.5712819695472717,0.12235397100448608,0.16346238553524017,0.024463221430778503,-1.2477810382843018,2.753603458404541
Orientation,1.6820861636032911e+18,1.973291015625,,,,,,,,,,,,,,,,,,,,,,,,,,,,-0.8092238306999207,-0.547003448009491,0.12897533178329468,0.1711997538805008,0.05816350877285004,-1.1929397583007812,2.7641172409057617
Orientation,1.6820861636201508e+18,1.99015087890625,,,,,,,,,,,,,,,,,,,,,,,,,,,,-0.8292765021324158,-0.5130277276039124,0.13112470507621765,0.17863212525844574,0.07768809795379639,-1.114588975906372,2.765691041946411
Orientation,1.6820861636370322e+18,2.0070322265625,,,,,,,,,,,,,,,,,,,,,,,,,,,,-0.8528093099594116,-0.47247251868247986,0.1257738620042801,0.1834859699010849,0.07866086065769196,-1.0198191404342651,2.7617504596710205
Orientation,1.6820861636539095e+18,2.023909423828125,,,,,,,,,,,,,,,,,,,,,,,,,,,,-0.8778291344642639,-0.4286517798900604,0.11000342667102814,0.18322959542274475,0.059184830635786057,-0.9155170917510986,2.7592053413391113
Orientation,1.6820861636707802e+18,2.0407802734375,,,,,,,,,,,,,,,,,,,,,,,,,,,,-0.8986325263977051,-0.389763206243515,0.09070545434951782,0.17976891994476318,0.033658966422080994,-0.8228979110717773,2.761399269104004
Orientation,1.6820861636876536e+18,2.057653564453125,,,,,,,,,,,,,,,,,,,,,,,,,,,,-0.9078144431114197,-0.37115028500556946,0.08056900650262833,0.17784593999385834,0.020050769671797752,-0.7789448499679565,2.762911319732666
Orientation,1.6820861637045228e+18,2.074522705078125,,,,,,,,,,,,,,,,,,,,,,,,,,,,-0.9045979976654053,-0.3792579472064972,0.07983078807592392,0.1774626523256302,0.014037905260920525,-0.7958890795707703,2.760057210922241
Orientation,1.6820861637214008e+18,2.09140087890625,,,,,,,,,,,,,,,,,,,,,,,,,,,,-0.8937410712242126,-0.40286701917648315,0.08424657583236694,0.17840297520160675,0.010350327007472515,-0.8483301997184753,2.75221848487854
Orientation,1.6820861637382702e+18,2.108270263671875,,,,,,,,,,,,,,,,,,,,,,,,,,,,-0.8808010220527649,-0.4285239279270172,0.08937985450029373,0.18046629428863525,0.0045130555517971516,-0.9061723947525024,2.7396061420440674
Orientation,1.6820861637551404e+18,2.125140380859375,,,,,,,,,,,,,,,,,,,,,,,,,,,,-0.8696191906929016,-0.44994014501571655,0.09223601222038269,0.18113215267658234,-0.004457460716366768,-0.9544000029563904,2.7285821437835693
Orientation,1.6820861637720182e+18,2.14201806640625,,,,,,,,,,,,,,,,,,,,,,,,,,,,-0.859752893447876,-0.46866926550865173,0.09322571754455566,0.18023023009300232,-0.01589103415608406,-0.9963324666023254,2.719672918319702
Orientation,1.6820861637888886e+18,2.158888671875,,,,,,,,,,,,,,,,,,,,,,,,,,,,-0.8499624133110046,-0.4866306483745575,0.0938466340303421,0.17873869836330414,-0.028349680826067924,-1.0368071794509888,2.7108802795410156
Orientation,1.6820861638057608e+18,2.1757607421875,,,,,,,,,,,,,,,,,,,,,,,,,,,,-0.8401418328285217,-0.5034125447273254,0.09568306058645248,0.17771407961845398,-0.038209572434425354,-1.0756186246871948,2.7018890380859375
Orientation,1.6820861638226314e+18,2.19263134765625,,,,,,,,,,,,,,,,,,,,,,,,,,,,-0.8311450481414795,-0.5174533724784851,0.09935865551233292,0.1776733547449112,-0.04205024614930153,-1.1094733476638794,2.6943349838256836
Orientation,1.6820861638395085e+18,2.209508544921875,,,,,,,,,,,,,,,,,,,,,,,,,,,,-0.8246636390686035,-0.5266607403755188,0.10404093563556671,0.17814013361930847,-0.03785013407468796,-1.133036732673645,2.6920225620269775
Orientation,1.682086163856379e+18,2.22637890625,,,,,,,,,,,,,,,,,,,,,,,,,,,,-0.8231110572814941,-0.52814781665802,0.10817297548055649,0.17845666408538818,-0.024895334616303444,-1.13862144947052,2.698652982711792
Orientation,1.6820861638732447e+18,2.24324462890625,,,,,,,,,,,,,,,,,,,,,,,,,,,,-0.8283519148826599,-0.5191081166267395,0.11123879253864288,0.1788458377122879,-0.003187937429174781,-1.1193054914474487,2.7143123149871826
Orientation,1.6820861638901235e+18,2.26012353515625,,,,,,,,,,,,,,,,,,,,,,,,,,,,-0.8409898281097412,-0.4979391396045685,0.11224868893623352,0.17942383885383606,0.02111903205513954,-1.0712577104568481,2.7337331771850586
Orientation,1.6820861639069857e+18,2.27698583984375,,,,,,,,,,,,,,,,,,,,,,,,,,,,-0.8596593141555786,-0.4650830328464508,0.10958839952945709,0.18075966835021973,0.03730648010969162,-0.9958918690681458,2.747375965118408
Orientation,1.6820861639238694e+18,2.293869384765625,,,,,,,,,,,,,,,,,,,,,,,,,,,,-0.8815992474555969,-0.42400026321411133,0.1001380905508995,0.18160103261470795,0.03635704517364502,-0.9010303616523743,2.7528817653656006
Orientation,1.682086163940752e+18,2.310751953125,,,,,,,,,,,,,,,,,,,,,,,,,,,,-0.9023164510726929,-0.3826996982097626,0.08413595706224442,0.17968660593032837,0.020637845620512962,-0.8050548434257507,2.75724458694458
Orientation,1.682086163957614e+18,2.327614013671875,,,,,,,,,,,,,,,,,,,,,,,,,,,,-0.9149350523948669,-0.3548896610736847,0.07357347756624222,0.17757879197597504,0.011647888459265232,-0.741686224937439,2.7627110481262207
Orientation,1.6820861639744868e+18,2.34448681640625,,,,,,,,,,,,,,,,,,,,,,,,,,,,-0.9155800938606262,-0.35260024666786194,0.07478421181440353,0.17830772697925568,0.015129560604691505,-0.7373610138893127,2.76275634765625
Orientation,1.6820861639913572e+18,2.361357177734375,,,,,,,,,,,,,,,,,,,,,,,,,,,,-0.9066030383110046,-0.37208467721939087,0.08206575363874435,0.18135392665863037,0.01950622908771038,-0.7816227674484253,2.754767894744873
Orientation,1.6820861640082235e+18,2.378223388671875,,,,,,,,,,,,,,,,,,,,,,,,,,,,-0.8940238356590271,-0.3982578217983246,0.08996060490608215,0.1844431310892105,0.020912185311317444,-0.8409684896469116,2.744039297103882
Orientation,1.682086164025102e+18,2.39510205078125,,,,,,,,,,,,,,,,,,,,,,,,,,,,-0.882495105266571,-0.42148277163505554,0.09483084082603455,0.1859080195426941,0.017009902745485306,-0.8933447003364563,2.734488010406494
Orientation,1.68208616404198e+18,2.41197998046875,,,,,,,,,,,,,,,,,,,,,,,,,,,,-0.8723320960998535,-0.4419670104980469,0.0961126759648323,0.18564516305923462,0.006069565657526255,-0.9386644959449768,2.725297451019287
Orientation,1.68208616405885e+18,2.42885009765625,,,,,,,,,,,,,,,,,,,,,,,,,,,,-0.8622421026229858,-0.4621110260486603,0.09573950618505478,0.18391826748847961,-0.008799409493803978,-0.9829188585281372,2.7165768146514893
Orientation,1.6820861640757222e+18,2.44572216796875,,,,,,,,,,,,,,,,,,,,,,,,,,,,-0.851906418800354,-0.48196494579315186,0.09525446593761444,0.18136093020439148,-0.024205762892961502,-1.0269581079483032,2.708427906036377
Orientation,1.6820861640925924e+18,2.46259228515625,,,,,,,,,,,,,,,,,,,,,,,,,,,,-0.8423299193382263,-0.49949586391448975,0.09548512101173401,0.17851285636425018,-0.03617704287171364,-1.0666170120239258,2.7025582790374756
Orientation,1.68208616410947e+18,2.479469970703125,,,,,,,,,,,,,,,,,,,,,,,,,,,,-0.8350740075111389,-0.5120129585266113,0.09757456928491592,0.17599257826805115,-0.03777293860912323,-1.0962108373641968,2.703108072280884
Orientation,1.6820861641263404e+18,2.49634033203125,,,,,,,,,,,,,,,,,,,,,,,,,,,,-0.8322669863700867,-0.5164893865585327,0.10123950242996216,0.1741294264793396,-0.025456294417381287,-1.1083678007125854,2.7133421897888184
Orientation,1.6820861641432128e+18,2.513212890625,,,,,,,,,,,,,,,,,,,,,,,,,,,,-0.8355791568756104,-0.5102357268333435,0.10579992085695267,0.17399269342422485,-0.0016329793725162745,-1.0962530374526978,2.7300028800964355
Orientation,1.6820861641600855e+18,2.53008544921875,,,,,,,,,,,,,,,,,,,,,,,,,,,,-0.8453953862190247,-0.4923223555088043,0.1097501814365387,0.17572858929634094,0.025515051558613777,-1.0572068691253662,2.7466013431549072
Orientation,1.682086164176958e+18,2.5469580078125,,,,,,,,,,,,,,,,,,,,,,,,,,,,-0.8605731129646301,-0.46404245495796204,0.11004957556724548,0.17879550158977509,0.04303650185465813,-0.9936765432357788,2.7552318572998047
Orientation,1.682086164193831e+18,2.563830810546875,,,,,,,,,,,,,,,,,,,,,,,,,,,,-0.8786290884017944,-0.42826059460639954,0.1051880493760109,0.18313710391521454,0.045760419219732285,-0.9125922918319702,2.7530710697174072
Orientation,1.682086164210703e+18,2.580703125,,,,,,,,,,,,,,,,,,,,,,,,,,,,-0.8965226411819458,-0.38973429799079895,0.09629122167825699,0.18730297684669495,0.039317041635513306,-0.8254933953285217,2.7468931674957275
Orientation,1.6820861642275756e+18,2.597575439453125,,,,,,,,,,,,,,,,,,,,,,,,,,,,-0.9099754095077515,-0.3574780821800232,0.0875452384352684,0.19102390110492706,0.031199049204587936,-0.7532854676246643,2.740098476409912
Orientation,1.682086164244438e+18,2.61443798828125,,,,,,,,,,,,,,,,,,,,,,,,,,,,-0.916469156742096,-0.34055808186531067,0.08189322799444199,0.19338561594486237,0.02436107210814953,-0.715368926525116,2.734776496887207
Orientation,1.6820861642613174e+18,2.6313173828125,,,,,,,,,,,,,,,,,,,,,,,,,,,,-0.9158185124397278,-0.34211039543151855,0.08014873415231705,0.1944558173418045,0.01826005056500435,-0.7178846597671509,2.7299983501434326
Orientation,1.6820861642781934e+18,2.648193359375,,,,,,,,,,,,,,,,,,,,,,,,,,,,-0.9103240370750427,-0.3562144339084625,0.07936771959066391,0.19524943828582764,0.007359693758189678,-0.7471274733543396,2.7219128608703613
Orientation,1.6820861642950664e+18,2.66506640625,,,,,,,,,,,,,,,,,,,,,,,,,,,,-0.9021843671798706,-0.37611615657806396,0.07897882908582687,0.19586317241191864,-0.006851570680737495,-0.7889165878295898,2.7111778259277344
Orientation,1.6820861643119386e+18,2.6819384765625,,,,,,,,,,,,,,,,,,,,,,,,,,,,-0.8928987979888916,-0.398630827665329,0.077615886926651,0.1944250613451004,-0.024469727650284767,-0.8361306190490723,2.70192289352417
Orientation,1.6820861643288118e+18,2.698811767578125,,,,,,,,,,,,,,,,,,,,,,,,,,,,-0.8824570178985596,-0.42292940616607666,0.0754772424697876,0.19158229231834412,-0.04568416252732277,-0.8872758746147156,2.692312479019165
Orientation,1.682086164345679e+18,2.71567919921875,,,,,,,,,,,,,,,,,,,,,,,,,,,,-0.8705623149871826,-0.4486377239227295,0.07339275628328323,0.1883060187101364,-0.07007116079330444,-0.9420658349990845,2.6798529624938965
Orientation,1.6820861643625577e+18,2.7325576171875,,,,,,,,,,,,,,,,,,,,,,,,,,,,-0.8575054407119751,-0.4746878147125244,0.07230827957391739,0.18473629653453827,-0.09504766762256622,-0.9987791180610657,2.665332794189453
Orientation,1.682086164379432e+18,2.749431884765625,,,,,,,,,,,,,,,,,,,,,,,,,,,,-0.8448911309242249,-0.49804651737213135,0.07302062958478928,0.18104296922683716,-0.11494646221399307,-1.0512205362319946,2.652695655822754
Orientation,1.682086164396302e+18,2.766302001953125,,,,,,,,,,,,,,,,,,,,,,,,,,,,-0.8350157141685486,-0.5149285793304443,0.07659938186407089,0.1781291365623474,-0.12065299600362778,-1.0913187265396118,2.6479344367980957
Orientation,1.682086164413176e+18,2.783176025390625,,,,,,,,,,,,,,,,,,,,,,,,,,,,-0.8299458622932434,-0.5225510597229004,0.08333750814199448,0.17659330368041992,-0.10467913746833801,-1.1125097274780273,2.6571719646453857
Orientation,1.6820861644300472e+18,2.800047119140625,,,,,,,,,,,,,,,,,,,,,,,,,,,,-0.8312996029853821,-0.5191524028778076,0.09174063801765442,0.176083505153656,-0.0681188702583313,-1.1094419956207275,2.681910991668701
Orientation,1.6820861644469092e+18,2.8169091796875,,,,,,,,,,,,,,,,,,,,,,,,,,,,-0.8397019505500793,-0.5041875243186951,0.09854032099246979,0.1760273426771164,-0.025435738265514374,-1.0788730382919312,2.713087797164917
Orientation,1.6820861644637962e+18,2.833796142578125,,,,,,,,,,,,,,,,,,,,,,,,,,,,-0.8547388315200806,-0.47755831480026245,0.10044411569833755,0.17683528363704681,0.005363077390938997,-1.0196014642715454,2.7365715503692627
Orientation,1.682086164480662e+18,2.850662109375,,,,,,,,,,,,,,,,,,,,,,,,,,,,-0.8745907545089722,-0.4404822885990143,0.09618064761161804,0.17836961150169373,0.018702195957303047,-0.9353298544883728,2.7486636638641357
Orientation,1.6820861644975375e+18,2.86753759765625,,,,,,,,,,,,,,,,,,,,,,,,,,,,-0.8957465291023254,-0.3974009156227112,0.08461228013038635,0.1804201602935791,0.012217547744512558,-0.8367538452148438,2.7495062351226807
Orientation,1.68208616451441e+18,2.884409912109375,,,,,,,,,,,,,,,,,,,,,,,,,,,,-0.9127777218818665,-0.3568256199359894,0.07276478409767151,0.1849798560142517,0.0011228774674236774,-0.7454805970191956,2.742135524749756
Orientation,1.6820861645312835e+18,2.901283447265625,,,,,,,,,,,,,,,,,,,,,,,,,,,,-0.9212810397148132,-0.3315882980823517,0.07090616971254349,0.19042779505252838,0.005664250813424587,-0.6918684244155884,2.7359774112701416
Orientation,1.682086164548152e+18,2.918152099609375,,,,,,,,,,,,,,,,,,,,,,,,,,,,-0.9211194515228271,-0.3299112021923065,0.07550709694623947,0.19234441220760345,0.015809735283255577,-0.6903693079948425,2.7355618476867676
Orientation,1.6820861645650278e+18,2.93502783203125,,,,,,,,,,,,,,,,,,,,,,,,,,,,-0.9139983057975769,-0.3471161127090454,0.08161945641040802,0.1935349553823471,0.01990075595676899,-0.728993833065033,2.7318592071533203
Orientation,1.6820861645819005e+18,2.951900634765625,,,,,,,,,,,,,,,,,,,,,,,,,,,,-0.9028078317642212,-0.3722093105316162,0.0866803228855133,0.1971922665834427,0.013726856559515,-0.7841905355453491,2.7171812057495117
Orientation,1.6820861645987658e+18,2.968765869140625,,,,,,,,,,,,,,,,,,,,,,,,,,,,-0.8906316757202148,-0.3985053598880768,0.08915240317583084,0.2000512182712555,-0.000958829652518034,-0.841304361820221,2.699263572692871
Orientation,1.6820861646156352e+18,2.98563525390625,,,,,,,,,,,,,,,,,,,,,,,,,,,,-0.87837815284729,-0.4251992404460907,0.08839742094278336,0.1996077597141266,-0.023203615099191666,-0.8982872366905212,2.6835060119628906
Orientation,1.682086164632516e+18,3.00251611328125,,,,,,,,,,,,,,,,,,,,,,,,,,,,-0.8654446005821228,-0.45260748267173767,0.0865795686841011,0.19661179184913635,-0.04883348569273949,-0.9569846987724304,2.6694822311401367
Orientation,1.682086164649394e+18,3.019393798828125,,,,,,,,,,,,,,,,,,,,,,,,,,,,-0.8522223830223083,-0.47858425974845886,0.08702646940946579,0.1926148235797882,-0.06829772889614105,-1.0145548582077026,2.6590631008148193
Orientation,1.6820861646662612e+18,3.03626123046875,,,,,,,,,,,,,,,,,,,,,,,,,,,,-0.8402339816093445,-0.5001961588859558,0.09088587760925293,0.18854843080043793,-0.07416006177663803,-1.0650979280471802,2.6563873291015625
Orientation,1.6820861646831388e+18,3.053138916015625,,,,,,,,,,,,,,,,,,,,,,,,,,,,-0.8314628005027771,-0.5147004127502441,0.09723518788814545,0.18519815802574158,-0.06406237185001373,-1.1015825271606445,2.663917064666748
Orientation,1.6820861647000102e+18,3.07001025390625,,,,,,,,,,,,,,,,,,,,,,,,,,,,-0.8289645314216614,-0.5181846618652344,0.10315615683794022,0.1834704875946045,-0.043256133794784546,-1.112857460975647,2.679058074951172
Orientation,1.68208616471687e+18,3.086869873046875,,,,,,,,,,,,,,,,,,,,,,,,,,,,-0.8359174728393555,-0.5060111880302429,0.10680142790079117,0.18381579220294952,-0.016062822192907333,-1.0869898796081543,2.6989834308624268
Orientation,1.6820861647337546e+18,3.103754638671875,,,,,,,,,,,,,,,,,,,,,,,,,,,,-0.8526665568351746,-0.47567054629325867,0.10972338914871216,0.18616703152656555,0.019116206094622612,-1.019851803779602,2.722360372543335
Orientation,1.6820861647506266e+18,3.12062646484375,,,,,,,,,,,,,,,,,,,,,,,,,,,,-0.8756019473075867,-0.42974913120269775,0.1121293231844902,0.1899050921201706,0.054675422608852386,-0.9192817211151123,2.7415075302124023
Orientation,1.6820861647674995e+18,3.13749951171875,,,,,,,,,,,,,,,,,,,,,,,,,,,,-0.8998464941978455,-0.37637028098106384,0.10682352632284164,0.19289982318878174,0.06769893318414688,-0.8017345070838928,2.747946262359619
Orientation,1.6820861647843722e+18,3.154372314453125,,,,,,,,,,,,,,,,,,,,,,,,,,,,-0.9197850227355957,-0.32781803607940674,0.09458032250404358,0.1938699185848236,0.061029769480228424,-0.6941297054290771,2.7482001781463623
Orientation,1.682086164801245e+18,3.171244873046875,,,,,,,,,,,,,,,,,,,,,,,,,,,,-0.9291821718215942,-0.30079758167266846,0.0908539742231369,0.19464567303657532,0.06438413262367249,-0.6364697813987732,2.7498199939727783
Orientation,1.682086164818117e+18,3.1881171875,,,,,,,,,,,,,,,,,,,,,,,,,,,,-0.9267576932907104,-0.3098861873149872,0.0894814133644104,0.19257178902626038,0.058655835688114166,-0.6545999646186829,2.7517611980438232
Orientation,1.68208616483499e+18,3.204989990234375,,,,,,,,,,,,,,,,,,,,,,,,,,,,-0.9147995710372925,-0.34454163908958435,0.08772563189268112,0.19166898727416992,0.03802664950489998,-0.7261578440666199,2.742976188659668
Orientation,1.682086164851863e+18,3.221863037109375,,,,,,,,,,,,,,,,,,,,,,,,,,,,-0.8967255353927612,-0.38958749175071716,0.08590786904096603,0.19163760542869568,0.006971344817429781,-0.8207135796546936,2.723543405532837
Orientation,1.6820861648687278e+18,3.238727783203125,,,,,,,,,,,,,,,,,,,,,,,,,,,,-0.8764287829399109,-0.43456894159317017,0.0854908674955368,0.18898120522499084,-0.023687904700636864,-0.917442798614502,2.705144166946411
Orientation,1.6820861648856054e+18,3.25560546875,,,,,,,,,,,,,,,,,,,,,,,,,,,,-0.8563967347145081,-0.47516119480133057,0.08420558273792267,0.18361921608448029,-0.056598298251628876,-1.0061473846435547,2.688018321990967
Orientation,1.6820861649024806e+18,3.272480712890625,,,,,,,,,,,,,,,,,,,,,,,,,,,,-0.8376107215881348,-0.5098151564598083,0.08280397206544876,0.17787736654281616,-0.09118791669607162,-1.0833059549331665,2.668194532394409
Orientation,1.6820861649193554e+18,3.28935546875,,,,,,,,,,,,,,,,,,,,,,,,,,,,-0.8213163614273071,-0.5369532108306885,0.08419650793075562,0.1732964962720871,-0.11629137396812439,-1.1461846828460693,2.650599241256714
Orientation,1.6820861649362143e+18,3.30621435546875,,,,,,,,,,,,,,,,,,,,,,,,,,,,-0.8097246289253235,-0.5543514490127563,0.0893365666270256,0.170468270778656,-0.11940600723028183,-1.1895514726638794,2.645770788192749
Orientation,1.682086164953101e+18,3.32310107421875,,,,,,,,,,,,,,,,,,,,,,,,,,,,-0.8048866987228394,-0.5599958896636963,0.09778834879398346,0.17029257118701935,-0.09390082955360413,-1.2076160907745361,2.6598031520843506
Orientation,1.6820861649699712e+18,3.33997119140625,,,,,,,,,,,,,,,,,,,,,,,,,,,,-0.808204710483551,-0.5526314973831177,0.10685005784034729,0.1731666475534439,-0.050946950912475586,-1.1951876878738403,2.684774398803711
Orientation,1.682086164986831e+18,3.3568310546875,,,,,,,,,,,,,,,,,,,,,,,,,,,,-0.8203735947608948,-0.5311909914016724,0.11465064436197281,0.1779850572347641,-0.0023826074320822954,-1.1490179300308228,2.7127602100372314
Orientation,1.6820861650037194e+18,3.373719482421875,,,,,,,,,,,,,,,,,,,,,,,,,,,,-0.8417459726333618,-0.49305376410484314,0.1214742660522461,0.18331877887248993,0.04895879328250885,-1.0645875930786133,2.7415621280670166
Orientation,1.6820861650205865e+18,3.39058642578125,,,,,,,,,,,,,,,,,,,,,,,,,,,,-0.869809091091156,-0.438959538936615,0.12511175870895386,0.18733298778533936,0.09092190116643906,-0.9450002908706665,2.7638235092163086
Orientation,1.6820861650374618e+18,3.407461669921875,,,,,,,,,,,,,,,,,,,,,,,,,,,,-0.898639976978302,-0.3758562505245209,0.1229812279343605,0.18987880647182465,0.11344513297080994,-0.8070094585418701,2.7736027240753174
Orientation,1.6820861650543368e+18,3.424336669921875,,,,,,,,,,,,,,,,,,,,,,,,,,,,-0.9237717986106873,-0.3171994388103485,0.10668379813432693,0.18614156544208527,0.1014728844165802,-0.6761008501052856,2.779613733291626
Orientation,1.6820861650712074e+18,3.44120751953125,,,,,,,,,,,,,,,,,,,,,,,,,,,,-0.9359090328216553,-0.28630489110946655,0.09544394910335541,0.18164347112178802,0.09101615846157074,-0.607217013835907,2.786726951599121
Orientation,1.6820861650880768e+18,3.458076904296875,,,,,,,,,,,,,,,,,,,,,,,,,,,,-0.9320304989814758,-0.30156877636909485,0.09164657443761826,0.17881911993026733,0.07843746244907379,-0.6371647715568542,2.7883620262145996
Orientation,1.682086165104955e+18,3.474954833984375,,,,,,,,,,,,,,,,,,,,,,,,,,,,-0.9167605638504028,-0.34717947244644165,0.08969574421644211,0.17598633468151093,0.056830160319805145,-0.7316944599151611,2.784052610397339
Orientation,1.6820861651218273e+18,3.491827392578125,,,,,,,,,,,,,,,,,,,,,,,,,,,,-0.8936476707458496,-0.4057062864303589,0.0865471139550209,0.1711903065443039,0.02405560202896595,-0.8552713990211487,2.7740156650543213
Orientation,1.6820861651386947e+18,3.508694580078125,,,,,,,,,,,,,,,,,,,,,,,,,,,,-0.8659827709197998,-0.46435219049453735,0.08397813141345978,0.1655251383781433,-0.014921293593943119,-0.9827805757522583,2.755880355834961
Orientation,1.682086165155571e+18,3.525571044921875,,,,,,,,,,,,,,,,,,,,,,,,,,,,-0.8370324969291687,-0.5165933966636658,0.08247680217027664,0.16032953560352325,-0.060851238667964935,-1.1001113653182983,2.725766897201538
Orientation,1.6820861651724388e+18,3.542438720703125,,,,,,,,,,,,,,,,,,,,,,,,,,,,-0.8093482851982117,-0.5591301321983337,0.08681394904851913,0.1574556678533554,-0.09852226823568344,-1.2009992599487305,2.6897966861724854
Orientation,1.6820861651893194e+18,3.5593193359375,,,,,,,,,,,,,,,,,,,,,,,,,,,,-0.7834979891777039,-0.593110203742981,0.0972617119550705,0.15776954591274261,-0.12453463673591614,-1.2873280048370361,2.6506903171539307
Orientation,1.6820861652061888e+18,3.576188720703125,,,,,,,,,,,,,,,,,,,,,,,,,,,,-0.7604722380638123,-0.6191878318786621,0.11136182397603989,0.16089414060115814,-0.14236441254615784,-1.3586688041687012,2.6095635890960693
Orientation,1.6820861652230605e+18,3.593060546875,,,,,,,,,,,,,,,,,,,,,,,,,,,,-0.7437736988067627,-0.6364172697067261,0.12196236848831177,0.16400960087776184,-0.16899006068706512,-1.4075621366500854,2.563990592956543
Orientation,1.6820861652399345e+18,3.6099345703125,,,,,,,,,,,,,,,,,,,,,,,,,,,,-0.7369235754013062,-0.6428815722465515,0.12740515172481537,0.165574848651886,-0.1763378381729126,-1.4271414279937744,2.546802043914795
Orientation,1.682086165256795e+18,3.626794921875,,,,,,,,,,,,,,,,,,,,,,,,,,,,-0.741455078125,-0.6358619332313538,0.13253727555274963,0.16839808225631714,-0.11227837949991226,-1.4129247665405273,2.599088191986084
Orientation,1.6820861652736788e+18,3.643678955078125,,,,,,,,,,,,,,,,,,,,,,,,,,,,-0.7571749687194824,-0.6130555868148804,0.14135794341564178,0.17568974196910858,-0.006477889604866505,-1.360892415046692,2.6803524494171143
Orientation,1.6820861652905405e+18,3.66054052734375,,,,,,,,,,,,,,,,,,,,,,,,,,,,-0.7835917472839355,-0.57616126537323,0.14481037855148315,0.18180255591869354,0.059254225343465805,-1.2717034816741943,2.7293784618377686
Orientation,1.6820861653074214e+18,3.67742138671875,,,,,,,,,,,,,,,,,,,,,,,,,,,,-0.8166583180427551,-0.5301059484481812,0.13773970305919647,0.18189166486263275,0.08014386147260666,-1.1578396558761597,2.7556934356689453
Orientation,1.6820861653242995e+18,3.694299560546875,,,,,,,,,,,,,,,,,,,,,,,,,,,,-0.8508842587471008,-0.48134857416152954,0.12211933732032776,0.17142470180988312,0.08423272520303726,-1.0372569561004639,2.792076349258423
Orientation,1.6820861653411684e+18,3.71116845703125,,,,,,,,,,,,,,,,,,,,,,,,,,,,-0.879428505897522,-0.4409319758415222,0.10018094629049301,0.1488228142261505,0.0759214535355568,-0.9362735748291016,2.844717025756836
Orientation,1.6820861653580431e+18,3.728043212890625,,,,,,,,,,,,,,,,,,,,,,,,,,,,-0.8932714462280273,-0.4229930341243744,0.08688268810510635,0.12487740069627762,0.07889591157436371,-0.8905131220817566,2.901463031768799
Orientation,1.6820861653749148e+18,3.744914794921875,,,,,,,,,,,,,,,,,,,,,,,,,,,,-0.891058623790741,-0.4304211735725403,0.09183675050735474,0.11098705977201462,0.11074434220790863,-0.9066550731658936,2.947749137878418
Orientation,1.6820861653917873e+18,3.761787353515625,,,,,,,,,,,,,,,,,,,,,,,,,,,,-0.8771954774856567,-0.4566844403743744,0.10345087200403214,0.10613828152418137,0.14946241676807404,-0.9669597744941711,2.979348659515381
Orientation,1.68208616540866e+18,3.778659912109375,,,,,,,,,,,,,,,,,,,,,,,,,,,,-0.8551638722419739,-0.49366068840026855,0.11298111081123352,0.11058571189641953,0.17088216543197632,-1.0538040399551392,2.9839627742767334
Orientation,1.6820861654255324e+18,3.795532470703125,,,,,,,,,,,,,,,,,,,,,,,,,,,,-0.8268294930458069,-0.5354078412055969,0.12107016891241074,0.12261155247688293,0.1717221438884735,-1.1556843519210815,2.959292411804199
Orientation,1.682086165442404e+18,3.812404052734375,,,,,,,,,,,,,,,,,,,,,,,,,,,,-0.7945417165756226,-0.5773857831954956,0.1287808120250702,0.13691094517707825,0.15387335419654846,-1.2622538805007935,2.9128758907318115
Orientation,1.6820861654592796e+18,3.829279541015625,,,,,,,,,,,,,,,,,,,,,,,,,,,,-0.7613946795463562,-0.6163004636764526,0.13541486859321594,0.14871010184288025,0.11200413852930069,-1.364376187324524,2.8468353748321533
Orientation,1.682086165476151e+18,3.846151123046875,,,,,,,,,,,,,,,,,,,,,,,,,,,,-0.7310519814491272,-0.6500263810157776,0.13915671408176422,0.15383212268352509,0.0298676248639822,-1.4542802572250366,2.7533693313598633
Orientation,1.682086165493023e+18,3.86302294921875,,,,,,,,,,,,,,,,,,,,,,,,,,,,-0.7074469923973083,-0.674630880355835,0.14448045194149017,0.1533539891242981,-0.05183497071266174,-1.522718906402588,2.665255546569824
Orientation,1.682086165509896e+18,3.87989599609375,,,,,,,,,,,,,,,,,,,,,,,,,,,,-0.6894756555557251,-0.6894105672836304,0.15627841651439667,0.15784014761447906,-1.305189847946167,-1.5686126947402954,1.3884828090667725
Orientation,1.6820861655267592e+18,3.89675927734375,,,,,,,,,,,,,,,,,,,,,,,,,,,,-0.6781939268112183,-0.6956067085266113,0.1702444851398468,0.16492818295955658,3.084571123123169,-1.5450552701950073,-0.5356242656707764
Orientation,1.6820861655436278e+18,3.913627685546875,,,,,,,,,,,,,,,,,,,,,,,,,,,,-0.6750699281692505,-0.6928293108940125,0.1842806041240692,0.17409449815750122,2.877070903778076,-1.541844367980957,-0.7769851684570312
Orientation,1.6820861655605135e+18,3.930513427734375,,,,,,,,,,,,,,,,,,,,,,,,,,,,-0.6821931600570679,-0.68154376745224,0.1935652494430542,0.18067412078380585,1.7882969379425049,-1.5525425672531128,-1.8889597654342651
Orientation,1.6820861655773865e+18,3.947386474609375,,,,,,,,,,,,,,,,,,,,,,,,,,,,-0.6996712684631348,-0.661987841129303,0.19598814845085144,0.18390442430973053,0.5823789834976196,-1.5148227214813232,-3.1033616065979004
Orientation,1.682086165594249e+18,3.9642490234375,,,,,,,,,,,,,,,,,,,,,,,,,,,,-0.7263513207435608,-0.6342414021492004,0.19095824658870697,0.18353897333145142,0.34896916151046753,-1.4400182962417603,2.9533724784851074
Orientation,1.6820861656111217e+18,3.98112158203125,,,,,,,,,,,,,,,,,,,,,,,,,,,,-0.7587746381759644,-0.5994248390197754,0.17980383336544037,0.1806143969297409,0.25429990887641907,-1.3449593782424927,2.877119541168213
Orientation,1.6820861656280044e+18,3.99800439453125,,,,,,,,,,,,,,,,,,,,,,,,,,,,-0.7938690781593323,-0.5590404272079468,0.16368861496448517,0.1745045930147171,0.19892849028110504,-1.2367966175079346,2.850611448287964
Orientation,1.6820861656448604e+18,4.0148603515625,,,,,,,,,,,,,,,,,,,,,,,,,,,,-0.8275870680809021,-0.5149009227752686,0.14643950760364532,0.16891498863697052,0.15896476805210114,-1.1237372159957886,2.8391172885894775
Orientation,1.6820861656617457e+18,4.03174560546875,,,,,,,,,,,,,,,,,,,,,,,,,,,,-0.8570172786712646,-0.4736529290676117,0.12434680014848709,0.16035068035125732,0.11713187396526337,-1.0192888975143433,2.837179183959961
Orientation,1.6820861656786273e+18,4.04862744140625,,,,,,,,,,,,,,,,,,,,,,,,,,,,-0.874502956867218,-0.44606009125709534,0.10798284411430359,0.15689116716384888,0.08428827673196793,-0.951082706451416,2.8299813270568848
Orientation,1.6820861656954924e+18,4.065492431640625,,,,,,,,,,,,,,,,,,,,,,,,,,,,-0.8804684281349182,-0.43569833040237427,0.10261484980583191,0.15624505281448364,0.07419820874929428,-0.9261350631713867,2.8273940086364746
Orientation,1.6820861657123704e+18,4.082370361328125,,,,,,,,,,,,,,,,,,,,,,,,,,,,-0.8792626261711121,-0.4375452697277069,0.10615120828151703,0.155509814620018,0.08487261086702347,-0.9313889145851135,2.834158182144165
Orientation,1.6820861657292408e+18,4.09924072265625,,,,,,,,,,,,,,,,,,,,,,,,,,,,-0.8742092251777649,-0.4457235634326935,0.11359050124883652,0.1555187851190567,0.10358287394046783,-0.9521119594573975,2.842926502227783
Orientation,1.6820861657461135e+18,4.116113525390625,,,,,,,,,,,,,,,,,,,,,,,,,,,,-0.8681691288948059,-0.45206597447395325,0.12554322183132172,0.16173331439495087,0.12749963998794556,-0.9711735248565674,2.8405818939208984
Orientation,1.6820861657629855e+18,4.1329853515625,,,,,,,,,,,,,,,,,,,,,,,,,,,,-0.8633493781089783,-0.45008406043052673,0.14508353173732758,0.17607656121253967,0.16495856642723083,-0.9759795665740967,2.826923370361328
Orientation,1.6820861657798587e+18,4.149858642578125,,,,,,,,,,,,,,,,,,,,,,,,,,,,-0.8602308034896851,-0.4416046142578125,0.16748075187206268,0.19219449162483215,0.21059194207191467,-0.9686847925186157,2.8130671977996826
Orientation,1.6820861657967206e+18,4.166720703125,,,,,,,,,,,,,,,,,,,,,,,,,,,,-0.8576515316963196,-0.4325394332408905,0.18810319900512695,0.20484352111816406,0.25628116726875305,-0.9596654176712036,2.8065950870513916
Orientation,1.6820861658136044e+18,4.183604248046875,,,,,,,,,,,,,,,,,,,,,,,,,,,,-0.856661319732666,-0.4242500364780426,0.20268146693706512,0.21228164434432983,0.2910924553871155,-0.9491629600524902,2.8061044216156006
Orientation,1.6820861658304765e+18,4.2004765625,,,,,,,,,,,,,,,,,,,,,,,,,,,,-0.8569942116737366,-0.41489848494529724,0.21350066363811493,0.2187182456254959,0.3157788813114166,-0.9348738789558411,2.802211046218872
Orientation,1.6820861658473492e+18,4.217349365234375,,,,,,,,,,,,,,,,,,,,,,,,,,,,-0.8581844568252563,-0.40404942631721497,0.22303307056427002,0.2247661054134369,0.3370993435382843,-0.9169636368751526,2.796861171722412
Orientation,1.6820861658642284e+18,4.234228271484375,,,,,,,,,,,,,,,,,,,,,,,,,,,,-0.8614674806594849,-0.3932865560054779,0.2267308086156845,0.22758027911186218,0.34557420015335083,-0.8959550261497498,2.7923898696899414
Orientation,1.6820861658810947e+18,4.2510947265625,,,,,,,,,,,,,,,,,,,,,,,,,,,,-0.8657754063606262,-0.3823969066143036,0.22717730700969696,0.22933800518512726,0.34616386890411377,-0.8731252551078796,2.7864887714385986
Orientation,1.6820861658979666e+18,4.267966552734375,,,,,,,,,,,,,,,,,,,,,,,,,,,,-0.8725764155387878,-0.37075281143188477,0.22160953283309937,0.22812753915786743,0.33408963680267334,-0.845240592956543,2.781527519226074
Orientation,1.68208616591484e+18,4.284840087890625,,,,,,,,,,,,,,,,,,,,,,,,,,,,-0.8813893795013428,-0.3562793433666229,0.21230214834213257,0.22615410387516022,0.31409168243408203,-0.8096817135810852,2.7747550010681152
Orientation,1.682086165931696e+18,4.301696044921875,,,,,,,,,,,,,,,,,,,,,,,,,,,,-0.8913707733154297,-0.3388320505619049,0.20101334154605865,0.22415335476398468,0.29090094566345215,-0.7672600746154785,2.766981840133667
Orientation,1.6820861659485827e+18,4.318582763671875,,,,,,,,,,,,,,,,,,,,,,,,,,,,-0.9014492034912109,-0.3201972246170044,0.18856123089790344,0.22205400466918945,0.2666950523853302,-0.7221834659576416,2.7597815990448
Orientation,1.68208616596545e+18,4.335449951171875,,,,,,,,,,,,,,,,,,,,,,,,,,,,-0.9106804132461548,-0.3013342618942261,0.17723913490772247,0.22010260820388794,0.24656690657138824,-0.677516520023346,2.754570245742798
Orientation,1.6820861659823304e+18,4.352330322265625,,,,,,,,,,,,,,,,,,,,,,,,,,,,-0.9189197421073914,-0.28193774819374084,0.16822868585586548,0.21862508356571198,0.23269718885421753,-0.6331838369369507,2.7509896755218506
Orientation,1.6820861659992038e+18,4.369203857421875,,,,,,,,,,,,,,,,,,,,,,,,,,,,-0.9272283315658569,-0.26081448793411255,0.1577272266149521,0.2175903469324112,0.21640245616436005,-0.5851315259933472,2.746013641357422
Orientation,1.6820861660160758e+18,4.38607568359375,,,,,,,,,,,,,,,,,,,,,,,,,,,,-0.9358646273612976,-0.23834554851055145,0.142010897397995,0.2172139286994934,0.18948712944984436,-0.5326427817344666,2.7373054027557373
Orientation,1.6820861660329467e+18,4.40294677734375,,,,,,,,,,,,,,,,,,,,,,,,,,,,-0.9437733888626099,-0.21598222851753235,0.12251114845275879,0.21825328469276428,0.1549808830022812,-0.47929471731185913,2.725010633468628
Orientation,1.6820861660498237e+18,4.41982373046875,,,,,,,,,,,,,,,,,,,,,,,,,,,,-0.9496728181838989,-0.19501391053199768,0.10121588408946991,0.223263680934906,0.11588218063116074,-0.4285963177680969,2.70503568649292
Orientation,1.682086166066691e+18,4.436691162109375,,,,,,,,,,,,,,,,,,,,,,,,,,,,-0.9530839920043945,-0.1756761223077774,0.08150099217891693,0.23265092074871063,0.07941412925720215,-0.38201475143432617,2.678114175796509
Orientation,1.682086166083567e+18,4.453567138671875,,,,,,,,,,,,,,,,,,,,,,,,,,,,-0.953742504119873,-0.1611800193786621,0.06478361040353775,0.24535571038722992,0.047302503138780594,-0.3461073040962219,2.646271228790283
Orientation,1.682086166100439e+18,4.47043896484375,,,,,,,,,,,,,,,,,,,,,,,,,,,,-0.9518271684646606,-0.15415173768997192,0.04823465645313263,0.2606448829174042,0.012094925157725811,-0.3242477774620056,2.6090028285980225
Orientation,1.6820861661173117e+18,4.487311767578125,,,,,,,,,,,,,,,,,,,,,,,,,,,,-0.9474053978919983,-0.15293419361114502,0.032249122858047485,0.27927449345588684,-0.025558702647686005,-0.3128736615180969,2.5642426013946533
Orientation,1.682086166134185e+18,4.50418505859375,,,,,,,,,,,,,,,,,,,,,,,,,,,,-0.9400941729545593,-0.15410274267196655,0.019687391817569733,0.3034595847129822,-0.05930847302079201,-0.30646559596061707,2.5079541206359863
Orientation,1.6820861661510574e+18,4.521057373046875,,,,,,,,,,,,,,,,,,,,,,,,,,,,-0.9295724630355835,-0.15625353157520294,0.011534812860190868,0.33368682861328125,-0.08689211308956146,-0.30280208587646484,2.4390439987182617
Orientation,1.6820861661679299e+18,4.537929931640625,,,,,,,,,,,,,,,,,,,,,,,,,,,,-0.916379451751709,-0.15941131114959717,0.006743183359503746,0.3671392500400543,-0.10986591130495071,-0.30166861414909363,2.362760066986084
Orientation,1.6820861661847903e+18,4.554790283203125,,,,,,,,,,,,,,,,,,,,,,,,,,,,-0.9020563364028931,-0.16165386140346527,0.0023973293136805296,0.40019577741622925,-0.13120152056217194,-0.2979494035243988,2.286754846572876
Orientation,1.682086166201665e+18,4.5716650390625,,,,,,,,,,,,,,,,,,,,,,,,,,,,-0.8877589702606201,-0.15977145731449127,-0.0020053444895893335,0.4316864013671875,-0.14802631735801697,-0.2858215272426605,2.215055465698242
Orientation,1.682086166218532e+18,4.588531982421875,,,,,,,,,,,,,,,,,,,,,,,,,,,,-0.8738951683044434,-0.15366388857364655,-0.007775978650897741,0.4611227810382843,-0.16160358488559723,-0.2644732892513275,2.1489853858947754
Orientation,1.682086166235423e+18,4.605423095703125,,,,,,,,,,,,,,,,,,,,,,,,,,,,-0.8597071766853333,-0.1447845697402954,-0.014183460734784603,0.4896322786808014,-0.17180350422859192,-0.23727548122406006,2.0856311321258545
Orientation,1.682086166252296e+18,4.6222958984375,,,,,,,,,,,,,,,,,,,,,,,,,,,,-0.8446878790855408,-0.13627424836158752,-0.02031278982758522,0.51722252368927,-0.1802247315645218,-0.2107628583908081,2.0236148834228516
Orientation,1.682086166269166e+18,4.639166015625,,,,,,,,,,,,,,,,,,,,,,,,,,,,-0.8295621871948242,-0.1301780492067337,-0.027678268030285835,0.5423228740692139,-0.1916109174489975,-0.1870492845773697,1.9655570983886719
Orientation,1.6820861662860495e+18,4.656049560546875,,,,,,,,,,,,,,,,,,,,,,,,,,,,-0.8165291547775269,-0.12492302060127258,-0.03790083900094032,0.5623504519462585,-0.20654897391796112,-0.1620882898569107,1.9185421466827393
Orientation,1.6820861663029107e+18,4.67291064453125,,,,,,,,,,,,,,,,,,,,,,,,,,,,-0.8071852922439575,-0.11769416928291321,-0.04495950788259506,0.5766962766647339,-0.2119285762310028,-0.1385892629623413,1.8861075639724731
Orientation,1.682086166319785e+18,4.689784912109375,,,,,,,,,,,,,,,,,,,,,,,,,,,,-0.8013414740562439,-0.11011909693479538,-0.0505019836127758,0.5858116149902344,-0.21302418410778046,-0.11758749932050705,1.866496205329895
Orientation,1.6820861663366444e+18,4.706644287109375,,,,,,,,,,,,,,,,,,,,,,,,,,,,-0.7979933619499207,-0.10191379487514496,-0.05437127500772476,0.5914929509162903,-0.20988574624061584,-0.09849176555871964,1.8554868698120117
Orientation,1.682086166353532e+18,4.723531982421875,,,,,,,,,,,,,,,,,,,,,,,,,,,,-0.7957888245582581,-0.0934167355298996,-0.057611241936683655,0.5955454707145691,-0.20504802465438843,-0.08014553040266037,1.8484268188476562
Orientation,1.6820861663703995e+18,4.7403994140625,,,,,,,,,,,,,,,,,,,,,,,,,,,,-0.7948834300041199,-0.08633609116077423,-0.05969451740384102,0.5976144671440125,-0.19985106587409973,-0.06595344096422195,1.8456398248672485
Orientation,1.6820861663872776e+18,4.757277587890625,,,,,,,,,,,,,,,,,,,,,,,,,,,,-0.7972763776779175,-0.0850299522280693,-0.061082806438207626,0.594465434551239,-0.20022425055503845,-0.06300318241119385,1.8538776636123657
Orientation,1.682086166404147e+18,4.77414697265625,,,,,,,,,,,,,,,,,,,,,,,,,,,,-0.8041600584983826,-0.09081808477640152,-0.062268275767564774,0.5841245651245117,-0.2083052396774292,-0.07338553667068481,1.8774960041046143
Orientation,1.6820861664210202e+18,4.791020263671875,,,,,,,,,,,,,,,,,,,,,,,,,,,,-0.8134630918502808,-0.10031222552061081,-0.06228996068239212,0.5695042610168457,-0.21824948489665985,-0.09238314628601074,1.9098798036575317
