sensor,time,seconds_elapsed,z,y,x,relativeAltitude,pressure,batteryLevel,batteryState,lowPowerMode,brightness,lux,bearingAccuracy,speedAccuracy,verticalAccuracy,horizontalAccuracy,speed,bearing,altitude,longitude,latitude,version,device name,recording time,platform,appVersion,device id,sensors,sampleRateMs,qz,qy,qx,qw,roll,pitch,yaw
Gravity,1.6820861618232164e+18,0.19321630859375,6.541208744049072,7.310754299163818,-0.039819248020648956,,,,,,,,,,,,,,,,,,,,,,,,,,,,,,,
Gravity,1.6820861618401106e+18,0.210110595703125,6.499279975891113,7.348084926605225,-0.03352910652756691,,,,,,,,,,,,,,,,,,,,,,,,,,,,,,,
Gravity,1.68208616185698e+18,0.22697998046875,6.475296974182129,7.368984699249268,-0.06861941516399384,,,,,,,,,,,,,,,,,,,,,,,,,,,,,,,
Gravity,1.6820861618738437e+18,0.24384375,6.453479290008545,7.386462688446045,-0.16995254158973694,,,,,,,,,,,,,,,,,,,,,,,,,,,,,,,
Gravity,1.6820861618907297e+18,0.260729736328125,6.4297285079956055,7.402444839477539,-0.3138706684112549,,,,,,,,,,,,,,,,,,,,,,,,,,,,,,,
Gravity,1.6820861619075994e+18,0.277599365234375,6.426400661468506,7.397614479064941,-0.46129125356674194,,,,,,,,,,,,,,,,,,,,,,,,,,,,,,,
Gravity,1.682086161924472e+18,0.29447216796875,6.4827423095703125,7.341001987457275,-0.5655655264854431,,,,,,,,,,,,,,,,,,,,,,,,,,,,,,,
Gravity,1.6820861619413443e+18,0.31134423828125,6.646652698516846,7.191213607788086,-0.5870025753974915,,,,,,,,,,,,,,,,,,,,,,,,,,,,,,,
Gravity,1.6820861619582172e+18,0.32821728515625,6.941678524017334,6.909033298492432,-0.5607743263244629,,,,,,,,,,,,,,,,,,,,,,,,,,,,,,,
Gravity,1.6820861619750892e+18,0.345089111328125,7.358713626861572,6.4700775146484375,-0.4727909564971924,,,,,,,,,,,,,,,,,,,,,,,,,,,,,,,
Gravity,1.682086161991962e+18,0.361962158203125,7.752527236938477,6.003850936889648,-0.29700201749801636,,,,,,,,,,,,,,,,,,,,,,,,,,,,,,,
Gravity,1.682086162008834e+18,0.378833984375,7.977804660797119,5.702178001403809,-0.2755313515663147,,,,,,,,,,,,,,,,,,,,,,,,,,,,,,,
Gravity,1.682086162025707e+18,0.39570703125,8.00894832611084,5.658114433288574,-0.28034213185310364,,,,,,,,,,,,,,,,,,,,,,,,,,,,,,,
Gravity,1.682086162042577e+18,0.412576904296875,7.875917911529541,5.846672058105469,-0.14983461797237396,,,,,,,,,,,,,,,,,,,,,,,,,,,,,,,
Gravity,1.6820861620594442e+18,0.4294443359375,7.62187385559082,6.176012992858887,-0.0028607503045350313,,,,,,,,,,,,,,,,,,,,,,,,,,,,,,,
Gravity,1.682086162076324e+18,0.446323974609375,7.293918132781982,6.559109687805176,0.11380904167890549,,,,,,,,,,,,,,,,,,,,,,,,,,,,,,,
Gravity,1.682086162093197e+18,0.463197021484375,6.946744918823242,6.924490451812744,0.17399092018604279,,,,,,,,,,,,,,,,,,,,,,,,,,,,,,,
Gravity,1.682086162110069e+18,0.480069091796875,6.597025394439697,7.259085655212402,0.1450653374195099,,,,,,,,,,,,,,,,,,,,,,,,,,,,,,,
Gravity,1.6820861621269317e+18,0.496931640625,6.2609100341796875,7.5520710945129395,0.05786814168095589,,,,,,,,,,,,,,,,,,,,,,,,,,,,,,,
Gravity,1.6820861621438141e+18,0.513814208984375,5.953365802764893,7.797020435333252,0.006288973148912191,,,,,,,,,,,,,,,,,,,,,,,,,,,,,,,
Gravity,1.6820861621606769e+18,0.5306767578125,5.710853099822998,7.974494934082031,0.1723574995994568,,,,,,,,,,,,,,,,,,,,,,,,,,,,,,,
Gravity,1.6820861621775593e+18,0.547559326171875,5.576191425323486,8.057304382324219,0.4712139666080475,,,,,,,,,,,,,,,,,,,,,,,,,,,,,,,
Gravity,1.6820861621944325e+18,0.5644326171875,5.528487205505371,8.069124221801758,0.7491119503974915,,,,,,,,,,,,,,,,,,,,,,,,,,,,,,,
Gravity,1.6820861622113044e+18,0.581304443359375,5.528499603271484,8.044059753417969,0.9823048114776611,,,,,,,,,,,,,,,,,,,,,,,,,,,,,,,
Gravity,1.6820861622281677e+18,0.598167724609375,5.539800643920898,8.012746810913086,1.1587162017822266,,,,,,,,,,,,,,,,,,,,,,,,,,,,,,,
Gravity,1.682086162245049e+18,0.615049072265625,5.58939790725708,7.967390537261963,1.2310236692428589,,,,,,,,,,,,,,,,,,,,,,,,,,,,,,,
Gravity,1.6820861622619226e+18,0.631922607421875,5.732077121734619,7.867875576019287,1.2148857116699219,,,,,,,,,,,,,,,,,,,,,,,,,,,,,,,
Gravity,1.6820861622787942e+18,0.648794189453125,5.983388900756836,7.659221172332764,1.3309705257415771,,,,,,,,,,,,,,,,,,,,,,,,,,,,,,,
Gravity,1.6820861622956677e+18,0.665667724609375,6.301563262939453,7.349350452423096,1.5853900909423828,,,,,,,,,,,,,,,,,,,,,,,,,,,,,,,
Gravity,1.682086162312537e+18,0.682537109375,6.614090442657471,7.057651996612549,1.6369075775146484,,,,,,,,,,,,,,,,,,,,,,,,,,,,,,,
Gravity,1.6820861623294152e+18,0.699415283203125,6.8691325187683105,6.873233318328857,1.3452885150909424,,,,,,,,,,,,,,,,,,,,,,,,,,,,,,,
Gravity,1.6820861623462807e+18,0.71628076171875,6.976070404052734,6.8229451179504395,1.0089476108551025,,,,,,,,,,,,,,,,,,,,,,,,,,,,,,,
Gravity,1.682086162363161e+18,0.7331611328125,6.92429256439209,6.896355152130127,0.8547351956367493,,,,,,,,,,,,,,,,,,,,,,,,,,,,,,,
Gravity,1.6820861623800192e+18,0.750019287109375,6.781806468963623,7.050889492034912,0.7267589569091797,,,,,,,,,,,,,,,,,,,,,,,,,,,,,,,
Gravity,1.6820861623968998e+18,0.76689990234375,6.5993242263793945,7.231381893157959,0.6262160539627075,,,,,,,,,,,,,,,,,,,,,,,,,,,,,,,
Gravity,1.6820861624137649e+18,0.783764892578125,6.3949198722839355,7.419288635253906,0.5433817505836487,,,,,,,,,,,,,,,,,,,,,,,,,,,,,,,
Gravity,1.6820861624306478e+18,0.800647705078125,6.169766902923584,7.613178253173828,0.4578302800655365,,,,,,,,,,,,,,,,,,,,,,,,,,,,,,,
Gravity,1.6820861624475136e+18,0.817513671875,5.942905426025391,7.797548770904541,0.34091082215309143,,,,,,,,,,,,,,,,,,,,,,,,,,,,,,,
Gravity,1.6820861624643935e+18,0.8343935546875,5.735311508178711,7.956663131713867,0.18391276895999908,,,,,,,,,,,,,,,,,,,,,,,,,,,,,,,
Gravity,1.6820861624812646e+18,0.8512646484375,5.55383825302124,8.086356163024902,0.042949553579092026,,,,,,,,,,,,,,,,,,,,,,,,,,,,,,,
Gravity,1.6820861624981376e+18,0.8681376953125,5.414376735687256,8.18024730682373,-0.06483480334281921,,,,,,,,,,,,,,,,,,,,,,,,,,,,,,,
Gravity,1.6820861625150098e+18,0.885009765625,5.374725818634033,8.205928802490234,-0.10569310188293457,,,,,,,,,,,,,,,,,,,,,,,,,,,,,,,
Gravity,1.6820861625318802e+18,0.901880126953125,5.520222187042236,8.108637809753418,-0.1150822713971138,,,,,,,,,,,,,,,,,,,,,,,,,,,,,,,
Gravity,1.6820861625487578e+18,0.9187578125,5.853221416473389,7.872186183929443,-0.06777975708246231,,,,,,,,,,,,,,,,,,,,,,,,,,,,,,,
Gravity,1.682086162565628e+18,0.9356279296875,6.282132625579834,7.534597396850586,0.0275172907859087,,,,,,,,,,,,,,,,,,,,,,,,,,,,,,,
Gravity,1.682086162582488e+18,0.952488037109375,6.660077095031738,7.201452255249023,0.13623954355716705,,,,,,,,,,,,,,,,,,,,,,,,,,,,,,,
Gravity,1.6820861625993748e+18,0.969374755859375,6.8740105628967285,6.9955973625183105,0.2138034552335739,,,,,,,,,,,,,,,,,,,,,,,,,,,,,,,
Gravity,1.682086162616245e+18,0.986244873046875,6.88555383682251,6.982889652252197,0.2539840638637543,,,,,,,,,,,,,,,,,,,,,,,,,,,,,,,
Gravity,1.6820861626331185e+18,1.003118408203125,6.692784309387207,7.167897701263428,0.2529786229133606,,,,,,,,,,,,,,,,,,,,,,,,,,,,,,,
Gravity,1.6820861626499904e+18,1.019990478515625,6.355018138885498,7.470021724700928,0.2205391526222229,,,,,,,,,,,,,,,,,,,,,,,,,,,,,,,
Gravity,1.6820861626668534e+18,1.036853271484375,5.987100601196289,7.768832206726074,0.18969683349132538,,,,,,,,,,,,,,,,,,,,,,,,,,,,,,,
Gravity,1.6820861626837353e+18,1.0537353515625,5.669527053833008,8.003527641296387,0.19005878269672394,,,,,,,,,,,,,,,,,,,,,,,,,,,,,,,
Gravity,1.682086162700608e+18,1.07060791015625,5.395636558532715,8.190386772155762,0.20192717015743256,,,,,,,,,,,,,,,,,,,,,,,,,,,,,,,
Gravity,1.6820861627174802e+18,1.087480224609375,5.132517337799072,8.357855796813965,0.19909507036209106,,,,,,,,,,,,,,,,,,,,,,,,,,,,,,,
Gravity,1.682086162734353e+18,1.104352783203125,4.908608436584473,8.492039680480957,0.16416525840759277,,,,,,,,,,,,,,,,,,,,,,,,,,,,,,,
Gravity,1.6820861627512253e+18,1.121225341796875,4.787296295166016,8.562085151672363,0.09277572482824326,,,,,,,,,,,,,,,,,,,,,,,,,,,,,,,
Gravity,1.6820861627680993e+18,1.138099365234375,4.82363748550415,8.542158126831055,0.013458829373121262,,,,,,,,,,,,,,,,,,,,,,,,,,,,,,,
Gravity,1.6820861627849708e+18,1.154970703125,5.055334568023682,8.406972885131836,-0.0500933900475502,,,,,,,,,,,,,,,,,,,,,,,,,,,,,,,
Gravity,1.6820861628018435e+18,1.171843505859375,5.484380722045898,8.133312225341797,-0.08317577093839645,,,,,,,,,,,,,,,,,,,,,,,,,,,,,,,
Gravity,1.6820861628187154e+18,1.18871533203125,6.062641143798828,7.712051868438721,-0.06884775310754776,,,,,,,,,,,,,,,,,,,,,,,,,,,,,,,
Gravity,1.6820861628355884e+18,1.20558837890625,6.669172286987305,7.194318771362305,0.0053817774169147015,,,,,,,,,,,,,,,,,,,,,,,,,,,,,,,
Gravity,1.6820861628524585e+18,1.22245849609375,7.119328022003174,6.747114181518555,0.16655823588371277,,,,,,,,,,,,,,,,,,,,,,,,,,,,,,,
Gravity,1.6820861628693363e+18,1.23933642578125,7.254342555999756,6.59671688079834,0.30651572346687317,,,,,,,,,,,,,,,,,,,,,,,,,,,,,,,
Gravity,1.6820861628862057e+18,1.256205810546875,7.070873260498047,6.792696475982666,0.3132675290107727,,,,,,,,,,,,,,,,,,,,,,,,,,,,,,,
Gravity,1.682086162903079e+18,1.273078857421875,6.704156398773193,7.156601905822754,0.27103686332702637,,,,,,,,,,,,,,,,,,,,,,,,,,,,,,,
Gravity,1.6820861629199506e+18,1.28995068359375,6.30964994430542,7.507730960845947,0.2416718602180481,,,,,,,,,,,,,,,,,,,,,,,,,,,,,,,
Gravity,1.6820861629368154e+18,1.3068154296875,5.959219455718994,7.788670539855957,0.245833620429039,,,,,,,,,,,,,,,,,,,,,,,,,,,,,,,
Gravity,1.682086162953692e+18,1.32369189453125,5.607442855834961,8.044645309448242,0.27637362480163574,,,,,,,,,,,,,,,,,,,,,,,,,,,,,,,
Gravity,1.6820861629705692e+18,1.3405693359375,5.207419395446777,8.308708190917969,0.2902768552303314,,,,,,,,,,,,,,,,,,,,,,,,,,,,,,,
Gravity,1.682086162987441e+18,1.35744091796875,4.801367282867432,8.55037784576416,0.27208733558654785,,,,,,,,,,,,,,,,,,,,,,,,,,,,,,,
Gravity,1.6820861630043046e+18,1.3743046875,4.4856367111206055,8.721480369567871,0.2257443368434906,,,,,,,,,,,,,,,,,,,,,,,,,,,,,,,
Gravity,1.6820861630211804e+18,1.391180419921875,4.373040676116943,8.779885292053223,0.16204038262367249,,,,,,,,,,,,,,,,,,,,,,,,,,,,,,,
Gravity,1.682086163038059e+18,1.40805908203125,4.5410003662109375,8.6952543258667,0.08932177722454071,,,,,,,,,,,,,,,,,,,,,,,,,,,,,,,
Gravity,1.6820861630549307e+18,1.4249306640625,5.007414817810059,8.43567943572998,0.03493038937449455,,,,,,,,,,,,,,,,,,,,,,,,,,,,,,,
Gravity,1.6820861630717852e+18,1.44178515625,5.710643768310547,7.976477146148682,0.02164083905518055,,,,,,,,,,,,,,,,,,,,,,,,,,,,,,,
Gravity,1.6820861630886653e+18,1.458665283203125,6.512085914611816,7.336781978607178,0.02190425619482994,,,,,,,,,,,,,,,,,,,,,,,,,,,,,,,
Gravity,1.682086163105553e+18,1.475552978515625,7.237060546875,6.622696399688721,0.031008662655949593,,,,,,,,,,,,,,,,,,,,,,,,,,,,,,,
Gravity,1.6820861631224125e+18,1.49241259765625,7.706667900085449,6.0693769454956055,0.0777568593621254,,,,,,,,,,,,,,,,,,,,,,,,,,,,,,,
Gravity,1.6820861631392955e+18,1.50929541015625,7.782543182373047,5.971311569213867,0.10760514438152313,,,,,,,,,,,,,,,,,,,,,,,,,,,,,,,
Gravity,1.6820861631561551e+18,1.526155029296875,7.496899127960205,6.326837062835693,0.061217427253723145,,,,,,,,,,,,,,,,,,,,,,,,,,,,,,,
Gravity,1.6820861631730386e+18,1.54303857421875,7.019021511077881,6.853410720825195,-0.014366901479661465,,,,,,,,,,,,,,,,,,,,,,,,,,,,,,,
Gravity,1.6820861631899126e+18,1.55991259765625,6.564068794250488,7.290201663970947,-0.04546795040369034,,,,,,,,,,,,,,,,,,,,,,,,,,,,,,,
Gravity,1.6820861632067745e+18,1.5767744140625,6.184355735778809,7.615045547485352,0.030435636639595032,,,,,,,,,,,,,,,,,,,,,,,,,,,,,,,
Gravity,1.682086163223657e+18,1.593656982421875,5.802483558654785,7.9085917472839355,0.146588534116745,,,,,,,,,,,,,,,,,,,,,,,,,,,,,,,
Gravity,1.6820861632405297e+18,1.61052978515625,5.397430419921875,8.188436508178711,0.23099485039710999,,,,,,,,,,,,,,,,,,,,,,,,,,,,,,,
Gravity,1.6820861632573914e+18,1.627391357421875,5.030025482177734,8.418340682983398,0.2578970193862915,,,,,,,,,,,,,,,,,,,,,,,,,,,,,,,
Gravity,1.6820861632742748e+18,1.64427490234375,4.772585868835449,8.568008422851562,0.21859027445316315,,,,,,,,,,,,,,,,,,,,,,,,,,,,,,,
Gravity,1.6820861632911468e+18,1.661146728515625,4.689277172088623,8.61605167388916,0.10224324464797974,,,,,,,,,,,,,,,,,,,,,,,,,,,,,,,
Gravity,1.6820861633080095e+18,1.678009521484375,4.818620681762695,8.544737815856934,-0.06690296530723572,,,,,,,,,,,,,,,,,,,,,,,,,,,,,,,
Gravity,1.6820861633248924e+18,1.694892333984375,5.168513298034668,8.334362983703613,-0.24692413210868835,,,,,,,,,,,,,,,,,,,,,,,,,,,,,,,
Gravity,1.6820861633417654e+18,1.711765380859375,5.7089056968688965,7.966927528381348,-0.4154239296913147,,,,,,,,,,,,,,,,,,,,,,,,,,,,,,,
Gravity,1.682086163358637e+18,1.728636962890625,6.373466968536377,7.441598415374756,-0.4874829649925232,,,,,,,,,,,,,,,,,,,,,,,,,,,,,,,
Gravity,1.6820861633754998e+18,1.745499755859375,7.035624027252197,6.823563575744629,-0.4184349477291107,,,,,,,,,,,,,,,,,,,,,,,,,,,,,,,
Gravity,1.6820861633923784e+18,1.76237841796875,7.518381118774414,6.296286582946777,-0.25851476192474365,,,,,,,,,,,,,,,,,,,,,,,,,,,,,,,
Gravity,1.6820861634092557e+18,1.779255615234375,7.624640464782715,6.171215534210205,-0.13066130876541138,,,,,,,,,,,,,,,,,,,,,,,,,,,,,,,
Gravity,1.6820861634261258e+18,1.796125732421875,7.3158721923828125,6.5345869064331055,-0.11530885100364685,,,,,,,,,,,,,,,,,,,,,,,,,,,,,,,
Gravity,1.6820861634429885e+18,1.812988525390625,6.74320650100708,7.123960018157959,-0.1202789843082428,,,,,,,,,,,,,,,,,,,,,,,,,,,,,,,
Gravity,1.6820861634598725e+18,1.82987255859375,6.124104976654053,7.663228988647461,-0.07978350669145584,,,,,,,,,,,,,,,,,,,,,,,,,,,,,,,
Gravity,1.6820861634767352e+18,1.8467353515625,5.546074390411377,8.091777801513672,-0.017523813992738724,,,,,,,,,,,,,,,,,,,,,,,,,,,,,,,
Gravity,1.6820861634936136e+18,1.863613525390625,4.9939446449279785,8.443621635437012,0.0434892512857914,,,,,,,,,,,,,,,,,,,,,,,,,,,,,,,
Gravity,1.6820861635105047e+18,1.880504638671875,4.4576416015625,8.737943649291992,0.11784625053405762,,,,,,,,,,,,,,,,,,,,,,,,,,,,,,,
Gravity,1.6820861635273605e+18,1.897360595703125,3.9839465618133545,8.963314056396484,0.15260794758796692,,,,,,,,,,,,,,,,,,,,,,,,,,,,,,,
Gravity,1.6820861635442388e+18,1.91423876953125,3.630829334259033,9.112391471862793,0.1323818415403366,,,,,,,,,,,,,,,,,,,,,,,,,,,,,,,
Gravity,1.682086163561108e+18,1.93110791015625,3.4640276432037354,9.177882194519043,0.05569677799940109,,,,,,,,,,,,,,,,,,,,,,,,,,,,,,,
Gravity,1.6820861635779812e+18,1.947981201171875,3.54508900642395,9.146838188171387,-0.06166064739227295,,,,,,,,,,,,,,,,,,,,,,,,,,,,,,,
Gravity,1.682086163594856e+18,1.96485595703125,3.904496431350708,8.997222900390625,-0.20246833562850952,,,,,,,,,,,,,,,,,,,,,,,,,,,,,,,
Gravity,1.6820861636117238e+18,1.981723876953125,4.495331287384033,8.712467193603516,-0.3479125499725342,,,,,,,,,,,,,,,,,,,,,,,,,,,,,,,
Gravity,1.682086163628598e+18,1.998597900390625,5.230622291564941,8.286637306213379,-0.4564465284347534,,,,,,,,,,,,,,,,,,,,,,,,,,,,,,,
Gravity,1.682086163645472e+18,2.015471923828125,6.039120197296143,7.716673851013184,-0.4669753313064575,,,,,,,,,,,,,,,,,,,,,,,,,,,,,,,
Gravity,1.6820861636623437e+18,2.03234375,6.805654525756836,7.056844711303711,-0.34658026695251465,,,,,,,,,,,,,,,,,,,,,,,,,,,,,,,
Gravity,1.682086163679215e+18,2.049215087890625,7.304887294769287,6.544226169586182,-0.21871832013130188,,,,,,,,,,,,,,,,,,,,,,,,,,,,,,,
Gravity,1.682086163696091e+18,2.0660908203125,7.384056568145752,6.456557750701904,-0.15707872807979584,,,,,,,,,,,,,,,,,,,,,,,,,,,,,,,
Gravity,1.6820861637129603e+18,2.082960205078125,7.128176212310791,6.738673686981201,-0.12451529502868652,,,,,,,,,,,,,,,,,,,,,,,,,,,,,,,
Gravity,1.6820861637298322e+18,2.099832275390625,6.722538471221924,7.143826007843018,-0.09667260199785233,,,,,,,,,,,,,,,,,,,,,,,,,,,,,,,
Gravity,1.6820861637466941e+18,2.116694091796875,6.331024646759033,7.493419647216797,-0.0539700947701931,,,,,,,,,,,,,,,,,,,,,,,,,,,,,,,
Gravity,1.682086163763579e+18,2.133578857421875,5.992341041564941,7.767107009887695,0.0018328098813071847,,,,,,,,,,,,,,,,,,,,,,,,,,,,,,,
Gravity,1.682086163780452e+18,2.1504521484375,5.66813325881958,8.006521224975586,0.06312216073274612,,,,,,,,,,,,,,,,,,,,,,,,,,,,,,,
Gravity,1.6820861637973345e+18,2.16733447265625,5.341973304748535,8.227191925048828,0.11285126954317093,,,,,,,,,,,,,,,,,,,,,,,,,,,,,,,
Gravity,1.682086163814195e+18,2.18419482421875,5.033585548400879,8.419099807739258,0.13380242884159088,,,,,,,,,,,,,,,,,,,,,,,,,,,,,,,
Gravity,1.6820861638310723e+18,2.201072265625,4.782189846038818,8.56460189819336,0.11991441249847412,,,,,,,,,,,,,,,,,,,,,,,,,,,,,,,
Gravity,1.682086163847942e+18,2.21794189453125,4.64868688583374,8.638289451599121,0.07594071328639984,,,,,,,,,,,,,,,,,,,,,,,,,,,,,,,
Gravity,1.6820861638648082e+18,2.23480810546875,4.703100681304932,8.60912036895752,0.002136572729796171,,,,,,,,,,,,,,,,,,,,,,,,,,,,,,,
Gravity,1.682086163881685e+18,2.25168505859375,4.987480640411377,8.446925163269043,-0.1030229777097702,,,,,,,,,,,,,,,,,,,,,,,,,,,,,,,
Gravity,1.6820861638985626e+18,2.2685625,5.501120567321777,8.119545936584473,-0.21626190841197968,,,,,,,,,,,,,,,,,,,,,,,,,,,,,,,
Gravity,1.6820861639154332e+18,2.28543310546875,6.179444789886475,7.6138081550598145,-0.28370341658592224,,,,,,,,,,,,,,,,,,,,,,,,,,,,,,,
Gravity,1.6820861639323052e+18,2.30230517578125,6.901390075683594,6.967730522155762,-0.24014106392860413,,,,,,,,,,,,,,,,,,,,,,,,,,,,,,,
Gravity,1.6820861639491756e+18,2.319175537109375,7.466100692749023,6.361905574798584,-0.14005543291568756,,,,,,,,,,,,,,,,,,,,,,,,,,,,,,,
Gravity,1.6820861639660529e+18,2.336052978515625,7.686520576477051,6.09396505355835,-0.1307697743177414,,,,,,,,,,,,,,,,,,,,,,,,,,,,,,,
Gravity,1.6820861639829233e+18,2.35292333984375,7.537878036499023,6.276016712188721,-0.16769172251224518,,,,,,,,,,,,,,,,,,,,,,,,,,,,,,,
Gravity,1.6820861639997952e+18,2.369795166015625,7.173863887786865,6.688477039337158,-0.18990002572536469,,,,,,,,,,,,,,,,,,,,,,,,,,,,,,,
Gravity,1.6820861640166636e+18,2.38666357421875,6.780048370361328,7.087601184844971,-0.18155576288700104,,,,,,,,,,,,,,,,,,,,,,,,,,,,,,,
Gravity,1.6820861640335406e+18,2.40354052734375,6.432005405426025,7.405939102172852,-0.13220380246639252,,,,,,,,,,,,,,,,,,,,,,,,,,,,,,,
Gravity,1.6820861640504028e+18,2.42040283203125,6.0982160568237305,7.684092044830322,-0.051009651273489,,,,,,,,,,,,,,,,,,,,,,,,,,,,,,,
Gravity,1.682086164067286e+18,2.4372861328125,5.749483108520508,7.948491096496582,0.03231989964842796,,,,,,,,,,,,,,,,,,,,,,,,,,,,,,,
Gravity,1.6820861640841587e+18,2.45415869140625,5.404679775238037,8.186294555664062,0.10061567276716232,,,,,,,,,,,,,,,,,,,,,,,,,,,,,,,
Gravity,1.682086164101031e+18,2.471031005859375,5.109919548034668,8.37307357788086,0.12831246852874756,,,,,,,,,,,,,,,,,,,,,,,,,,,,,,,
Gravity,1.6820861641179013e+18,2.4879013671875,4.925995349884033,8.482982635498047,0.0984799787402153,,,,,,,,,,,,,,,,,,,,,,,,,,,,,,,
Gravity,1.6820861641347738e+18,2.504773681640625,4.921378135681152,8.486221313476562,0.014407539740204811,,,,,,,,,,,,,,,,,,,,,,,,,,,,,,,
Gravity,1.6820861641516518e+18,2.52165185546875,5.135803699493408,8.3574800491333,-0.11026211827993393,,,,,,,,,,,,,,,,,,,,,,,,,,,,,,,
Gravity,1.682086164168525e+18,2.538525146484375,5.558133602142334,8.079955101013184,-0.23998230695724487,,,,,,,,,,,,,,,,,,,,,,,,,,,,,,,
Gravity,1.682086164185391e+18,2.55539111328125,6.131653785705566,7.650952339172363,-0.31917670369148254,,,,,,,,,,,,,,,,,,,,,,,,,,,,,,,
Gravity,1.682086164202264e+18,2.57226416015625,6.766167640686035,7.095373153686523,-0.33281680941581726,,,,,,,,,,,,,,,,,,,,,,,,,,,,,,,
Gravity,1.6820861642191421e+18,2.58914208984375,7.330210208892822,6.5125885009765625,-0.30053606629371643,,,,,,,,,,,,,,,,,,,,,,,,,,,,,,,
Gravity,1.6820861642360118e+18,2.60601171875,7.689236164093018,6.086672782897949,-0.25331953167915344,,,,,,,,,,,,,,,,,,,,,,,,,,,,,,,
Gravity,1.682086164252885e+18,2.622885009765625,7.792418479919434,5.955240726470947,-0.2223307341337204,,,,,,,,,,,,,,,,,,,,,,,,,,,,,,,
Gravity,1.6820861642697572e+18,2.639757080078125,7.684237480163574,6.096288681030273,-0.15450946986675262,,,,,,,,,,,,,,,,,,,,,,,,,,,,,,,
Gravity,1.6820861642866273e+18,2.65662744140625,7.454926490783691,6.376199722290039,-0.06530667841434479,,,,,,,,,,,,,,,,,,,,,,,,,,,,,,,
Gravity,1.682086164303505e+18,2.6735048828125,7.159863471984863,6.706006050109863,0.04427482560276985,,,,,,,,,,,,,,,,,,,,,,,,,,,,,,,
Gravity,1.6820861643203756e+18,2.69037548828125,6.818188190460205,7.051306247711182,0.1658773273229599,,,,,,,,,,,,,,,,,,,,,,,,,,,,,,,
Gravity,1.6820861643372506e+18,2.70725048828125,6.429017543792725,7.403886318206787,0.29377904534339905,,,,,,,,,,,,,,,,,,,,,,,,,,,,,,,
Gravity,1.6820861643541204e+18,2.724120361328125,5.993649482727051,7.755130767822266,0.4125792682170868,,,,,,,,,,,,,,,,,,,,,,,,,,,,,,,
Gravity,1.6820861643709824e+18,2.740982421875,5.544092655181885,8.077828407287598,0.4978208541870117,,,,,,,,,,,,,,,,,,,,,,,,,,,,,,,
Gravity,1.6820861643878625e+18,2.757862548828125,5.150742530822754,8.332579612731934,0.5235337018966675,,,,,,,,,,,,,,,,,,,,,,,,,,,,,,,
Gravity,1.6820861644047194e+18,2.77471923828125,4.890337944030762,8.491122245788574,0.47069796919822693,,,,,,,,,,,,,,,,,,,,,,,,,,,,,,,
Gravity,1.6820861644216113e+18,2.791611328125,4.819399356842041,8.537781715393066,0.34028953313827515,,,,,,,,,,,,,,,,,,,,,,,,,,,,,,,
Gravity,1.68208616443848e+18,2.80847998046875,4.971022129058838,8.455732345581055,0.16017599403858185,,,,,,,,,,,,,,,,,,,,,,,,,,,,,,,
Gravity,1.6820861644553556e+18,2.825355712890625,5.348956108093262,8.22342300415039,-0.009983244352042675,,,,,,,,,,,,,,,,,,,,,,,,,,,,,,,
Gravity,1.68208616447223e+18,2.84222998046875,5.930468559265137,7.813404083251953,-0.1279291957616806,,,,,,,,,,,,,,,,,,,,,,,,,,,,,,,
Gravity,1.6820861644891016e+18,2.8591015625,6.631379127502441,7.2274580001831055,-0.15741144120693207,,,,,,,,,,,,,,,,,,,,,,,,,,,,,,,
Gravity,1.6820861645059725e+18,2.875972412109375,7.312121391296387,6.5393757820129395,-0.07453358173370361,,,,,,,,,,,,,,,,,,,,,,,,,,,,,,,
Gravity,1.68208616452285e+18,2.89285009765625,7.784143447875977,5.969913959503174,-0.057885684072971344,,,,,,,,,,,,,,,,,,,,,,,,,,,,,,,
Gravity,1.682086164539705e+18,2.909705078125,7.945157051086426,5.752610206604004,-0.13440614938735962,,,,,,,,,,,,,,,,,,,,,,,,,,,,,,,
Gravity,1.6820861645565875e+18,2.92658740234375,7.819061279296875,5.92111873626709,-0.19683191180229187,,,,,,,,,,,,,,,,,,,,,,,,,,,,,,,
Gravity,1.682086164573464e+18,2.943464111328125,7.514314651489258,6.30363130569458,-0.1881973147392273,,,,,,,,,,,,,,,,,,,,,,,,,,,,,,,
Gravity,1.682086164590337e+18,2.9603369140625,7.14296817779541,6.723172664642334,-0.11425840109586716,,,,,,,,,,,,,,,,,,,,,,,,,,,,,,,
Gravity,1.6820861646072095e+18,2.97720947265625,6.748646259307861,7.119822025299072,0.00377408554777503,,,,,,,,,,,,,,,,,,,,,,,,,,,,,,,
Gravity,1.6820861646240827e+18,2.994082763671875,6.322911262512207,7.498993396759033,0.1483374387025833,,,,,,,,,,,,,,,,,,,,,,,,,,,,,,,
Gravity,1.6820861646409544e+18,3.010954345703125,5.865379333496094,7.858962059020996,0.2648513913154602,,,,,,,,,,,,,,,,,,,,,,,,,,,,,,,
Gravity,1.6820861646578278e+18,3.027827880859375,5.422333717346191,8.16948413848877,0.30648648738861084,,,,,,,,,,,,,,,,,,,,,,,,,,,,,,,
Gravity,1.6820861646746998e+18,3.04469970703125,5.05336332321167,8.403975486755371,0.2698674201965332,,,,,,,,,,,,,,,,,,,,,,,,,,,,,,,
Gravity,1.6820861646915727e+18,3.06157275390625,4.841643810272217,8.53005313873291,0.18110142648220062,,,,,,,,,,,,,,,,,,,,,,,,,,,,,,,
Gravity,1.682086164708445e+18,3.07844482421875,4.897017478942871,8.49996280670166,0.07716278731822968,,,,,,,,,,,,,,,,,,,,,,,,,,,,,,,
Gravity,1.6820861647253181e+18,3.095318115234375,5.28992223739624,8.261283874511719,-0.06356888264417648,,,,,,,,,,,,,,,,,,,,,,,,,,,,,,,
Gravity,1.68208616474219e+18,3.112190185546875,5.969705581665039,7.779630661010742,-0.27581170201301575,,,,,,,,,,,,,,,,,,,,,,,,,,,,,,,
Gravity,1.682086164759059e+18,3.129058837890625,6.787431240081787,7.0663557052612305,-0.483222097158432,,,,,,,,,,,,,,,,,,,,,,,,,,,,,,,
Gravity,1.6820861647759355e+18,3.145935546875,7.565723896026611,6.223451137542725,-0.5143857002258301,,,,,,,,,,,,,,,,,,,,,,,,,,,,,,,
Gravity,1.682086164792799e+18,3.162799072265625,8.079608917236328,5.537093639373779,-0.544632613658905,,,,,,,,,,,,,,,,,,,,,,,,,,,,,,,
Gravity,1.682086164809678e+18,3.179677978515625,8.188186645507812,5.374291896820068,-0.5538080930709839,,,,,,,,,,,,,,,,,,,,,,,,,,,,,,,
Gravity,1.6820861648265564e+18,3.196556396484375,7.91941499710083,5.772931098937988,-0.4384593367576599,,,,,,,,,,,,,,,,,,,,,,,,,,,,,,,
Gravity,1.682086164843424e+18,3.213424072265625,7.400668621063232,6.435795307159424,-0.21619553864002228,,,,,,,,,,,,,,,,,,,,,,,,,,,,,,,
Gravity,1.6820861648603013e+18,3.23030126953125,6.739508628845215,7.12847375869751,-0.000410182197811082,,,,,,,,,,,,,,,,,,,,,,,,,,,,,,,
Gravity,1.6820861648771712e+18,3.247171142578125,6.041304111480713,7.72715950012207,0.1725098192691803,,,,,,,,,,,,,,,,,,,,,,,,,,,,,,,
Gravity,1.6820861648940447e+18,3.264044677734375,5.369322299957275,8.203827857971191,0.3220231235027313,,,,,,,,,,,,,,,,,,,,,,,,,,,,,,,
Gravity,1.6820861649109143e+18,3.280914306640625,4.767287254333496,8.563528060913086,0.41840746998786926,,,,,,,,,,,,,,,,,,,,,,,,,,,,,,,
Gravity,1.6820861649277926e+18,3.297792724609375,4.294088840484619,8.809858322143555,0.4281550645828247,,,,,,,,,,,,,,,,,,,,,,,,,,,,,,,
Gravity,1.6820861649446618e+18,3.314661865234375,4.0212531089782715,8.940996170043945,0.35243919491767883,,,,,,,,,,,,,,,,,,,,,,,,,,,,,,,
Gravity,1.682086164961535e+18,3.331534912109375,4.001715183258057,8.95412826538086,0.21445512771606445,,,,,,,,,,,,,,,,,,,,,,,,,,,,,,,
Gravity,1.682086164978408e+18,3.348407958984375,4.265410900115967,8.834019660949707,0.04977501183748245,,,,,,,,,,,,,,,,,,,,,,,,,,,,,,,
Gravity,1.6820861649952804e+18,3.3652802734375,4.826481819152832,8.539026260375977,-0.16193543374538422,,,,,,,,,,,,,,,,,,,,,,,,,,,,,,,
Gravity,1.6820861650121551e+18,3.382155029296875,5.6681671142578125,7.994506359100342,-0.4425731301307678,,,,,,,,,,,,,,,,,,,,,,,,,,,,,,,
Gravity,1.6820861650290235e+18,3.3990234375,6.643268585205078,7.181194305419922,-0.7304385900497437,,,,,,,,,,,,,,,,,,,,,,,,,,,,,,,
Gravity,1.6820861650458875e+18,3.415887451171875,7.561322212219238,6.190173625946045,-0.8627061247825623,,,,,,,,,,,,,,,,,,,,,,,,,,,,,,,
Gravity,1.682086165062768e+18,3.43276806640625,8.200946807861328,5.324688911437988,-0.7926389575004578,,,,,,,,,,,,,,,,,,,,,,,,,,,,,,,
Gravity,1.6820861650796454e+18,3.4496455078125,8.298725128173828,5.1800384521484375,-0.731078565120697,,,,,,,,,,,,,,,,,,,,,,,,,,,,,,,
Gravity,1.6820861650965138e+18,3.466513671875,7.944512844085693,5.726880073547363,-0.5689159631729126,,,,,,,,,,,,,,,,,,,,,,,,,,,,,,,
Gravity,1.682086165113378e+18,3.4833779296875,7.261330604553223,6.588475227355957,-0.3181054890155792,,,,,,,,,,,,,,,,,,,,,,,,,,,,,,,
Gravity,1.6820861651302584e+18,3.500258544921875,6.365549564361572,7.46401309967041,-0.0663568377494812,,,,,,,,,,,,,,,,,,,,,,,,,,,,,,,
Gravity,1.682086165147137e+18,3.517136962890625,5.393739700317383,8.19245433807373,0.16544756293296814,,,,,,,,,,,,,,,,,,,,,,,,,,,,,,,
Gravity,1.682086165164008e+18,3.534008056640625,4.454368591308594,8.735161781311035,0.3027624189853668,,,,,,,,,,,,,,,,,,,,,,,,,,,,,,,
Gravity,1.6820861651808776e+18,3.550877685546875,3.6178133487701416,9.112493515014648,0.33168360590934753,,,,,,,,,,,,,,,,,,,,,,,,,,,,,,,
Gravity,1.6820861651977536e+18,3.567753662109375,2.8793246746063232,9.373581886291504,0.28563883900642395,,,,,,,,,,,,,,,,,,,,,,,,,,,,,,,
Gravity,1.6820861652146227e+18,3.584622802734375,2.2992165088653564,9.533897399902344,0.23349715769290924,,,,,,,,,,,,,,,,,,,,,,,,,,,,,,,
Gravity,1.6820861652314975e+18,3.60149755859375,1.9617424011230469,9.609524726867676,0.21143533289432526,,,,,,,,,,,,,,,,,,,,,,,,,,,,,,,
Gravity,1.6820861652483697e+18,3.61836962890625,1.9372539520263672,9.615392684936523,0.16545194387435913,,,,,,,,,,,,,,,,,,,,,,,,,,,,,,,
Gravity,1.68208616526524e+18,3.635239990234375,2.260629892349243,9.545896530151367,0.039185408502817154,,,,,,,,,,,,,,,,,,,,,,,,,,,,,,,
Gravity,1.682086165282117e+18,3.6521171875,2.9377527236938477,9.358467102050781,-0.15757077932357788,,,,,,,,,,,,,,,,,,,,,,,,,,,,,,,
Gravity,1.6820861652989878e+18,3.66898779296875,3.8787174224853516,9.004875183105469,-0.3222973644733429,,,,,,,,,,,,,,,,,,,,,,,,,,,,,,,
Gravity,1.6820861653158602e+18,3.685860107421875,4.919769287109375,8.475726127624512,-0.44050440192222595,,,,,,,,,,,,,,,,,,,,,,,,,,,,,,,
Gravity,1.6820861653327334e+18,3.7027333984375,5.861812114715576,7.851872444152832,-0.472626656293869,,,,,,,,,,,,,,,,,,,,,,,,,,,,,,,
Gravity,1.6820861653496056e+18,3.719605712890625,6.447970390319824,7.379668712615967,-0.4475269019603729,,,,,,,,,,,,,,,,,,,,,,,,,,,,,,,
Gravity,1.6820861653664748e+18,3.736474853515625,6.537797927856445,7.293428897857666,-0.5470038056373596,,,,,,,,,,,,,,,,,,,,,,,,,,,,,,,
Gravity,1.6820861653833508e+18,3.753350830078125,6.211320877075195,7.556978702545166,-0.7400496602058411,,,,,,,,,,,,,,,,,,,,,,,,,,,,,,,
Gravity,1.6820861654002237e+18,3.7702236328125,5.604508399963379,8.008212089538574,-0.8331405520439148,,,,,,,,,,,,,,,,,,,,,,,,,,,,,,,
Gravity,1.6820861654170854e+18,3.78708544921875,4.817407608032227,8.511680603027344,-0.7615671157836914,,,,,,,,,,,,,,,,,,,,,,,,,,,,,,,
Gravity,1.6820861654339505e+18,3.803950439453125,3.9105658531188965,8.977609634399414,-0.588314414024353,,,,,,,,,,,,,,,,,,,,,,,,,,,,,,,
Gravity,1.6820861654508416e+18,3.820841552734375,2.965700626373291,9.343491554260254,-0.3740209639072418,,,,,,,,,,,,,,,,,,,,,,,,,,,,,,,
Gravity,1.6820861654677043e+18,3.837704345703125,2.0623767375946045,9.589359283447266,-0.1640842854976654,,,,,,,,,,,,,,,,,,,,,,,,,,,,,,,
Gravity,1.6820861654845842e+18,3.854584228515625,1.2945783138275146,9.724115371704102,-0.04211194068193436,,,,,,,,,,,,,,,,,,,,,,,,,,,,,,,
Gravity,1.6820861655014628e+18,3.871462890625,0.728914201259613,9.7828369140625,-0.030542932450771332,,,,,,,,,,,,,,,,,,,,,,,,,,,,,,,
Gravity,1.682086165518334e+18,3.888333984375,0.3633480370044708,9.803053855895996,-0.06506402045488358,,,,,,,,,,,,,,,,,,,,,,,,,,,,,,,
Gravity,1.6820861655351982e+18,3.9051982421875,0.21585962176322937,9.806780815124512,-0.12870687246322632,,,,,,,,,,,,,,,,,,,,,,,,,,,,,,,
Gravity,1.6820861655520773e+18,3.922077392578125,0.3179332911968231,9.802300453186035,-0.22349871695041656,,,,,,,,,,,,,,,,,,,,,,,,,,,,,,,
Gravity,1.6820861655689398e+18,3.938939697265625,0.6791152358055115,9.780326843261719,-0.3466121554374695,,,,,,,,,,,,,,,,,,,,,,,,,,,,,,,
Gravity,1.6820861655858227e+18,3.95582275390625,1.302542805671692,9.711235046386719,-0.48105278611183167,,,,,,,,,,,,,,,,,,,,,,,,,,,,,,,
Gravity,1.6820861656026934e+18,3.972693359375,2.1395859718322754,9.555022239685059,-0.5998711585998535,,,,,,,,,,,,,,,,,,,,,,,,,,,,,,,
Gravity,1.682086165619561e+18,3.98956103515625,3.1128621101379395,9.277682304382324,-0.6861453652381897,,,,,,,,,,,,,,,,,,,,,,,,,,,,,,,
Gravity,1.6820861656364524e+18,4.006452392578125,4.134748935699463,8.865595817565918,-0.735628604888916,,,,,,,,,,,,,,,,,,,,,,,,,,,,,,,
Gravity,1.6820861656533133e+18,4.023313232421875,5.115293025970459,8.341788291931152,-0.6960397362709045,,,,,,,,,,,,,,,,,,,,,,,,,,,,,,,
Gravity,1.6820861656701757e+18,4.04017578125,5.854274749755859,7.850852012634277,-0.5724403858184814,,,,,,,,,,,,,,,,,,,,,,,,,,,,,,,
Gravity,1.6820861656870602e+18,4.057060302734375,6.218649864196777,7.572850704193115,-0.46522262692451477,,,,,,,,,,,,,,,,,,,,,,,,,,,,,,,
Gravity,1.682086165703932e+18,4.073931884765625,6.274202346801758,7.52557373046875,-0.4860401749610901,,,,,,,,,,,,,,,,,,,,,,,,,,,,,,,
Gravity,1.6820861657208038e+18,4.090803955078125,6.154722213745117,7.6181960105896,-0.5644466876983643,,,,,,,,,,,,,,,,,,,,,,,,,,,,,,,
Gravity,1.682086165737677e+18,4.107677001953125,5.970698356628418,7.7543721199035645,-0.6757133603096008,,,,,,,,,,,,,,,,,,,,,,,,,,,,,,,
Gravity,1.682086165754541e+18,4.124541015625,5.849002838134766,7.830646991729736,-0.840383768081665,,,,,,,,,,,,,,,,,,,,,,,,,,,,,,,
Gravity,1.6820861657714117e+18,4.14141162109375,5.824420928955078,7.816382884979248,-1.1028997898101807,,,,,,,,,,,,,,,,,,,,,,,,,,,,,,,
Gravity,1.682086165788284e+18,4.158283935546875,5.832551002502441,7.763442039489746,-1.3951466083526611,,,,,,,,,,,,,,,,,,,,,,,,,,,,,,,
Gravity,1.6820861658051653e+18,4.175165283203125,5.837423801422119,7.708387851715088,-1.6557031869888306,,,,,,,,,,,,,,,,,,,,,,,,,,,,,,,
Gravity,1.6820861658220534e+18,4.192053466796875,5.876694202423096,7.633478164672852,-1.8521851301193237,,,,,,,,,,,,,,,,,,,,,,,,,,,,,,,
Gravity,1.6820861658389112e+18,4.2089111328125,5.947383880615234,7.534172058105469,-2.0250885486602783,,,,,,,,,,,,,,,,,,,,,,,,,,,,,,,
Gravity,1.682086165855787e+18,4.225787109375,6.045632839202881,7.41145658493042,-2.180997848510742,,,,,,,,,,,,,,,,,,,,,,,,,,,,,,,
Gravity,1.6820861658726556e+18,4.242655517578125,6.192275524139404,7.268032550811768,-2.251119375228882,,,,,,,,,,,,,,,,,,,,,,,,,,,,,,,
Gravity,1.68208616588952e+18,4.25952001953125,6.36814022064209,7.104346752166748,-2.2827980518341064,,,,,,,,,,,,,,,,,,,,,,,,,,,,,,,
Gravity,1.682086165906404e+18,4.276404052734375,6.614503860473633,6.887604236602783,-2.2461893558502197,,,,,,,,,,,,,,,,,,,,,,,,,,,,,,,
Gravity,1.6820861659232758e+18,4.29327587890625,6.913444519042969,6.608452796936035,-2.183745861053467,,,,,,,,,,,,,,,,,,,,,,,,,,,,,,,
Gravity,1.6820861659401492e+18,4.310149169921875,7.237115383148193,6.281488418579102,-2.0983726978302,,,,,,,,,,,,,,,,,,,,,,,,,,,,,,,
Gravity,1.6820861659570214e+18,4.327021484375,7.547353744506836,5.9375715255737305,-2.0046956539154053,,,,,,,,,,,,,,,,,,,,,,,,,,,,,,,
Gravity,1.6820861659738944e+18,4.343894287109375,7.826716423034668,5.586833477020264,-1.940596103668213,,,,,,,,,,,,,,,,,,,,,,,,,,,,,,,
Gravity,1.6820861659907666e+18,4.3607666015625,8.091007232666016,5.214960098266602,-1.8910058736801147,,,,,,,,,,,,,,,,,,,,,,,,,,,,,,,
Gravity,1.6820861660076398e+18,4.377639892578125,8.375636100769043,4.789268970489502,-1.7741847038269043,,,,,,,,,,,,,,,,,,,,,,,,,,,,,,,
Gravity,1.6820861660245117e+18,4.39451171875,8.666769981384277,4.325483322143555,-1.5535101890563965,,,,,,,,,,,,,,,,,,,,,,,,,,,,,,,
Gravity,1.6820861660413852e+18,4.41138525390625,8.927334785461426,3.863352060317993,-1.2701596021652222,,,,,,,,,,,,,,,,,,,,,,,,,,,,,,,
Gravity,1.682086166058257e+18,4.4282568359375,9.146490097045898,3.4176230430603027,-0.947464108467102,,,,,,,,,,,,,,,,,,,,,,,,,,,,,,,
Gravity,1.6820861660751204e+18,4.445120361328125,9.306474685668945,3.030155658721924,-0.6661844253540039,,,,,,,,,,,,,,,,,,,,,,,,,,,,,,,
Gravity,1.6820861660920026e+18,4.46200244140625,9.405016899108887,2.764458656311035,-0.3735491633415222,,,,,,,,,,,,,,,,,,,,,,,,,,,,,,,
Gravity,1.6820861661088655e+18,4.478865478515625,9.453856468200684,2.618891477584839,-0.045984845608472824,,,,,,,,,,,,,,,,,,,,,,,,,,,,,,,
Gravity,1.6820861661257498e+18,4.495749755859375,9.469433784484863,2.5472676753997803,0.2781582772731781,,,,,,,,,,,,,,,,,,,,,,,,,,,,,,,
Gravity,1.6820861661426168e+18,4.512616943359375,9.468185424804688,2.5091350078582764,0.5420405864715576,,,,,,,,,,,,,,,,,,,,,,,,,,,,,,,
Gravity,1.6820861661594962e+18,4.52949609375,9.456354141235352,2.5022668838500977,0.7430666089057922,,,,,,,,,,,,,,,,,,,,,,,,,,,,,,,
Gravity,1.682086166176367e+18,4.5463671875,9.440150260925293,2.504253625869751,0.9210748076438904,,,,,,,,,,,,,,,,,,,,,,,,,,,,,,,
Gravity,1.6820861661932296e+18,4.5632294921875,9.437673568725586,2.451155185699463,1.0762320756912231,,,,,,,,,,,,,,,,,,,,,,,,,,,,,,,
Gravity,1.6820861662101138e+18,4.58011376953125,9.45908260345459,2.3085200786590576,1.1969108581542969,,,,,,,,,,,,,,,,,,,,,,,,,,,,,,,
Gravity,1.6820861662269737e+18,4.5969736328125,9.497079849243164,2.0889227390289307,1.2953730821609497,,,,,,,,,,,,,,,,,,,,,,,,,,,,,,,
Gravity,1.6820861662438574e+18,4.613857421875,9.537423133850098,1.8437528610229492,1.3690301179885864,,,,,,,,,,,,,,,,,,,,,,,,,,,,,,,
Gravity,1.68208616626073e+18,4.630730224609375,9.566341400146484,1.6250605583190918,1.442357063293457,,,,,,,,,,,,,,,,,,,,,,,,,,,,,,,
Gravity,1.6820861662776026e+18,4.6476025390625,9.578826904296875,1.4085592031478882,1.5805540084838867,,,,,,,,,,,,,,,,,,,,,,,,,,,,,,,
Gravity,1.6820861662944745e+18,4.664474609375,9.594256401062012,1.1864604949951172,1.6669316291809082,,,,,,,,,,,,,,,,,,,,,,,,,,,,,,,
Gravity,1.6820861663113487e+18,4.6813486328125,9.612425804138184,0.9786821603775024,1.6969245672225952,,,,,,,,,,,,,,,,,,,,,,,,,,,,,,,
Gravity,1.6820861663282204e+18,4.698220458984375,9.631892204284668,0.7911539673805237,1.6842880249023438,,,,,,,,,,,,,,,,,,,,,,,,,,,,,,,
Gravity,1.682086166345093e+18,4.715093017578125,9.651559829711914,0.6117905974388123,1.6459704637527466,,,,,,,,,,,,,,,,,,,,,,,,,,,,,,,
Gravity,1.6820861663619658e+18,4.7319658203125,9.669134140014648,0.44717472791671753,1.5949876308441162,,,,,,,,,,,,,,,,,,,,,,,,,,,,,,,
Gravity,1.6820861663788388e+18,4.7488388671875,9.677605628967285,0.35566818714141846,1.566383957862854,,,,,,,,,,,,,,,,,,,,,,,,,,,,,,,
Gravity,1.6820861663957002e+18,4.7657001953125,9.668498039245605,0.38949453830718994,1.6138614416122437,,,,,,,,,,,,,,,,,,,,,,,,,,,,,,,
Gravity,1.6820861664125821e+18,4.78258203125,9.643654823303223,0.5297542214393616,1.7191256284713745,,,,,,,,,,,,,,,,,,,,,,,,,,,,,,,
Gravity,1.6820861664294587e+18,4.799458740234375,9.613860130310059,0.7355446815490723,1.807977318763733,,,,,,,,,,,,,,,,,,,,,,,,,,,,,,,
Gravity,1.6820861664463268e+18,4.816326904296875,9.576162338256836,1.015589952468872,1.8713104724884033,,,,,,,,,,,,,,,,,,,,,,,,,,,,,,,
Gravity,1.6820861664632044e+18,4.833204345703125,9.525269508361816,1.3657644987106323,1.9078885316848755,,,,,,,,,,,,,,,,,,,,,,,,,,,,,,,
Gravity,1.682086166480075e+18,4.850074951171875,9.460851669311523,1.774679183959961,1.891799807548523,,,,,,,,,,,,,,,,,,,,,,,,,,,,,,,
Gravity,1.6820861664969472e+18,4.866947265625,9.371543884277344,2.235351085662842,1.847563624382019,,,,,,,,,,,,,,,,,,,,,,,,,,,,,,,
Gravity,1.682086166513824e+18,4.883823974609375,9.249568939208984,2.7456231117248535,1.7728897333145142,,,,,,,,,,,,,,,,,,,,,,,,,,,,,,,
Gravity,1.6820861665306883e+18,4.900688232421875,9.12177562713623,3.2629716396331787,1.5434796810150146,,,,,,,,,,,,,,,,,,,,,,,,,,,,,,,
Gravity,1.6820861665475643e+18,4.917564208984375,8.979113578796387,3.75264310836792,1.2366502285003662,,,,,,,,,,,,,,,,,,,,,,,,,,,,,,,
Gravity,1.6820861665644406e+18,4.934440673828125,8.809965133666992,4.228949069976807,0.8582615256309509,,,,,,,,,,,,,,,,,,,,,,,,,,,,,,,
Gravity,1.682086166581311e+18,4.95131103515625,8.615996360778809,4.6707305908203125,0.43011346459388733,,,,,,,,,,,,,,,,,,,,,,,,,,,,,,,
Gravity,1.6820861665981832e+18,4.96818310546875,8.399003982543945,5.068808555603027,-0.0030604328494518995,,,,,,,,,,,,,,,,,,,,,,,,,,,,,,,
Gravity,1.682086166615057e+18,4.985056884765625,8.165507316589355,5.419554233551025,-0.43479180335998535,,,,,,,,,,,,,,,,,,,,,,,,,,,,,,,
Gravity,1.6820861666319288e+18,5.0019287109375,7.923485279083252,5.719367504119873,-0.862165093421936,,,,,,,,,,,,,,,,,,,,,,,,,,,,,,,
Gravity,1.682086166648802e+18,5.018802001953125,8.008030891418457,5.493893146514893,-1.3873283863067627,,,,,,,,,,,,,,,,,,,,,,,,,,,,,,,
Gravity,1.6820861666656742e+18,5.03567431640625,8.527613639831543,4.7151618003845215,-1.1327694654464722,,,,,,,,,,,,,,,,,,,,,,,,,,,,,,,
Gravity,1.6820861666825446e+18,5.052544677734375,8.865588188171387,3.9398043155670166,-1.4544408321380615,,,,,,,,,,,,,,,,,,,,,,,,,,,,,,,
Gravity,1.682086166699422e+18,5.069421875,8.914557456970215,3.3743584156036377,-2.3195865154266357,,,,,,,,,,,,,,,,,,,,,,,,,,,,,,,
Gravity,1.6820861667162926e+18,5.086292724609375,8.892558097839355,2.9275009632110596,-2.930572509765625,,,,,,,,,,,,,,,,,,,,,,,,,,,,,,,
Gravity,1.682086166733165e+18,5.1031650390625,9.012835502624512,2.5086333751678467,-2.951552391052246,,,,,,,,,,,,,,,,,,,,,,,,,,,,,,,
Gravity,1.682086166750019e+18,5.12001904296875,9.208700180053711,2.219057083129883,-2.551809549331665,,,,,,,,,,,,,,,,,,,,,,,,,,,,,,,
Gravity,1.6820861667668997e+18,5.136899658203125,9.326050758361816,2.102931261062622,-2.199671983718872,,,,,,,,,,,,,,,,,,,,,,,,,,,,,,,
Gravity,1.6820861667837732e+18,5.153773193359375,9.301653861999512,2.1331729888916016,-2.2726454734802246,,,,,,,,,,,,,,,,,,,,,,,,,,,,,,,
Gravity,1.6820861668006423e+18,5.170642333984375,9.209091186523438,2.269768238067627,-2.505373239517212,,,,,,,,,,,,,,,,,,,,,,,,,,,,,,,
Gravity,1.6820861668175314e+18,5.187531494140625,9.147046089172363,2.496593952178955,-2.5168776512145996,,,,,,,,,,,,,,,,,,,,,,,,,,,,,,,
Gravity,1.6820861668344028e+18,5.20440283203125,9.11423110961914,2.791090250015259,-2.3187737464904785,,,,,,,,,,,,,,,,,,,,,,,,,,,,,,,
Gravity,1.6820861668512627e+18,5.2212626953125,9.057474136352539,3.1203813552856445,-2.1122241020202637,,,,,,,,,,,,,,,,,,,,,,,,,,,,,,,
Gravity,1.682086166868144e+18,5.23814404296875,8.975916862487793,3.4225823879241943,-1.9887080192565918,,,,,,,,,,,,,,,,,,,,,,,,,,,,,,,
Gravity,1.6820861668850225e+18,5.2550224609375,8.910133361816406,3.636216640472412,-1.903562068939209,,,,,,,,,,,,,,,,,,,,,,,,,,,,,,,
Gravity,1.6820861669018918e+18,5.271891845703125,8.889307975769043,3.710972309112549,-1.8560714721679688,,,,,,,,,,,,,,,,,,,,,,,,,,,,,,,
Gravity,1.6820861669187546e+18,5.288754638671875,8.921671867370605,3.63316011428833,-1.8547357320785522,,,,,,,,,,,,,,,,,,,,,,,,,,,,,,,
Gravity,1.6820861669356375e+18,5.305637451171875,8.998994827270508,3.427175760269165,-1.8731410503387451,,,,,,,,,,,,,,,,,,,,,,,,,,,,,,,
Gravity,1.6820861669524972e+18,5.3224970703125,9.0900297164917,3.1385557651519775,-1.9382801055908203,,,,,,,,,,,,,,,,,,,,,,,,,,,,,,,
Gravity,1.6820861669693855e+18,5.339385498046875,9.165884017944336,2.802222728729248,-2.0905086994171143,,,,,,,,,,,,,,,,,,,,,,,,,,,,,,,
Gravity,1.6820861669862564e+18,5.35625634765625,9.207718849182129,2.4532549381256104,-2.331432580947876,,,,,,,,,,,,,,,,,,,,,,,,,,,,,,,
Gravity,1.682086167003128e+18,5.373128173828125,9.20904541015625,2.1481640338897705,-2.610550880432129,,,,,,,,,,,,,,,,,,,,,,,,,,,,,,,
Gravity,1.6820861670200013e+18,5.390001220703125,9.16600513458252,1.9444109201431274,-2.9051198959350586,,,,,,,,,,,,,,,,,,,,,,,,,,,,,,,
Gravity,1.682086167036863e+18,5.406863037109375,9.055865287780762,1.8631666898727417,-3.279637336730957,,,,,,,,,,,,,,,,,,,,,,,,,,,,,,,
Gravity,1.6820861670537467e+18,5.42374658203125,8.890462875366211,1.9309027194976807,-3.6697943210601807,,,,,,,,,,,,,,,,,,,,,,,,,,,,,,,
Gravity,1.6820861670706127e+18,5.44061279296875,8.706704139709473,2.173173666000366,-3.963172197341919,,,,,,,,,,,,,,,,,,,,,,,,,,,,,,,
Gravity,1.6820861670874924e+18,5.457492431640625,8.512482643127441,2.59136962890625,-4.130199432373047,,,,,,,,,,,,,,,,,,,,,,,,,,,,,,,
Gravity,1.6820861671043523e+18,5.474352294921875,8.299832344055176,3.1396427154541016,-4.182287216186523,,,,,,,,,,,,,,,,,,,,,,,,,,,,,,,
Gravity,1.6820861671212378e+18,5.49123779296875,8.113615989685059,3.74722957611084,-4.045196533203125,,,,,,,,,,,,,,,,,,,,,,,,,,,,,,,
Gravity,1.6820861671380992e+18,5.50809912109375,8.014623641967773,4.329885959625244,-3.640603542327881,,,,,,,,,,,,,,,,,,,,,,,,,,,,,,,
Gravity,1.6820861671549814e+18,5.5249814453125,7.992783546447754,4.865583419799805,-2.945779800415039,,,,,,,,,,,,,,,,,,,,,,,,,,,,,,,
Gravity,1.6820861671718566e+18,5.541856689453125,7.928204536437988,5.375662326812744,-2.1170594692230225,,,,,,,,,,,,,,,,,,,,,,,,,,,,,,,
Gravity,1.682086167188726e+18,5.55872607421875,7.778946399688721,5.841825485229492,-1.2637945413589478,,,,,,,,,,,,,,,,,,,,,,,,,,,,,,,
Gravity,1.682086167205603e+18,5.57560302734375,7.732480525970459,6.034253120422363,-0.18067488074302673,,,,,,,,,,,,,,,,,,,,,,,,,,,,,,,
Gravity,1.6820861672224707e+18,5.592470703125,8.041543960571289,5.609042644500732,0.3291090726852417,,,,,,,,,,,,,,,,,,,,,,,,,,,,,,,
Gravity,1.6820861672393498e+18,5.609349853515625,8.364896774291992,5.01635217666626,1.0492005348205566,,,,,,,,,,,,,,,,,,,,,,,,,,,,,,,
Gravity,1.6820861672562194e+18,5.626219482421875,8.650238037109375,4.2751569747924805,1.7698973417282104,,,,,,,,,,,,,,,,,,,,,,,,,,,,,,,
Gravity,1.6820861672730903e+18,5.64309033203125,8.873483657836914,3.440990924835205,2.378441333770752,,,,,,,,,,,,,,,,,,,,,,,,,,,,,,,
Gravity,1.6820861672899645e+18,5.659964599609375,9.009188652038574,2.6640193462371826,2.8237600326538086,,,,,,,,,,,,,,,,,,,,,,,,,,,,,,,
Gravity,1.6820861673068265e+18,5.676826416015625,9.065293312072754,2.063359260559082,3.130352258682251,,,,,,,,,,,,,,,,,,,,,,,,,,,,,,,
Gravity,1.6820861673237107e+18,5.693710693359375,9.074581146240234,1.6677830219268799,3.332653522491455,,,,,,,,,,,,,,,,,,,,,,,,,,,,,,,
Gravity,1.6820861673405827e+18,5.710582763671875,9.084678649902344,1.4613945484161377,3.40132999420166,,,,,,,,,,,,,,,,,,,,,,,,,,,,,,,
Gravity,1.6820861673574556e+18,5.72745556640625,9.074670791625977,1.4545190334320068,3.430864095687866,,,,,,,,,,,,,,,,,,,,,,,,,,,,,,,
Gravity,1.6820861673743278e+18,5.744327880859375,9.053839683532715,1.582620620727539,3.429198980331421,,,,,,,,,,,,,,,,,,,,,,,,,,,,,,,
Gravity,1.682086167391201e+18,5.761200927734375,9.017441749572754,1.7708404064178467,3.433072328567505,,,,,,,,,,,,,,,,,,,,,,,,,,,,,,,
Gravity,1.6820861674080732e+18,5.7780732421875,8.991379737854004,1.9939072132110596,3.3786885738372803,,,,,,,,,,,,,,,,,,,,,,,,,,,,,,,
Gravity,1.6820861674249577e+18,5.794957763671875,8.985313415527344,2.2053372859954834,3.2614002227783203,,,,,,,,,,,,,,,,,,,,,,,,,,,,,,,
Gravity,1.6820861674418194e+18,5.8118193359375,8.985442161560059,2.3560879230499268,3.1538515090942383,,,,,,,,,,,,,,,,,,,,,,,,,,,,,,,
Gravity,1.682086167458692e+18,5.828692138671875,9.010543823242188,2.423337936401367,3.028801441192627,,,,,,,,,,,,,,,,,,,,,,,,,,,,,,,
Gravity,1.682086167475562e+18,5.84556201171875,9.068755149841309,2.424915075302124,2.848435163497925,,,,,,,,,,,,,,,,,,,,,,,,,,,,,,,
Gravity,1.6820861674924375e+18,5.8624375,9.139742851257324,2.3731985092163086,2.6587841510772705,,,,,,,,,,,,,,,,,,,,,,,,,,,,,,,
Gravity,1.6820861675093135e+18,5.8793134765625,9.194560050964355,2.2728188037872314,2.555476665496826,,,,,,,,,,,,,,,,,,,,,,,,,,,,,,,
Gravity,1.6820861675261788e+18,5.8961787109375,9.225564002990723,2.1349599361419678,2.5626206398010254,,,,,,,,,,,,,,,,,,,,,,,,,,,,,,,
Gravity,1.6820861675430548e+18,5.913054931640625,9.25027084350586,1.9719725847244263,2.603830099105835,,,,,,,,,,,,,,,,,,,,,,,,,,,,,,,
Gravity,1.682086167559931e+18,5.929930908203125,9.281808853149414,1.8103015422821045,2.6090104579925537,,,,,,,,,,,,,,,,,,,,,,,,,,,,,,,
Gravity,1.6820861675767908e+18,5.946790771484375,9.310728073120117,1.6804611682891846,2.592777967453003,,,,,,,,,,,,,,,,,,,,,,,,,,,,,,,
Gravity,1.682086167593673e+18,5.9636728515625,9.322563171386719,1.6055153608322144,2.59773850440979,,,,,,,,,,,,,,,,,,,,,,,,,,,,,,,
Gravity,1.6820861676105462e+18,5.980546142578125,9.302886962890625,1.6098356246948242,2.66473650932312,,,,,,,,,,,,,,,,,,,,,,,,,,,,,,,
Gravity,1.6820861676274194e+18,5.99741943359375,9.252286911010742,1.7049000263214111,2.7793185710906982,,,,,,,,,,,,,,,,,,,,,,,,,,,,,,,
Gravity,1.6820861676442913e+18,6.014291259765625,9.175434112548828,1.8867406845092773,2.9133715629577637,,,,,,,,,,,,,,,,,,,,,,,,,,,,,,,
Gravity,1.6820861676611648e+18,6.031164794921875,9.094954490661621,2.155310869216919,2.9786829948425293,,,,,,,,,,,,,,,,,,,,,,,,,,,,,,,
Gravity,1.682086167678037e+18,6.048037109375,9.042046546936035,2.548065423965454,2.8257510662078857,,,,,,,,,,,,,,,,,,,,,,,,,,,,,,,
Gravity,1.6820861676949076e+18,6.06490771484375,9.020339012145996,3.0766758918762207,2.324577569961548,,,,,,,,,,,,,,,,,,,,,,,,,,,,,,,
Gravity,1.6820861677117752e+18,6.081775146484375,8.967427253723145,3.6931910514831543,1.4770517349243164,,,,,,,,,,,,,,,,,,,,,,,,,,,,,,,
Gravity,1.6820861677286556e+18,6.098655517578125,8.786094665527344,4.3351850509643555,0.49681833386421204,,,,,,,,,,,,,,,,,,,,,,,,,,,,,,,
Gravity,1.6820861677455278e+18,6.11552783203125,8.453879356384277,4.957084655761719,-0.4419695734977722,,,,,,,,,,,,,,,,,,,,,,,,,,,,,,,
Gravity,1.6820861677623964e+18,6.132396484375,7.991766452789307,5.5313801765441895,-1.3310178518295288,,,,,,,,,,,,,,,,,,,,,,,,,,,,,,,
Gravity,1.682086167779267e+18,6.14926708984375,8.019083976745605,5.470510005950928,-1.4155977964401245,,,,,,,,,,,,,,,,,,,,,,,,,,,,,,,
Gravity,1.6820861677961467e+18,6.166146728515625,8.461750030517578,4.807144641876221,-1.2354187965393066,,,,,,,,,,,,,,,,,,,,,,,,,,,,,,,
Gravity,1.682086167813019e+18,6.183018798828125,8.786038398742676,3.9782731533050537,-1.7930384874343872,,,,,,,,,,,,,,,,,,,,,,,,,,,,,,,
Gravity,1.6820861678298895e+18,6.1998896484375,8.999271392822266,3.1901559829711914,-2.2521398067474365,,,,,,,,,,,,,,,,,,,,,,,,,,,,,,,
Gravity,1.6820861678467564e+18,6.21675634765625,9.131659507751465,2.5432355403900146,-2.526035785675049,,,,,,,,,,,,,,,,,,,,,,,,,,,,,,,
Gravity,1.6820861678636344e+18,6.233634521484375,9.189769744873047,2.0726187229156494,-2.736510753631592,,,,,,,,,,,,,,,,,,,,,,,,,,,,,,,
Gravity,1.6820861678805123e+18,6.25051220703125,9.210883140563965,1.7473397254943848,-2.888345718383789,,,,,,,,,,,,,,,,,,,,,,,,,,,,,,,
Gravity,1.682086167897383e+18,6.2673828125,9.181719779968262,1.5902751684188843,-3.0664572715759277,,,,,,,,,,,,,,,,,,,,,,,,,,,,,,,
Gravity,1.682086167914255e+18,6.284255126953125,9.123066902160645,1.567305326461792,-3.2479705810546875,,,,,,,,,,,,,,,,,,,,,,,,,,,,,,,
Gravity,1.6820861679311286e+18,6.301128662109375,9.111780166625977,1.5806946754455566,-3.2730696201324463,,,,,,,,,,,,,,,,,,,,,,,,,,,,,,,
Gravity,1.6820861679480008e+18,6.318000732421875,9.123937606811523,1.6279786825180054,-3.215519905090332,,,,,,,,,,,,,,,,,,,,,,,,,,,,,,,
Gravity,1.6820861679648737e+18,6.334873779296875,9.147772789001465,1.7030268907546997,-3.1070985794067383,,,,,,,,,,,,,,,,,,,,,,,,,,,,,,,
Gravity,1.682086167981746e+18,6.351745849609375,9.183319091796875,1.7525192499160767,-2.9717750549316406,,,,,,,,,,,,,,,,,,,,,,,,,,,,,,,
Gravity,1.6820861679986086e+18,6.368608642578125,9.22189998626709,1.7505728006362915,-2.850994348526001,,,,,,,,,,,,,,,,,,,,,,,,,,,,,,,
Gravity,1.6820861680154918e+18,6.385491943359375,9.252815246582031,1.6940033435821533,-2.7842156887054443,,,,,,,,,,,,,,,,,,,,,,,,,,,,,,,
Gravity,1.6820861680323543e+18,6.402354248046875,9.276844024658203,1.5859287977218628,-2.767868995666504,,,,,,,,,,,,,,,,,,,,,,,,,,,,,,,
Gravity,1.6820861680492372e+18,6.4192373046875,9.295530319213867,1.4471029043197632,-2.7812063694000244,,,,,,,,,,,,,,,,,,,,,,,,,,,,,,,
Gravity,1.682086168066092e+18,6.436092041015625,9.292778015136719,1.3076249361038208,-2.8584096431732178,,,,,,,,,,,,,,,,,,,,,,,,,,,,,,,
Gravity,1.6820861680829824e+18,6.452982421875,9.257076263427734,1.1898653507232666,-3.0210702419281006,,,,,,,,,,,,,,,,,,,,,,,,,,,,,,,
Gravity,1.6820861680998374e+18,6.46983740234375,9.208921432495117,1.1267390251159668,-3.1878390312194824,,,,,,,,,,,,,,,,,,,,,,,,,,,,,,,
Gravity,1.6820861681167173e+18,6.48671728515625,9.151604652404785,1.1533801555633545,-3.339754104614258,,,,,,,,,,,,,,,,,,,,,,,,,,,,,,,
Gravity,1.6820861681336008e+18,6.503600830078125,9.070918083190918,1.2835798263549805,-3.5081307888031006,,,,,,,,,,,,,,,,,,,,,,,,,,,,,,,
Gravity,1.6820861681504768e+18,6.520476806640625,8.964061737060547,1.5128045082092285,-3.686884880065918,,,,,,,,,,,,,,,,,,,,,,,,,,,,,,,
Gravity,1.6820861681673439e+18,6.53734375,8.837621688842773,1.828723669052124,-3.84555983543396,,,,,,,,,,,,,,,,,,,,,,,,,,,,,,,
Gravity,1.6820861681842163e+18,6.55421630859375,8.727869987487793,2.2112276554107666,-3.8949790000915527,,,,,,,,,,,,,,,,,,,,,,,,,,,,,,,
Gravity,1.6820861682010947e+18,6.5710947265625,8.707608222961426,2.637223958969116,-3.668612480163574,,,,,,,,,,,,,,,,,,,,,,,,,,,,,,,
Gravity,1.6820861682179643e+18,6.58796435546875,8.784217834472656,3.0842723846435547,-3.092068672180176,,,,,,,,,,,,,,,,,,,,,,,,,,,,,,,
Gravity,1.6820861682348273e+18,6.6048271484375,8.880694389343262,3.535646677017212,-2.206486701965332,,,,,,,,,,,,,,,,,,,,,,,,,,,,,,,
Gravity,1.6820861682517102e+18,6.621710205078125,8.886554718017578,4.017230033874512,-1.0616599321365356,,,,,,,,,,,,,,,,,,,,,,,,,,,,,,,
Gravity,1.6820861682685832e+18,6.638583251953125,8.726137161254883,4.481294631958008,0.09295114129781723,,,,,,,,,,,,,,,,,,,,,,,,,,,,,,,
Gravity,1.6820861682854554e+18,6.655455322265625,8.42924690246582,4.884860992431641,1.149795413017273,,,,,,,,,,,,,,,,,,,,,,,,,,,,,,,
Gravity,1.6820861683023288e+18,6.672328857421875,8.542431831359863,4.750212669372559,0.8357282280921936,,,,,,,,,,,,,,,,,,,,,,,,,,,,,,,
Gravity,1.682086168319201e+18,6.689200927734375,8.660496711730957,4.576807022094727,0.5336147546768188,,,,,,,,,,,,,,,,,,,,,,,,,,,,,,,
Gravity,1.682086168336074e+18,6.706073974609375,8.75112247467041,4.432525157928467,0.08177448064088821,,,,,,,,,,,,,,,,,,,,,,,,,,,,,,,
Gravity,1.6820861683529382e+18,6.722938232421875,8.80555534362793,4.292142868041992,-0.5251873135566711,,,,,,,,,,,,,,,,,,,,,,,,,,,,,,,
Gravity,1.68208616836982e+18,6.73981982421875,8.79889965057373,4.178249359130859,-1.1652019023895264,,,,,,,,,,,,,,,,,,,,,,,,,,,,,,,
Gravity,1.6820861683866985e+18,6.756698486328125,8.863533973693848,4.004780292510986,-1.2789100408554077,,,,,,,,,,,,,,,,,,,,,,,,,,,,,,,
Gravity,1.6820861684035653e+18,6.7735654296875,9.1101655960083,3.5871293544769287,-0.6111451387405396,,,,,,,,,,,,,,,,,,,,,,,,,,,,,,,
Gravity,1.6820861684204252e+18,6.79042529296875,9.326354026794434,3.041868209838867,0.04748626425862312,,,,,,,,,,,,,,,,,,,,,,,,,,,,,,,
Gravity,1.6820861684373123e+18,6.807312255859375,9.475231170654297,2.4873340129852295,0.5189134478569031,,,,,,,,,,,,,,,,,,,,,,,,,,,,,,,
Gravity,1.682086168454181e+18,6.82418115234375,9.562710762023926,2.024078607559204,0.8329331278800964,,,,,,,,,,,,,,,,,,,,,,,,,,,,,,,
Gravity,1.6820861684710564e+18,6.841056396484375,9.600659370422363,1.7226166725158691,1.0469220876693726,,,,,,,,,,,,,,,,,,,,,,,,,,,,,,,
Gravity,1.6820861684879194e+18,6.85791943359375,9.61889934539795,1.6024256944656372,1.0701016187667847,,,,,,,,,,,,,,,,,,,,,,,,,,,,,,,
Gravity,1.6820861685047982e+18,6.874798095703125,9.640544891357422,1.5908583402633667,0.874739408493042,,,,,,,,,,,,,,,,,,,,,,,,,,,,,,,
Gravity,1.6820861685216778e+18,6.891677734375,9.65032958984375,1.6319336891174316,0.6663652658462524,,,,,,,,,,,,,,,,,,,,,,,,,,,,,,,
Gravity,1.6820861685385472e+18,6.908547119140625,9.652667999267578,1.6741389036178589,0.509295642375946,,,,,,,,,,,,,,,,,,,,,,,,,,,,,,,
Gravity,1.6820861685554194e+18,6.92541943359375,9.657343864440918,1.678545594215393,0.39281538128852844,,,,,,,,,,,,,,,,,,,,,,,,,,,,,,,
Gravity,1.6820861685722926e+18,6.942292724609375,9.668959617614746,1.6319019794464111,0.29022297263145447,,,,,,,,,,,,,,,,,,,,,,,,,,,,,,,
Gravity,1.682086168589154e+18,6.959154052734375,9.687665939331055,1.5295215845108032,0.21400868892669678,,,,,,,,,,,,,,,,,,,,,,,,,,,,,,,
Gravity,1.6820861686060385e+18,6.97603857421875,9.711565971374512,1.3750368356704712,0.17570112645626068,,,,,,,,,,,,,,,,,,,,,,,,,,,,,,,
Gravity,1.6820861686229107e+18,6.99291064453125,9.736162185668945,1.1885489225387573,0.17495985329151154,,,,,,,,,,,,,,,,,,,,,,,,,,,,,,,
Gravity,1.682086168639781e+18,7.009781005859375,9.75669002532959,1.0037217140197754,0.18884804844856262,,,,,,,,,,,,,,,,,,,,,,,,,,,,,,,
Gravity,1.6820861686566497e+18,7.026649658203125,9.76979923248291,0.860942542552948,0.2142416387796402,,,,,,,,,,,,,,,,,,,,,,,,,,,,,,,
Gravity,1.682086168673529e+18,7.043529052734375,9.77411937713623,0.7920942902565002,0.2744101881980896,,,,,,,,,,,,,,,,,,,,,,,,,,,,,,,
Gravity,1.6820861686904013e+18,7.0604013671875,9.769139289855957,0.8034983277320862,0.39294877648353577,,,,,,,,,,,,,,,,,,,,,,,,,,,,,,,
Gravity,1.6820861687072753e+18,7.077275146484375,9.754737854003906,0.8908186554908752,0.5363271832466125,,,,,,,,,,,,,,,,,,,,,,,,,,,,,,,
Gravity,1.6820861687241462e+18,7.094146240234375,9.73070240020752,1.0499866008758545,0.6686289310455322,,,,,,,,,,,,,,,,,,,,,,,,,,,,,,,
Gravity,1.6820861687410289e+18,7.11102880859375,9.692453384399414,1.2677041292190552,0.8278746008872986,,,,,,,,,,,,,,,,,,,,,,,,,,,,,,,
Gravity,1.6820861687578929e+18,7.127892822265625,9.63776969909668,1.5296825170516968,1.004776120185852,,,,,,,,,,,,,,,,,,,,,,,,,,,,,,,
Gravity,1.6820861687747656e+18,7.144765625,9.570672988891602,1.8275482654571533,1.139467477798462,,,,,,,,,,,,,,,,,,,,,,,,,,,,,,,
Gravity,1.6820861687916372e+18,7.16163720703125,9.491220474243164,2.1493208408355713,1.2382534742355347,,,,,,,,,,,,,,,,,,,,,,,,,,,,,,,
Gravity,1.682086168808521e+18,7.17852099609375,9.41694164276123,2.4918203353881836,1.1610934734344482,,,,,,,,,,,,,,,,,,,,,,,,,,,,,,,
Gravity,1.6820861688253814e+18,7.19538134765625,9.344388008117676,2.8702545166015625,0.8247164487838745,,,,,,,,,,,,,,,,,,,,,,,,,,,,,,,
Gravity,1.6820861688422566e+18,7.212256591796875,9.245063781738281,3.274610996246338,0.20453034341335297,,,,,,,,,,,,,,,,,,,,,,,,,,,,,,,
Gravity,1.6820861688591293e+18,7.22912939453125,9.067056655883789,3.6737594604492188,-0.7266908288002014,,,,,,,,,,,,,,,,,,,,,,,,,,,,,,,
Gravity,1.682086168876006e+18,7.246005859375,8.754376411437988,4.056032180786133,-1.773582935333252,,,,,,,,,,,,,,,,,,,,,,,,,,,,,,,
Gravity,1.682086168892874e+18,7.2628740234375,8.30805492401123,4.419665813446045,-2.7710800170898438,,,,,,,,,,,,,,,,,,,,,,,,,,,,,,,
Gravity,1.6820861689097477e+18,7.279747802734375,7.909708499908447,4.625321388244629,-3.5041446685791016,,,,,,,,,,,,,,,,,,,,,,,,,,,,,,,
Gravity,1.682086168926603e+18,7.29660302734375,8.046346664428711,4.201205730438232,-3.7205214500427246,,,,,,,,,,,,,,,,,,,,,,,,,,,,,,,
Gravity,1.6820861689434936e+18,7.31349365234375,8.06573486328125,3.6986238956451416,-4.183326244354248,,,,,,,,,,,,,,,,,,,,,,,,,,,,,,,
Gravity,1.6820861689603658e+18,7.33036572265625,8.207889556884766,3.128225326538086,-4.368165493011475,,,,,,,,,,,,,,,,,,,,,,,,,,,,,,,
Gravity,1.6820861689772388e+18,7.34723876953125,8.510135650634766,2.542543649673462,-4.165233135223389,,,,,,,,,,,,,,,,,,,,,,,,,,,,,,,
Gravity,1.6820861689941112e+18,7.364111328125,8.816650390625,1.976582646369934,-3.8204598426818848,,,,,,,,,,,,,,,,,,,,,,,,,,,,,,,
Gravity,1.6820861690109852e+18,7.380985107421875,8.979449272155762,1.4722216129302979,-3.665809392929077,,,,,,,,,,,,,,,,,,,,,,,,,,,,,,,
Gravity,1.682086169027857e+18,7.39785693359375,9.047452926635742,1.06834077835083,-3.6384546756744385,,,,,,,,,,,,,,,,,,,,,,,,,,,,,,,
Gravity,1.6820861690447299e+18,7.414729736328125,9.012856483459473,0.8004952669143677,-3.789952516555786,,,,,,,,,,,,,,,,,,,,,,,,,,,,,,,
Gravity,1.682086169061593e+18,7.431593017578125,8.781902313232422,0.7542708516120911,-4.306434154510498,,,,,,,,,,,,,,,,,,,,,,,,,,,,,,,
Gravity,1.6820861690784755e+18,7.4484755859375,8.586981773376465,0.7602781057357788,-4.682074546813965,,,,,,,,,,,,,,,,,,,,,,,,,,,,,,,
Gravity,1.6820861690953372e+18,7.465337158203125,8.67052936553955,0.732580840587616,-4.5300493240356445,,,,,,,,,,,,,,,,,,,,,,,,,,,,,,,
Gravity,1.6820861691122214e+18,7.482221435546875,8.84634780883789,0.7103497385978699,-4.180148124694824,,,,,,,,,,,,,,,,,,,,,,,,,,,,,,,
Gravity,1.6820861691290934e+18,7.49909326171875,8.999053955078125,0.6803038120269775,-3.8458192348480225,,,,,,,,,,,,,,,,,,,,,,,,,,,,,,,
Gravity,1.6820861691459666e+18,7.515966552734375,9.08661937713623,0.6109837889671326,-3.646387815475464,,,,,,,,,,,,,,,,,,,,,,,,,,,,,,,
Gravity,1.6820861691628393e+18,7.53283935546875,9.107933044433594,0.5252748727798462,-3.606348752975464,,,,,,,,,,,,,,,,,,,,,,,,,,,,,,,
Gravity,1.6820861691797092e+18,7.549709228515625,9.103489875793457,0.4497886002063751,-3.627708911895752,,,,,,,,,,,,,,,,,,,,,,,,,,,,,,,
Gravity,1.682086169196587e+18,7.5665869140625,9.059925079345703,0.48039600253105164,-3.7313663959503174,,,,,,,,,,,,,,,,,,,,,,,,,,,,,,,
Gravity,1.6820861692134584e+18,7.58345849609375,9.022113800048828,0.6307339072227478,-3.7999675273895264,,,,,,,,,,,,,,,,,,,,,,,,,,,,,,,
Gravity,1.6820861692303293e+18,7.600329345703125,9.00175666809082,0.630429744720459,-3.847991466522217,,,,,,,,,,,,,,,,,,,,,,,,,,,,,,,
Gravity,1.6820861692472036e+18,7.61720361328125,8.931533813476562,0.6080595850944519,-4.011743068695068,,,,,,,,,,,,,,,,,,,,,,,,,,,,,,,
Gravity,1.6820861692640755e+18,7.634075439453125,8.892635345458984,0.584504246711731,-4.10067081451416,,,,,,,,,,,,,,,,,,,,,,,,,,,,,,,
Gravity,1.6820861692809487e+18,7.65094873046875,8.891379356384277,0.6130988597869873,-4.099218845367432,,,,,,,,,,,,,,,,,,,,,,,,,,,,,,,
