sensor,time,seconds_elapsed,z,y,x,relativeAltitude,pressure,batteryLevel,batteryState,lowPowerMode,brightness,lux,bearingAccuracy,speedAccuracy,verticalAccuracy,horizontalAccuracy,speed,bearing,altitude,longitude,latitude,version,device name,recording time,platform,appVersion,device id,sensors,sampleRateMs,qz,qy,qx,qw,roll,pitch,yaw
Accelerometer,1.6820861618232164e+18,0.19321630859375,-2.378660202026367,0.4360170364379883,-0.3825265169143677,,,,,,,,,,,,,,,,,,,,,,,,,,,,,,,
Accelerometer,1.6820861618401106e+18,0.210110595703125,-3.8083174228668213,-0.2539558410644531,0.3374050259590149,,,,,,,,,,,,,,,,,,,,,,,,,,,,,,,
Accelerometer,1.68208616185698e+18,0.22697998046875,-4.566189289093018,-0.4483351707458496,0.1900426149368286,,,,,,,,,,,,,,,,,,,,,,,,,,,,,,,
Accelerometer,1.6820861618738437e+18,0.24384375,-4.8339033126831055,-0.7864513397216797,0.6736291646957397,,,,,,,,,,,,,,,,,,,,,,,,,,,,,,,
Accelerometer,1.6820861618907297e+18,0.260729736328125,-5.455615997314453,-1.4879775047302246,0.6057825088500977,,,,,,,,,,,,,,,,,,,,,,,,,,,,,,,
Accelerometer,1.6820861619075994e+18,0.277599365234375,-5.715498924255371,-2.424124240875244,0.8525052070617676,,,,,,,,,,,,,,,,,,,,,,,,,,,,,,,
Accelerometer,1.682086161924472e+18,0.29447216796875,-5.532558441162109,-2.6516594886779785,1.4114158153533936,,,,,,,,,,,,,,,,,,,,,,,,,,,,,,,
Accelerometer,1.6820861619413443e+18,0.31134423828125,-4.383407115936279,-1.7092490196228027,2.022683620452881,,,,,,,,,,,,,,,,,,,,,,,,,,,,,,,
Accelerometer,1.6820861619582172e+18,0.32821728515625,-0.24991607666015625,0.37233400344848633,1.2929655313491821,,,,,,,,,,,,,,,,,,,,,,,,,,,,,,,
Accelerometer,1.6820861619750892e+18,0.345089111328125,3.05448579788208,2.02744197845459,-0.3856467008590698,,,,,,,,,,,,,,,,,,,,,,,,,,,,,,,
Accelerometer,1.682086161991962e+18,0.361962158203125,12.910327911376953,1.6178956031799316,-1.4378068447113037,,,,,,,,,,,,,,,,,,,,,,,,,,,,,,,
Accelerometer,1.682086162008834e+18,0.378833984375,12.867504119873047,0.4306344985961914,-0.877223551273346,,,,,,,,,,,,,,,,,,,,,,,,,,,,,,,
Accelerometer,1.682086162025707e+18,0.39570703125,7.02718448638916,0.1941394805908203,0.03386884927749634,,,,,,,,,,,,,,,,,,,,,,,,,,,,,,,
Accelerometer,1.682086162042577e+18,0.412576904296875,5.214849948883057,1.047656536102295,-1.202122688293457,,,,,,,,,,,,,,,,,,,,,,,,,,,,,,,
Accelerometer,1.6820861620594442e+18,0.4294443359375,3.433797836303711,0.3378567695617676,-1.6667437553405762,,,,,,,,,,,,,,,,,,,,,,,,,,,,,,,
Accelerometer,1.682086162076324e+18,0.446323974609375,0.9537768363952637,-0.38681554794311523,-1.1439316272735596,,,,,,,,,,,,,,,,,,,,,,,,,,,,,,,
Accelerometer,1.682086162093197e+18,0.463197021484375,0.26186704635620117,0.11460351943969727,-0.4856685996055603,,,,,,,,,,,,,,,,,,,,,,,,,,,,,,,
Accelerometer,1.682086162110069e+18,0.480069091796875,-1.9708671569824219,-0.9683465957641602,-0.157041996717453,,,,,,,,,,,,,,,,,,,,,,,,,,,,,,,
Accelerometer,1.6820861621269317e+18,0.496931640625,-3.5675547122955322,-2.1400961875915527,0.19097287952899933,,,,,,,,,,,,,,,,,,,,,,,,,,,,,,,
Accelerometer,1.6820861621438141e+18,0.513814208984375,-8.274768829345703,-2.1954145431518555,1.4036692380905151,,,,,,,,,,,,,,,,,,,,,,,,,,,,,,,
Accelerometer,1.6820861621606769e+18,0.5306767578125,-10.383203506469727,-0.23669672012329102,2.2533538341522217,,,,,,,,,,,,,,,,,,,,,,,,,,,,,,,
Accelerometer,1.6820861621775593e+18,0.547559326171875,-5.906167507171631,-0.7400445938110352,2.176431655883789,,,,,,,,,,,,,,,,,,,,,,,,,,,,,,,
Accelerometer,1.6820861621944325e+18,0.5644326171875,-5.585083484649658,-1.0025124549865723,0.7164793610572815,,,,,,,,,,,,,,,,,,,,,,,,,,,,,,,
Accelerometer,1.6820861622113044e+18,0.581304443359375,-6.012214660644531,-1.432084560394287,-0.6951786279678345,,,,,,,,,,,,,,,,,,,,,,,,,,,,,,,
Accelerometer,1.6820861622281677e+18,0.598167724609375,-3.953723907470703,-1.3200135231018066,-1.2149600982666016,,,,,,,,,,,,,,,,,,,,,,,,,,,,,,,
Accelerometer,1.682086162245049e+18,0.615049072265625,-1.9712166786193848,-1.2285957336425781,-1.3195706605911255,,,,,,,,,,,,,,,,,,,,,,,,,,,,,,,
Accelerometer,1.6820861622619226e+18,0.631922607421875,-1.8560690879821777,-1.3360600471496582,-1.0067226886749268,,,,,,,,,,,,,,,,,,,,,,,,,,,,,,,
Accelerometer,1.6820861622787942e+18,0.648794189453125,0.09700727462768555,-1.2996888160705566,-0.141152024269104,,,,,,,,,,,,,,,,,,,,,,,,,,,,,,,
Accelerometer,1.6820861622956677e+18,0.665667724609375,12.741949081420898,0.41177797317504883,1.8333427906036377,,,,,,,,,,,,,,,,,,,,,,,,,,,,,,,
Accelerometer,1.682086162312537e+18,0.682537109375,12.047767639160156,3.0005860328674316,1.1477272510528564,,,,,,,,,,,,,,,,,,,,,,,,,,,,,,,
Accelerometer,1.6820861623294152e+18,0.699415283203125,8.375175476074219,3.6599793434143066,3.085010290145874,,,,,,,,,,,,,,,,,,,,,,,,,,,,,,,
Accelerometer,1.6820861623462807e+18,0.71628076171875,2.6301488876342773,2.5874361991882324,2.7615301609039307,,,,,,,,,,,,,,,,,,,,,,,,,,,,,,,
Accelerometer,1.682086162363161e+18,0.7331611328125,4.7439422607421875,1.3116326332092285,-0.2870505452156067,,,,,,,,,,,,,,,,,,,,,,,,,,,,,,,
Accelerometer,1.6820861623800192e+18,0.750019287109375,2.2896170616149902,-0.57769775390625,-0.8799121379852295,,,,,,,,,,,,,,,,,,,,,,,,,,,,,,,
Accelerometer,1.6820861623968998e+18,0.76689990234375,0.5237441062927246,-1.4999651908874512,0.14725130796432495,,,,,,,,,,,,,,,,,,,,,,,,,,,,,,,
Accelerometer,1.6820861624137649e+18,0.783764892578125,-1.488203525543213,-1.0035247802734375,0.5644826292991638,,,,,,,,,,,,,,,,,,,,,,,,,,,,,,,
Accelerometer,1.6820861624306478e+18,0.800647705078125,-3.0480964183807373,-0.8420801162719727,0.44365307688713074,,,,,,,,,,,,,,,,,,,,,,,,,,,,,,,
Accelerometer,1.6820861624475136e+18,0.817513671875,-3.80468487739563,-0.7536687850952148,-0.22427326440811157,,,,,,,,,,,,,,,,,,,,,,,,,,,,,,,
Accelerometer,1.6820861624643935e+18,0.8343935546875,-4.819225311279297,-1.8262434005737305,-0.17913967370986938,,,,,,,,,,,,,,,,,,,,,,,,,,,,,,,
Accelerometer,1.6820861624812646e+18,0.8512646484375,-6.021999835968018,-1.7746801376342773,-0.08184546232223511,,,,,,,,,,,,,,,,,,,,,,,,,,,,,,,
Accelerometer,1.6820861624981376e+18,0.8681376953125,-8.185629844665527,-0.9993782043457031,1.2654210329055786,,,,,,,,,,,,,,,,,,,,,,,,,,,,,,,
Accelerometer,1.6820861625150098e+18,0.885009765625,-7.815769672393799,-0.30781126022338867,2.6570277214050293,,,,,,,,,,,,,,,,,,,,,,,,,,,,,,,
Accelerometer,1.6820861625318802e+18,0.901880126953125,-4.704036235809326,-1.0827040672302246,1.4131759405136108,,,,,,,,,,,,,,,,,,,,,,,,,,,,,,,
Accelerometer,1.6820861625487578e+18,0.9187578125,-1.8904736042022705,-0.36110782623291016,0.3148261308670044,,,,,,,,,,,,,,,,,,,,,,,,,,,,,,,
Accelerometer,1.682086162565628e+18,0.9356279296875,2.1426310539245605,-0.47217321395874023,0.1495390385389328,,,,,,,,,,,,,,,,,,,,,,,,,,,,,,,
Accelerometer,1.682086162582488e+18,0.952488037109375,6.569474220275879,-0.3430161476135254,-0.9713471531867981,,,,,,,,,,,,,,,,,,,,,,,,,,,,,,,
Accelerometer,1.6820861625993748e+18,0.969374755859375,10.108085632324219,0.25466346740722656,-1.8505066633224487,,,,,,,,,,,,,,,,,,,,,,,,,,,,,,,
Accelerometer,1.682086162616245e+18,0.986244873046875,9.41937255859375,1.2197136878967285,-1.3205972909927368,,,,,,,,,,,,,,,,,,,,,,,,,,,,,,,
Accelerometer,1.6820861626331185e+18,1.003118408203125,7.921014785766602,1.6771788597106934,-0.23325037956237793,,,,,,,,,,,,,,,,,,,,,,,,,,,,,,,
Accelerometer,1.6820861626499904e+18,1.019990478515625,5.504044055938721,1.8219141960144043,0.3967965245246887,,,,,,,,,,,,,,,,,,,,,,,,,,,,,,,
Accelerometer,1.6820861626668534e+18,1.036853271484375,2.0823287963867188,0.903961181640625,0.6112880110740662,,,,,,,,,,,,,,,,,,,,,,,,,,,,,,,
Accelerometer,1.6820861626837353e+18,1.0537353515625,-0.9207367897033691,-0.3488798141479492,0.7760308384895325,,,,,,,,,,,,,,,,,,,,,,,,,,,,,,,
Accelerometer,1.682086162700608e+18,1.07060791015625,-3.415940523147583,-0.9275636672973633,0.5081303715705872,,,,,,,,,,,,,,,,,,,,,,,,,,,,,,,
Accelerometer,1.6820861627174802e+18,1.087480224609375,-5.875255107879639,-1.4838662147521973,0.6527372598648071,,,,,,,,,,,,,,,,,,,,,,,,,,,,,,,
Accelerometer,1.682086162734353e+18,1.104352783203125,-7.528515815734863,-2.104989528656006,1.0023232698440552,,,,,,,,,,,,,,,,,,,,,,,,,,,,,,,
Accelerometer,1.6820861627512253e+18,1.121225341796875,-9.057653427124023,-2.1846065521240234,1.2310408353805542,,,,,,,,,,,,,,,,,,,,,,,,,,,,,,,
Accelerometer,1.6820861627680993e+18,1.138099365234375,-10.027792930603027,-1.421708106994629,1.6740667819976807,,,,,,,,,,,,,,,,,,,,,,,,,,,,,,,
Accelerometer,1.6820861627849708e+18,1.154970703125,-9.128881454467773,-1.2751569747924805,1.393650770187378,,,,,,,,,,,,,,,,,,,,,,,,,,,,,,,
Accelerometer,1.6820861628018435e+18,1.171843505859375,-6.707477569580078,-1.5482563972473145,0.6089860200881958,,,,,,,,,,,,,,,,,,,,,,,,,,,,,,,
Accelerometer,1.6820861628187154e+18,1.18871533203125,-1.9748682975769043,-2.5746536254882812,-0.5670573711395264,,,,,,,,,,,,,,,,,,,,,,,,,,,,,,,
Accelerometer,1.6820861628355884e+18,1.20558837890625,5.070248603820801,-3.4040796756744385,-1.055843472480774,,,,,,,,,,,,,,,,,,,,,,,,,,,,,,,
Accelerometer,1.6820861628524585e+18,1.22245849609375,10.301851272583008,-1.9333453178405762,-0.9687645435333252,,,,,,,,,,,,,,,,,,,,,,,,,,,,,,,
Accelerometer,1.6820861628693363e+18,1.23933642578125,13.537126541137695,-0.15702486038208008,-1.6267681121826172,,,,,,,,,,,,,,,,,,,,,,,,,,,,,,,
Accelerometer,1.6820861628862057e+18,1.256205810546875,13.298263549804688,1.433835506439209,-0.898923397064209,,,,,,,,,,,,,,,,,,,,,,,,,,,,,,,
Accelerometer,1.682086162903079e+18,1.273078857421875,10.876144409179688,2.8735198974609375,0.16803354024887085,,,,,,,,,,,,,,,,,,,,,,,,,,,,,,,
Accelerometer,1.6820861629199506e+18,1.28995068359375,5.832961559295654,2.4081339836120605,0.8739691376686096,,,,,,,,,,,,,,,,,,,,,,,,,,,,,,,
Accelerometer,1.6820861629368154e+18,1.3068154296875,0.6069197654724121,1.0743522644042969,0.8560487031936646,,,,,,,,,,,,,,,,,,,,,,,,,,,,,,,
Accelerometer,1.682086162953692e+18,1.32369189453125,-2.9768991470336914,-0.19558048248291016,0.3774526119232178,,,,,,,,,,,,,,,,,,,,,,,,,,,,,,,
Accelerometer,1.6820861629705692e+18,1.3405693359375,-5.480566024780273,-1.8660249710083008,0.4084148108959198,,,,,,,,,,,,,,,,,,,,,,,,,,,,,,,
Accelerometer,1.682086162987441e+18,1.35744091796875,-8.596150398254395,-3.01995849609375,0.8256075382232666,,,,,,,,,,,,,,,,,,,,,,,,,,,,,,,
Accelerometer,1.6820861630043046e+18,1.3743046875,-11.181716918945312,-2.8961453437805176,1.210534930229187,,,,,,,,,,,,,,,,,,,,,,,,,,,,,,,
Accelerometer,1.6820861630211804e+18,1.391180419921875,-12.35047721862793,-2.3246397972106934,1.475235939025879,,,,,,,,,,,,,,,,,,,,,,,,,,,,,,,
Accelerometer,1.682086163038059e+18,1.40805908203125,-11.558317184448242,-2.577396869659424,1.4336973428726196,,,,,,,,,,,,,,,,,,,,,,,,,,,,,,,
Accelerometer,1.6820861630549307e+18,1.4249306640625,-9.51944637298584,-2.5158281326293945,1.0484075546264648,,,,,,,,,,,,,,,,,,,,,,,,,,,,,,,
Accelerometer,1.6820861630717852e+18,1.44178515625,-5.585983753204346,-3.1208338737487793,0.40247443318367004,,,,,,,,,,,,,,,,,,,,,,,,,,,,,,,
Accelerometer,1.6820861630886653e+18,1.458665283203125,0.6743922233581543,-4.0933027267456055,-0.3569119870662689,,,,,,,,,,,,,,,,,,,,,,,,,,,,,,,
Accelerometer,1.682086163105553e+18,1.475552978515625,8.705951690673828,-4.256186485290527,-0.961230993270874,,,,,,,,,,,,,,,,,,,,,,,,,,,,,,,
Accelerometer,1.6820861631224125e+18,1.49241259765625,15.845520973205566,-2.681730031967163,-1.9932239055633545,,,,,,,,,,,,,,,,,,,,,,,,,,,,,,,
Accelerometer,1.6820861631392955e+18,1.50929541015625,17.128768920898438,-0.14836931228637695,-2.7283568382263184,,,,,,,,,,,,,,,,,,,,,,,,,,,,,,,
Accelerometer,1.6820861631561551e+18,1.526155029296875,14.22956657409668,2.359714984893799,-0.8371027112007141,,,,,,,,,,,,,,,,,,,,,,,,,,,,,,,
Accelerometer,1.6820861631730386e+18,1.54303857421875,10.531368255615234,3.472823143005371,0.5443645715713501,,,,,,,,,,,,,,,,,,,,,,,,,,,,,,,
Accelerometer,1.6820861631899126e+18,1.55991259765625,3.5111446380615234,0.9118037223815918,1.0528337955474854,,,,,,,,,,,,,,,,,,,,,,,,,,,,,,,
Accelerometer,1.6820861632067745e+18,1.5767744140625,-1.4684667587280273,0.08506584167480469,0.1454242765903473,,,,,,,,,,,,,,,,,,,,,,,,,,,,,,,
Accelerometer,1.682086163223657e+18,1.593656982421875,-4.137443542480469,-0.6146621704101562,-0.06345048546791077,,,,,,,,,,,,,,,,,,,,,,,,,,,,,,,
Accelerometer,1.6820861632405297e+18,1.61052978515625,-5.616738319396973,-2.123819351196289,0.5580258369445801,,,,,,,,,,,,,,,,,,,,,,,,,,,,,,,
Accelerometer,1.6820861632573914e+18,1.627391357421875,-7.1456451416015625,-2.984830379486084,1.1466773748397827,,,,,,,,,,,,,,,,,,,,,,,,,,,,,,,
Accelerometer,1.6820861632742748e+18,1.64427490234375,-8.489004135131836,-2.485445022583008,1.745904564857483,,,,,,,,,,,,,,,,,,,,,,,,,,,,,,,
Accelerometer,1.6820861632911468e+18,1.661146728515625,-9.678078651428223,-1.617635726928711,2.269629716873169,,,,,,,,,,,,,,,,,,,,,,,,,,,,,,,
Accelerometer,1.6820861633080095e+18,1.678009521484375,-9.857072830200195,-1.0534000396728516,2.233591318130493,,,,,,,,,,,,,,,,,,,,,,,,,,,,,,,
Accelerometer,1.6820861633248924e+18,1.694892333984375,-7.927204132080078,-0.775428295135498,1.2662540674209595,,,,,,,,,,,,,,,,,,,,,,,,,,,,,,,
Accelerometer,1.6820861633417654e+18,1.711765380859375,-6.019739151000977,-1.650465965270996,0.16595962643623352,,,,,,,,,,,,,,,,,,,,,,,,,,,,,,,
Accelerometer,1.682086163358637e+18,1.728636962890625,-2.3012471199035645,-1.985954761505127,-1.1342651844024658,,,,,,,,,,,,,,,,,,,,,,,,,,,,,,,
Accelerometer,1.6820861633754998e+18,1.745499755859375,6.297417163848877,-3.001619577407837,-1.841598629951477,,,,,,,,,,,,,,,,,,,,,,,,,,,,,,,
Accelerometer,1.6820861633923784e+18,1.76237841796875,14.936698913574219,-2.8649706840515137,-2.5674214363098145,,,,,,,,,,,,,,,,,,,,,,,,,,,,,,,
Accelerometer,1.6820861634092557e+18,1.779255615234375,17.586971282958984,-2.6573474407196045,-2.8131213188171387,,,,,,,,,,,,,,,,,,,,,,,,,,,,,,,
Accelerometer,1.6820861634261258e+18,1.796125732421875,15.706306457519531,-0.888115406036377,-0.5678545236587524,,,,,,,,,,,,,,,,,,,,,,,,,,,,,,,
Accelerometer,1.6820861634429885e+18,1.812988525390625,11.575281143188477,0.8232102394104004,0.9350225925445557,,,,,,,,,,,,,,,,,,,,,,,,,,,,,,,
Accelerometer,1.6820861634598725e+18,1.82987255859375,4.919004917144775,1.6574211120605469,1.6536500453948975,,,,,,,,,,,,,,,,,,,,,,,,,,,,,,,
Accelerometer,1.6820861634767352e+18,1.8467353515625,-0.29239845275878906,0.9477157592773438,0.9949793219566345,,,,,,,,,,,,,,,,,,,,,,,,,,,,,,,
Accelerometer,1.6820861634936136e+18,1.863613525390625,-4.220231056213379,-1.2998414039611816,0.015122365206480026,,,,,,,,,,,,,,,,,,,,,,,,,,,,,,,
Accelerometer,1.6820861635105047e+18,1.880504638671875,-6.697090148925781,-3.248800277709961,0.15731579065322876,,,,,,,,,,,,,,,,,,,,,,,,,,,,,,,
Accelerometer,1.6820861635273605e+18,1.897360595703125,-8.977533340454102,-4.227311611175537,0.9385066032409668,,,,,,,,,,,,,,,,,,,,,,,,,,,,,,,
Accelerometer,1.6820861635442388e+18,1.91423876953125,-10.543460845947266,-4.027037143707275,1.3032991886138916,,,,,,,,,,,,,,,,,,,,,,,,,,,,,,,
Accelerometer,1.682086163561108e+18,1.93110791015625,-11.357715606689453,-3.344172477722168,1.3991268873214722,,,,,,,,,,,,,,,,,,,,,,,,,,,,,,,
Accelerometer,1.6820861635779812e+18,1.947981201171875,-12.155427932739258,-1.8768367767333984,1.465038537979126,,,,,,,,,,,,,,,,,,,,,,,,,,,,,,,
Accelerometer,1.682086163594856e+18,1.96485595703125,-10.58143424987793,-0.8287172317504883,1.1440315246582031,,,,,,,,,,,,,,,,,,,,,,,,,,,,,,,
Accelerometer,1.6820861636117238e+18,1.981723876953125,-8.323614120483398,-0.75213623046875,0.7355372905731201,,,,,,,,,,,,,,,,,,,,,,,,,,,,,,,
Accelerometer,1.682086163628598e+18,1.998597900390625,-5.968574523925781,-1.2272043228149414,-0.02213054895401001,,,,,,,,,,,,,,,,,,,,,,,,,,,,,,,
Accelerometer,1.682086163645472e+18,2.015471923828125,-0.9349956512451172,-2.5709004402160645,-0.8963478803634644,,,,,,,,,,,,,,,,,,,,,,,,,,,,,,,
Accelerometer,1.6820861636623437e+18,2.03234375,10.17524528503418,-2.9471635818481445,-1.2560251951217651,,,,,,,,,,,,,,,,,,,,,,,,,,,,,,,
Accelerometer,1.682086163679215e+18,2.049215087890625,15.830949783325195,-4.031156063079834,-1.401833415031433,,,,,,,,,,,,,,,,,,,,,,,,,,,,,,,
Accelerometer,1.682086163696091e+18,2.0660908203125,16.218978881835938,-2.6776845455169678,-1.720103144645691,,,,,,,,,,,,,,,,,,,,,,,,,,,,,,,
Accelerometer,1.6820861637129603e+18,2.082960205078125,13.755416870117188,-0.6076555252075195,-0.33910664916038513,,,,,,,,,,,,,,,,,,,,,,,,,,,,,,,
Accelerometer,1.6820861637298322e+18,2.099832275390625,8.640214920043945,1.6845011711120605,0.13075777888298035,,,,,,,,,,,,,,,,,,,,,,,,,,,,,,,
Accelerometer,1.6820861637466941e+18,2.116694091796875,3.1178669929504395,2.198716163635254,0.44518405199050903,,,,,,,,,,,,,,,,,,,,,,,,,,,,,,,
Accelerometer,1.682086163763579e+18,2.133578857421875,-0.7177281379699707,0.8530445098876953,0.5060312747955322,,,,,,,,,,,,,,,,,,,,,,,,,,,,,,,
Accelerometer,1.682086163780452e+18,2.1504521484375,-2.973581552505493,-0.6216640472412109,0.5757489204406738,,,,,,,,,,,,,,,,,,,,,,,,,,,,,,,
Accelerometer,1.6820861637973345e+18,2.16733447265625,-4.66098165512085,-1.9220962524414062,0.9926202297210693,,,,,,,,,,,,,,,,,,,,,,,,,,,,,,,
Accelerometer,1.682086163814195e+18,2.18419482421875,-6.659873008728027,-2.385589599609375,1.3724669218063354,,,,,,,,,,,,,,,,,,,,,,,,,,,,,,,
Accelerometer,1.6820861638310723e+18,2.201072265625,-8.72293472290039,-2.370772361755371,1.5622273683547974,,,,,,,,,,,,,,,,,,,,,,,,,,,,,,,
Accelerometer,1.682086163847942e+18,2.21794189453125,-10.228515625,-1.7128543853759766,1.6349148750305176,,,,,,,,,,,,,,,,,,,,,,,,,,,,,,,
Accelerometer,1.6820861638648082e+18,2.23480810546875,-10.448034286499023,-0.9084105491638184,1.5567748546600342,,,,,,,,,,,,,,,,,,,,,,,,,,,,,,,
Accelerometer,1.682086163881685e+18,2.25168505859375,-9.692732810974121,-0.6708416938781738,0.8489729166030884,,,,,,,,,,,,,,,,,,,,,,,,,,,,,,,
Accelerometer,1.6820861638985626e+18,2.2685625,-7.1112565994262695,-1.2958059310913086,-0.5165525674819946,,,,,,,,,,,,,,,,,,,,,,,,,,,,,,,
Accelerometer,1.6820861639154332e+18,2.28543310546875,-3.5327494144439697,-2.2790017127990723,-0.9557912349700928,,,,,,,,,,,,,,,,,,,,,,,,,,,,,,,
Accelerometer,1.6820861639323052e+18,2.30230517578125,4.2129058837890625,-2.9890565872192383,-0.8677483797073364,,,,,,,,,,,,,,,,,,,,,,,,,,,,,,,
Accelerometer,1.6820861639491756e+18,2.319175537109375,14.842418670654297,-3.3295929431915283,-1.6091104745864868,,,,,,,,,,,,,,,,,,,,,,,,,,,,,,,
Accelerometer,1.6820861639660529e+18,2.336052978515625,17.287601470947266,-3.9051222801208496,-2.2070305347442627,,,,,,,,,,,,,,,,,,,,,,,,,,,,,,,
Accelerometer,1.6820861639829233e+18,2.35292333984375,14.782007217407227,-1.4293460845947266,-0.9240461587905884,,,,,,,,,,,,,,,,,,,,,,,,,,,,,,,
Accelerometer,1.6820861639997952e+18,2.369795166015625,9.941631317138672,1.6044554710388184,-0.05776967108249664,,,,,,,,,,,,,,,,,,,,,,,,,,,,,,,
Accelerometer,1.6820861640166636e+18,2.38666357421875,4.372532844543457,2.3556809425354004,0.50636887550354,,,,,,,,,,,,,,,,,,,,,,,,,,,,,,,
Accelerometer,1.6820861640335406e+18,2.40354052734375,-0.23615550994873047,1.028768539428711,0.965491771697998,,,,,,,,,,,,,,,,,,,,,,,,,,,,,,,
Accelerometer,1.6820861640504028e+18,2.42040283203125,-2.8114407062530518,-0.4206709861755371,0.7138089537620544,,,,,,,,,,,,,,,,,,,,,,,,,,,,,,,
Accelerometer,1.682086164067286e+18,2.4372861328125,-4.767594337463379,-1.6104941368103027,0.8009680509567261,,,,,,,,,,,,,,,,,,,,,,,,,,,,,,,
Accelerometer,1.6820861640841587e+18,2.45415869140625,-6.21561336517334,-2.072624683380127,1.042542815208435,,,,,,,,,,,,,,,,,,,,,,,,,,,,,,,
Accelerometer,1.682086164101031e+18,2.471031005859375,-7.472598552703857,-1.935175895690918,1.2343875169754028,,,,,,,,,,,,,,,,,,,,,,,,,,,,,,,
Accelerometer,1.6820861641179013e+18,2.4879013671875,-8.593958854675293,-1.3236489295959473,1.2881481647491455,,,,,,,,,,,,,,,,,,,,,,,,,,,,,,,
Accelerometer,1.6820861641347738e+18,2.504773681640625,-8.528325080871582,-1.1121320724487305,1.243606448173523,,,,,,,,,,,,,,,,,,,,,,,,,,,,,,,
Accelerometer,1.6820861641516518e+18,2.52165185546875,-7.549928188323975,-0.9038295745849609,0.7275977730751038,,,,,,,,,,,,,,,,,,,,,,,,,,,,,,,
Accelerometer,1.682086164168525e+18,2.538525146484375,-6.538957595825195,-1.1162347793579102,-0.08066847920417786,,,,,,,,,,,,,,,,,,,,,,,,,,,,,,,
Accelerometer,1.682086164185391e+18,2.55539111328125,-3.927032470703125,-1.663503646850586,0.24319204688072205,,,,,,,,,,,,,,,,,,,,,,,,,,,,,,,
Accelerometer,1.682086164202264e+18,2.57226416015625,0.8366618156433105,-1.9322519302368164,0.06181710958480835,,,,,,,,,,,,,,,,,,,,,,,,,,,,,,,
Accelerometer,1.6820861642191421e+18,2.58914208984375,7.7711262702941895,-2.4041037559509277,-0.32161036133766174,,,,,,,,,,,,,,,,,,,,,,,,,,,,,,,
Accelerometer,1.6820861642360118e+18,2.60601171875,11.033041000366211,-2.020660877227783,-1.444400668144226,,,,,,,,,,,,,,,,,,,,,,,,,,,,,,,
Accelerometer,1.682086164252885e+18,2.622885009765625,10.883795738220215,-1.1426682472229004,-1.550763487815857,,,,,,,,,,,,,,,,,,,,,,,,,,,,,,,
Accelerometer,1.6820861642697572e+18,2.639757080078125,10.406332969665527,-0.422299861907959,-1.316490888595581,,,,,,,,,,,,,,,,,,,,,,,,,,,,,,,
Accelerometer,1.6820861642866273e+18,2.65662744140625,7.895862579345703,0.7478394508361816,-0.5819644331932068,,,,,,,,,,,,,,,,,,,,,,,,,,,,,,,
Accelerometer,1.682086164303505e+18,2.6735048828125,4.858321189880371,1.1532282829284668,-0.15615183115005493,,,,,,,,,,,,,,,,,,,,,,,,,,,,,,,
Accelerometer,1.6820861643203756e+18,2.69037548828125,2.3752694129943848,-0.143218994140625,-0.4817424416542053,,,,,,,,,,,,,,,,,,,,,,,,,,,,,,,
Accelerometer,1.6820861643372506e+18,2.70725048828125,0.2765035629272461,-0.9612030982971191,-0.6066531538963318,,,,,,,,,,,,,,,,,,,,,,,,,,,,,,,
Accelerometer,1.6820861643541204e+18,2.724120361328125,-2.088329553604126,-1.2813410758972168,-0.22894267737865448,,,,,,,,,,,,,,,,,,,,,,,,,,,,,,,
Accelerometer,1.6820861643709824e+18,2.740982421875,-4.258913516998291,-1.382702350616455,0.5651780366897583,,,,,,,,,,,,,,,,,,,,,,,,,,,,,,,
Accelerometer,1.6820861643878625e+18,2.757862548828125,-5.984407901763916,-1.3562970161437988,1.5151387453079224,,,,,,,,,,,,,,,,,,,,,,,,,,,,,,,
Accelerometer,1.6820861644047194e+18,2.77471923828125,-7.7297868728637695,-1.031489372253418,1.9747542142868042,,,,,,,,,,,,,,,,,,,,,,,,,,,,,,,
Accelerometer,1.6820861644216113e+18,2.791611328125,-9.040702819824219,-0.27116966247558594,2.10994815826416,,,,,,,,,,,,,,,,,,,,,,,,,,,,,,,
Accelerometer,1.68208616443848e+18,2.80847998046875,-9.03858757019043,-0.2914142608642578,1.064936637878418,,,,,,,,,,,,,,,,,,,,,,,,,,,,,,,
Accelerometer,1.6820861644553556e+18,2.825355712890625,-8.268564224243164,-0.8977885246276855,0.7798613905906677,,,,,,,,,,,,,,,,,,,,,,,,,,,,,,,
Accelerometer,1.68208616447223e+18,2.84222998046875,-6.000823497772217,-1.8606514930725098,-0.2651044726371765,,,,,,,,,,,,,,,,,,,,,,,,,,,,,,,
Accelerometer,1.6820861644891016e+18,2.8591015625,-2.3479928970336914,-3.238016366958618,-0.41328930854797363,,,,,,,,,,,,,,,,,,,,,,,,,,,,,,,
Accelerometer,1.6820861645059725e+18,2.875972412109375,6.778247833251953,-3.753523826599121,0.11041337996721268,,,,,,,,,,,,,,,,,,,,,,,,,,,,,,,
Accelerometer,1.68208616452285e+18,2.89285009765625,13.214902877807617,-2.5176608562469482,0.050694674253463745,,,,,,,,,,,,,,,,,,,,,,,,,,,,,,,
Accelerometer,1.682086164539705e+18,2.909705078125,11.617598533630371,-2.0102274417877197,-1.146364688873291,,,,,,,,,,,,,,,,,,,,,,,,,,,,,,,
Accelerometer,1.6820861645565875e+18,2.92658740234375,10.545488357543945,-1.874847412109375,-2.434089183807373,,,,,,,,,,,,,,,,,,,,,,,,,,,,,,,
Accelerometer,1.682086164573464e+18,2.943464111328125,8.66379165649414,-0.703819751739502,-1.7960634231567383,,,,,,,,,,,,,,,,,,,,,,,,,,,,,,,
Accelerometer,1.682086164590337e+18,2.9603369140625,4.613801002502441,1.077437400817871,-0.9266320466995239,,,,,,,,,,,,,,,,,,,,,,,,,,,,,,,
Accelerometer,1.6820861646072095e+18,2.97720947265625,0.8051304817199707,0.7101001739501953,0.044668033719062805,,,,,,,,,,,,,,,,,,,,,,,,,,,,,,,
Accelerometer,1.6820861646240827e+18,2.994082763671875,-1.4185876846313477,-0.3073568344116211,0.27577781677246094,,,,,,,,,,,,,,,,,,,,,,,,,,,,,,,
Accelerometer,1.6820861646409544e+18,3.010954345703125,-2.997347831726074,-0.9143843650817871,0.2824942469596863,,,,,,,,,,,,,,,,,,,,,,,,,,,,,,,
Accelerometer,1.6820861646578278e+18,3.027827880859375,-5.215121269226074,-1.3702702522277832,0.6464425921440125,,,,,,,,,,,,,,,,,,,,,,,,,,,,,,,
Accelerometer,1.6820861646746998e+18,3.04469970703125,-8.3223237991333,-0.8749508857727051,1.6533511877059937,,,,,,,,,,,,,,,,,,,,,,,,,,,,,,,
Accelerometer,1.6820861646915727e+18,3.06157275390625,-10.907814025878906,-0.5780973434448242,2.464151620864868,,,,,,,,,,,,,,,,,,,,,,,,,,,,,,,
Accelerometer,1.682086164708445e+18,3.07844482421875,-11.037962913513184,-0.9308586120605469,2.792417287826538,,,,,,,,,,,,,,,,,,,,,,,,,,,,,,,
Accelerometer,1.6820861647253181e+18,3.095318115234375,-8.85738754272461,-1.2580819129943848,2.5126101970672607,,,,,,,,,,,,,,,,,,,,,,,,,,,,,,,
Accelerometer,1.68208616474219e+18,3.112190185546875,-5.65122652053833,-1.3662595748901367,0.56293785572052,,,,,,,,,,,,,,,,,,,,,,,,,,,,,,,
Accelerometer,1.682086164759059e+18,3.129058837890625,-3.3205959796905518,-2.819685459136963,-0.7000411748886108,,,,,,,,,,,,,,,,,,,,,,,,,,,,,,,
Accelerometer,1.6820861647759355e+18,3.145935546875,2.7900471687316895,-3.4118764400482178,-1.193503975868225,,,,,,,,,,,,,,,,,,,,,,,,,,,,,,,
Accelerometer,1.682086164792799e+18,3.162799072265625,13.73000717163086,-5.115948677062988,-1.902040958404541,,,,,,,,,,,,,,,,,,,,,,,,,,,,,,,
Accelerometer,1.682086164809678e+18,3.179677978515625,13.135684967041016,-6.12084436416626,-4.368838310241699,,,,,,,,,,,,,,,,,,,,,,,,,,,,,,,
Accelerometer,1.6820861648265564e+18,3.196556396484375,13.744836807250977,-3.541017532348633,-3.4277563095092773,,,,,,,,,,,,,,,,,,,,,,,,,,,,,,,
Accelerometer,1.682086164843424e+18,3.213424072265625,11.17624282836914,-0.7683868408203125,-1.1872074604034424,,,,,,,,,,,,,,,,,,,,,,,,,,,,,,,
Accelerometer,1.6820861648603013e+18,3.23030126953125,6.164618492126465,2.2137112617492676,0.16310957074165344,,,,,,,,,,,,,,,,,,,,,,,,,,,,,,,
Accelerometer,1.6820861648771712e+18,3.247171142578125,0.429720401763916,1.103560447692871,0.5991629362106323,,,,,,,,,,,,,,,,,,,,,,,,,,,,,,,
Accelerometer,1.6820861648940447e+18,3.264044677734375,-2.5096657276153564,-0.44748497009277344,0.6859408617019653,,,,,,,,,,,,,,,,,,,,,,,,,,,,,,,
Accelerometer,1.6820861649109143e+18,3.280914306640625,-4.439835548400879,-0.8771753311157227,1.1339236497879028,,,,,,,,,,,,,,,,,,,,,,,,,,,,,,,
Accelerometer,1.6820861649277926e+18,3.297792724609375,-6.589768409729004,-1.3992786407470703,1.7540866136550903,,,,,,,,,,,,,,,,,,,,,,,,,,,,,,,
Accelerometer,1.6820861649446618e+18,3.314661865234375,-8.82520866394043,-1.705092430114746,2.1773600578308105,,,,,,,,,,,,,,,,,,,,,,,,,,,,,,,
Accelerometer,1.682086164961535e+18,3.331534912109375,-11.412053108215332,-1.2037677764892578,2.5013859272003174,,,,,,,,,,,,,,,,,,,,,,,,,,,,,,,
Accelerometer,1.682086164978408e+18,3.348407958984375,-12.172260284423828,-0.9227414131164551,2.1396450996398926,,,,,,,,,,,,,,,,,,,,,,,,,,,,,,,
Accelerometer,1.6820861649952804e+18,3.3652802734375,-10.073110580444336,-1.4227633476257324,1.5096802711486816,,,,,,,,,,,,,,,,,,,,,,,,,,,,,,,
Accelerometer,1.6820861650121551e+18,3.382155029296875,-7.809510231018066,-1.853917121887207,0.17276984453201294,,,,,,,,,,,,,,,,,,,,,,,,,,,,,,,
Accelerometer,1.6820861650290235e+18,3.3990234375,-4.810730934143066,-3.290456533432007,-1.2245100736618042,,,,,,,,,,,,,,,,,,,,,,,,,,,,,,,
Accelerometer,1.6820861650458875e+18,3.415887451171875,-1.4187126159667969,-4.11917781829834,-1.298025131225586,,,,,,,,,,,,,,,,,,,,,,,,,,,,,,,
Accelerometer,1.682086165062768e+18,3.43276806640625,14.778759002685547,-8.784104347229004,-1.5146527290344238,,,,,,,,,,,,,,,,,,,,,,,,,,,,,,,
Accelerometer,1.6820861650796454e+18,3.4496455078125,16.59105110168457,-9.062983512878418,-2.929952621459961,,,,,,,,,,,,,,,,,,,,,,,,,,,,,,,
Accelerometer,1.6820861650965138e+18,3.466513671875,15.974374771118164,-4.3180975914001465,-3.7662930488586426,,,,,,,,,,,,,,,,,,,,,,,,,,,,,,,
Accelerometer,1.682086165113378e+18,3.4833779296875,12.659152030944824,-0.46822500228881836,-2.1949691772460938,,,,,,,,,,,,,,,,,,,,,,,,,,,,,,,
Accelerometer,1.6820861651302584e+18,3.500258544921875,6.936384677886963,1.5270252227783203,-1.049309253692627,,,,,,,,,,,,,,,,,,,,,,,,,,,,,,,
Accelerometer,1.682086165147137e+18,3.517136962890625,2.0667166709899902,1.3327817916870117,0.5643508434295654,,,,,,,,,,,,,,,,,,,,,,,,,,,,,,,
Accelerometer,1.682086165164008e+18,3.534008056640625,0.5893368721008301,0.35996437072753906,1.420655608177185,,,,,,,,,,,,,,,,,,,,,,,,,,,,,,,
Accelerometer,1.6820861651808776e+18,3.550877685546875,-2.0478882789611816,-1.990248680114746,1.5843565464019775,,,,,,,,,,,,,,,,,,,,,,,,,,,,,,,
Accelerometer,1.6820861651977536e+18,3.567753662109375,-5.01468563079834,-3.794109344482422,1.970780372619629,,,,,,,,,,,,,,,,,,,,,,,,,,,,,,,
Accelerometer,1.6820861652146227e+18,3.584622802734375,-9.447540283203125,-2.897395610809326,2.237079620361328,,,,,,,,,,,,,,,,,,,,,,,,,,,,,,,
Accelerometer,1.6820861652314975e+18,3.60149755859375,-10.746159553527832,-2.949094772338867,2.373398780822754,,,,,,,,,,,,,,,,,,,,,,,,,,,,,,,
Accelerometer,1.6820861652483697e+18,3.61836962890625,-9.924860000610352,-2.9220614433288574,1.6399202346801758,,,,,,,,,,,,,,,,,,,,,,,,,,,,,,,
Accelerometer,1.68208616526524e+18,3.635239990234375,-8.995594024658203,-2.3572511672973633,1.0441524982452393,,,,,,,,,,,,,,,,,,,,,,,,,,,,,,,
Accelerometer,1.682086165282117e+18,3.6521171875,-10.057960510253906,-1.1480865478515625,0.35197508335113525,,,,,,,,,,,,,,,,,,,,,,,,,,,,,,,
Accelerometer,1.6820861652989878e+18,3.66898779296875,-7.035215377807617,-0.7627897262573242,0.09735949337482452,,,,,,,,,,,,,,,,,,,,,,,,,,,,,,,
Accelerometer,1.6820861653158602e+18,3.685860107421875,-2.00148868560791,1.478424072265625,-0.18582949042320251,,,,,,,,,,,,,,,,,,,,,,,,,,,,,,,
Accelerometer,1.6820861653327334e+18,3.7027333984375,4.349193096160889,-0.13082361221313477,0.5031226277351379,,,,,,,,,,,,,,,,,,,,,,,,,,,,,,,
Accelerometer,1.6820861653496056e+18,3.719605712890625,15.244994163513184,-4.464006423950195,1.999858021736145,,,,,,,,,,,,,,,,,,,,,,,,,,,,,,,
Accelerometer,1.6820861653664748e+18,3.736474853515625,21.70791244506836,-5.144067764282227,0.3118964433670044,,,,,,,,,,,,,,,,,,,,,,,,,,,,,,,
Accelerometer,1.6820861653833508e+18,3.753350830078125,15.131095886230469,-4.724466800689697,-3.857771635055542,,,,,,,,,,,,,,,,,,,,,,,,,,,,,,,
Accelerometer,1.6820861654002237e+18,3.7702236328125,10.023249626159668,-5.157155990600586,-3.9638826847076416,,,,,,,,,,,,,,,,,,,,,,,,,,,,,,,
Accelerometer,1.6820861654170854e+18,3.78708544921875,5.422311782836914,-4.039486885070801,-1.5618762969970703,,,,,,,,,,,,,,,,,,,,,,,,,,,,,,,
Accelerometer,1.6820861654339505e+18,3.803950439453125,0.7592611312866211,-2.75925350189209,0.6379529237747192,,,,,,,,,,,,,,,,,,,,,,,,,,,,,,,
Accelerometer,1.6820861654508416e+18,3.820841552734375,-3.5086379051208496,-2.3869500160217285,2.288266658782959,,,,,,,,,,,,,,,,,,,,,,,,,,,,,,,
Accelerometer,1.6820861654677043e+18,3.837704345703125,-7.850978851318359,-3.065918445587158,3.994382381439209,,,,,,,,,,,,,,,,,,,,,,,,,,,,,,,
Accelerometer,1.6820861654845842e+18,3.854584228515625,-7.272213935852051,-1.3025684356689453,3.9561588764190674,,,,,,,,,,,,,,,,,,,,,,,,,,,,,,,
Accelerometer,1.6820861655014628e+18,3.871462890625,-6.624595642089844,-2.57684326171875,2.435317039489746,,,,,,,,,,,,,,,,,,,,,,,,,,,,,,,
Accelerometer,1.682086165518334e+18,3.888333984375,-8.273786544799805,-2.181905746459961,1.5216822624206543,,,,,,,,,,,,,,,,,,,,,,,,,,,,,,,
Accelerometer,1.6820861655351982e+18,3.9051982421875,-7.6561079025268555,-1.6903190612792969,1.7492334842681885,,,,,,,,,,,,,,,,,,,,,,,,,,,,,,,
Accelerometer,1.6820861655520773e+18,3.922077392578125,-7.968151569366455,-0.4595165252685547,1.0843040943145752,,,,,,,,,,,,,,,,,,,,,,,,,,,,,,,
Accelerometer,1.6820861655689398e+18,3.938939697265625,-6.639402866363525,0.5494966506958008,0.14201326668262482,,,,,,,,,,,,,,,,,,,,,,,,,,,,,,,
Accelerometer,1.6820861655858227e+18,3.95582275390625,-4.63551139831543,-0.26197052001953125,-0.517963171005249,,,,,,,,,,,,,,,,,,,,,,,,,,,,,,,
Accelerometer,1.6820861656026934e+18,3.972693359375,-2.3995718955993652,-1.5253000259399414,-0.5714280605316162,,,,,,,,,,,,,,,,,,,,,,,,,,,,,,,
Accelerometer,1.682086165619561e+18,3.98956103515625,-0.437453031539917,-1.6146597862243652,-0.9433794617652893,,,,,,,,,,,,,,,,,,,,,,,,,,,,,,,
Accelerometer,1.6820861656364524e+18,4.006452392578125,3.416036605834961,-0.18323135375976562,-1.6129393577575684,,,,,,,,,,,,,,,,,,,,,,,,,,,,,,,
Accelerometer,1.6820861656533133e+18,4.023313232421875,2.5084733963012695,-1.0454654693603516,-1.8936052322387695,,,,,,,,,,,,,,,,,,,,,,,,,,,,,,,
Accelerometer,1.6820861656701757e+18,4.04017578125,6.881756782531738,-3.967890977859497,1.1544818878173828,,,,,,,,,,,,,,,,,,,,,,,,,,,,,,,
Accelerometer,1.6820861656870602e+18,4.057060302734375,10.698840141296387,-2.310427188873291,2.1665070056915283,,,,,,,,,,,,,,,,,,,,,,,,,,,,,,,
Accelerometer,1.682086165703932e+18,4.073931884765625,8.240294456481934,-0.053977012634277344,1.24574875831604,,,,,,,,,,,,,,,,,,,,,,,,,,,,,,,
Accelerometer,1.6820861657208038e+18,4.090803955078125,4.570141792297363,-0.6526813507080078,0.23003718256950378,,,,,,,,,,,,,,,,,,,,,,,,,,,,,,,
Accelerometer,1.682086165737677e+18,4.107677001953125,3.0696191787719727,-1.746584415435791,-0.7659748196601868,,,,,,,,,,,,,,,,,,,,,,,,,,,,,,,
Accelerometer,1.682086165754541e+18,4.124541015625,2.7384729385375977,-0.7072057723999023,-0.7436773777008057,,,,,,,,,,,,,,,,,,,,,,,,,,,,,,,
Accelerometer,1.6820861657714117e+18,4.14141162109375,0.22845745086669922,0.7636885643005371,1.141770601272583,,,,,,,,,,,,,,,,,,,,,,,,,,,,,,,
Accelerometer,1.682086165788284e+18,4.158283935546875,-2.6971216201782227,0.3243064880371094,1.3263404369354248,,,,,,,,,,,,,,,,,,,,,,,,,,,,,,,
Accelerometer,1.6820861658051653e+18,4.175165283203125,-3.966002941131592,-0.6339993476867676,1.3218919038772583,,,,,,,,,,,,,,,,,,,,,,,,,,,,,,,
Accelerometer,1.6820861658220534e+18,4.192053466796875,-2.2537271976470947,-0.831871509552002,1.327546238899231,,,,,,,,,,,,,,,,,,,,,,,,,,,,,,,
Accelerometer,1.6820861658389112e+18,4.2089111328125,-2.0384745597839355,-0.6452274322509766,0.6055339574813843,,,,,,,,,,,,,,,,,,,,,,,,,,,,,,,
Accelerometer,1.682086165855787e+18,4.225787109375,-3.5185787677764893,-0.9161314964294434,1.2340257167816162,,,,,,,,,,,,,,,,,,,,,,,,,,,,,,,
Accelerometer,1.6820861658726556e+18,4.242655517578125,-2.1738944053649902,1.9730563163757324,0.6862008571624756,,,,,,,,,,,,,,,,,,,,,,,,,,,,,,,
Accelerometer,1.68208616588952e+18,4.25952001953125,-3.7393910884857178,1.4356446266174316,-0.16925954818725586,,,,,,,,,,,,,,,,,,,,,,,,,,,,,,,
Accelerometer,1.682086165906404e+18,4.276404052734375,-2.0326128005981445,0.028259754180908203,-0.919527530670166,,,,,,,,,,,,,,,,,,,,,,,,,,,,,,,
Accelerometer,1.6820861659232758e+18,4.29327587890625,-0.7487015724182129,0.5604519844055176,-1.0579431056976318,,,,,,,,,,,,,,,,,,,,,,,,,,,,,,,
Accelerometer,1.6820861659401492e+18,4.310149169921875,-0.30607080459594727,0.16298913955688477,-1.0954599380493164,,,,,,,,,,,,,,,,,,,,,,,,,,,,,,,
Accelerometer,1.6820861659570214e+18,4.327021484375,0.08418941497802734,-0.5393552780151367,-0.30977463722229004,,,,,,,,,,,,,,,,,,,,,,,,,,,,,,,
Accelerometer,1.6820861659738944e+18,4.343894287109375,0.15238428115844727,-1.1601033210754395,-0.3314015865325928,,,,,,,,,,,,,,,,,,,,,,,,,,,,,,,
Accelerometer,1.6820861659907666e+18,4.3607666015625,0.5754318237304688,0.19103240966796875,-0.9827867746353149,,,,,,,,,,,,,,,,,,,,,,,,,,,,,,,
Accelerometer,1.6820861660076398e+18,4.377639892578125,0.5779409408569336,0.5072522163391113,-1.6451714038848877,,,,,,,,,,,,,,,,,,,,,,,,,,,,,,,
Accelerometer,1.6820861660245117e+18,4.39451171875,0.9741458892822266,0.8071293830871582,-2.152984619140625,,,,,,,,,,,,,,,,,,,,,,,,,,,,,,,
Accelerometer,1.6820861660413852e+18,4.41138525390625,1.181976318359375,1.1974761486053467,-2.9143013954162598,,,,,,,,,,,,,,,,,,,,,,,,,,,,,,,
Accelerometer,1.682086166058257e+18,4.4282568359375,3.463918685913086,2.3640427589416504,-4.0535478591918945,,,,,,,,,,,,,,,,,,,,,,,,,,,,,,,
Accelerometer,1.6820861660751204e+18,4.445120361328125,3.2566757202148438,2.7682600021362305,-5.344598293304443,,,,,,,,,,,,,,,,,,,,,,,,,,,,,,,
Accelerometer,1.6820861660920026e+18,4.46200244140625,2.433706283569336,2.9902877807617188,-6.326964855194092,,,,,,,,,,,,,,,,,,,,,,,,,,,,,,,
Accelerometer,1.6820861661088655e+18,4.478865478515625,2.639702796936035,2.4903910160064697,-5.047150611877441,,,,,,,,,,,,,,,,,,,,,,,,,,,,,,,
Accelerometer,1.6820861661257498e+18,4.495749755859375,2.003786087036133,0.20328998565673828,-3.689737558364868,,,,,,,,,,,,,,,,,,,,,,,,,,,,,,,
Accelerometer,1.6820861661426168e+18,4.512616943359375,0.6973562240600586,-0.8461151123046875,-3.299781322479248,,,,,,,,,,,,,,,,,,,,,,,,,,,,,,,
Accelerometer,1.6820861661594962e+18,4.52949609375,-1.3205242156982422,-0.3241918087005615,-2.4910361766815186,,,,,,,,,,,,,,,,,,,,,,,,,,,,,,,
Accelerometer,1.682086166176367e+18,4.5463671875,-2.4409103393554688,-1.2922807931900024,-1.0580763816833496,,,,,,,,,,,,,,,,,,,,,,,,,,,,,,,
Accelerometer,1.6820861661932296e+18,4.5632294921875,-2.1740269660949707,-3.0511474609375,0.3929485082626343,,,,,,,,,,,,,,,,,,,,,,,,,,,,,,,
Accelerometer,1.6820861662101138e+18,4.58011376953125,-2.395834445953369,-3.94580078125,0.41942834854125977,,,,,,,,,,,,,,,,,,,,,,,,,,,,,,,
Accelerometer,1.6820861662269737e+18,4.5969736328125,-1.6878695487976074,-4.132983207702637,-0.28202521800994873,,,,,,,,,,,,,,,,,,,,,,,,,,,,,,,
Accelerometer,1.6820861662438574e+18,4.613857421875,-1.635490894317627,-3.41762375831604,0.5541884899139404,,,,,,,,,,,,,,,,,,,,,,,,,,,,,,,
Accelerometer,1.68208616626073e+18,4.630730224609375,-2.34097957611084,-3.4872665405273438,1.9973130226135254,,,,,,,,,,,,,,,,,,,,,,,,,,,,,,,
Accelerometer,1.6820861662776026e+18,4.6476025390625,-1.3604440689086914,-4.5198187828063965,1.2549283504486084,,,,,,,,,,,,,,,,,,,,,,,,,,,,,,,
Accelerometer,1.6820861662944745e+18,4.664474609375,-0.7758731842041016,-4.0757856369018555,1.3749315738677979,,,,,,,,,,,,,,,,,,,,,,,,,,,,,,,
Accelerometer,1.6820861663113487e+18,4.6813486328125,-0.48297595977783203,-4.216163158416748,2.388209342956543,,,,,,,,,,,,,,,,,,,,,,,,,,,,,,,
Accelerometer,1.6820861663282204e+18,4.698220458984375,0.534846305847168,-4.57778787612915,2.9464097023010254,,,,,,,,,,,,,,,,,,,,,,,,,,,,,,,
Accelerometer,1.682086166345093e+18,4.715093017578125,1.1929454803466797,-5.624147891998291,2.768177032470703,,,,,,,,,,,,,,,,,,,,,,,,,,,,,,,
Accelerometer,1.6820861663619658e+18,4.7319658203125,1.922530174255371,-6.1522536277771,1.914074182510376,,,,,,,,,,,,,,,,,,,,,,,,,,,,,,,
Accelerometer,1.6820861663788388e+18,4.7488388671875,2.2131614685058594,-5.5857720375061035,0.8138638734817505,,,,,,,,,,,,,,,,,,,,,,,,,,,,,,,
Accelerometer,1.6820861663957002e+18,4.7657001953125,2.4388198852539062,-5.086596965789795,1.5039738416671753,,,,,,,,,,,,,,,,,,,,,,,,,,,,,,,
Accelerometer,1.6820861664125821e+18,4.78258203125,2.790283203125,-5.920775413513184,3.169398784637451,,,,,,,,,,,,,,,,,,,,,,,,,,,,,,,
Accelerometer,1.6820861664294587e+18,4.799458740234375,2.1339359283447266,-5.174222469329834,3.358712673187256,,,,,,,,,,,,,,,,,,,,,,,,,,,,,,,
Accelerometer,1.6820861664463268e+18,4.816326904296875,0.8382329940795898,-4.687966346740723,2.486605405807495,,,,,,,,,,,,,,,,,,,,,,,,,,,,,,,
Accelerometer,1.6820861664632044e+18,4.833204345703125,0.5960054397583008,-4.482408046722412,2.321413516998291,,,,,,,,,,,,,,,,,,,,,,,,,,,,,,,
Accelerometer,1.682086166480075e+18,4.850074951171875,0.005986213684082031,-4.809966564178467,3.1319189071655273,,,,,,,,,,,,,,,,,,,,,,,,,,,,,,,
Accelerometer,1.6820861664969472e+18,4.866947265625,-1.1423940658569336,-3.6441173553466797,4.254121780395508,,,,,,,,,,,,,,,,,,,,,,,,,,,,,,,
Accelerometer,1.682086166513824e+18,4.883823974609375,-1.8429508209228516,-2.418396472930908,3.172464370727539,,,,,,,,,,,,,,,,,,,,,,,,,,,,,,,
Accelerometer,1.6820861665306883e+18,4.900688232421875,-3.534301280975342,-3.387988567352295,1.131683588027954,,,,,,,,,,,,,,,,,,,,,,,,,,,,,,,
Accelerometer,1.6820861665475643e+18,4.917564208984375,-7.08197021484375,-4.124120712280273,-0.35849684476852417,,,,,,,,,,,,,,,,,,,,,,,,,,,,,,,
Accelerometer,1.6820861665644406e+18,4.934440673828125,-7.82149600982666,-4.114085674285889,-0.2816038131713867,,,,,,,,,,,,,,,,,,,,,,,,,,,,,,,
Accelerometer,1.682086166581311e+18,4.95131103515625,-8.520050048828125,-4.3668341636657715,0.34754136204719543,,,,,,,,,,,,,,,,,,,,,,,,,,,,,,,
Accelerometer,1.6820861665981832e+18,4.96818310546875,-8.374842643737793,-4.750555038452148,0.7992596626281738,,,,,,,,,,,,,,,,,,,,,,,,,,,,,,,
Accelerometer,1.682086166615057e+18,4.985056884765625,-8.155702590942383,-5.067800998687744,1.236374855041504,,,,,,,,,,,,,,,,,,,,,,,,,,,,,,,
Accelerometer,1.6820861666319288e+18,5.0019287109375,-7.852065563201904,-5.286856651306152,1.6350343227386475,,,,,,,,,,,,,,,,,,,,,,,,,,,,,,,
Accelerometer,1.682086166648802e+18,5.018802001953125,12.139769554138184,23.689579010009766,-24.890661239624023,,,,,,,,,,,,,,,,,,,,,,,,,,,,,,,
Accelerometer,1.6820861666656742e+18,5.03567431640625,8.634541511535645,3.2511510848999023,-5.859668731689453,,,,,,,,,,,,,,,,,,,,,,,,,,,,,,,
Accelerometer,1.6820861666825446e+18,5.052544677734375,16.049911499023438,8.657816886901855,-10.93201732635498,,,,,,,,,,,,,,,,,,,,,,,,,,,,,,,
Accelerometer,1.682086166699422e+18,5.069421875,4.255173683166504,3.430837392807007,-3.651714563369751,,,,,,,,,,,,,,,,,,,,,,,,,,,,,,,
Accelerometer,1.6820861667162926e+18,5.086292724609375,-4.869391441345215,-0.15540766716003418,-3.4714369773864746,,,,,,,,,,,,,,,,,,,,,,,,,,,,,,,
Accelerometer,1.682086166733165e+18,5.1031650390625,-4.1150922775268555,0.9789137840270996,-2.0368967056274414,,,,,,,,,,,,,,,,,,,,,,,,,,,,,,,
Accelerometer,1.682086166750019e+18,5.12001904296875,1.463521957397461,1.266695499420166,2.1462135314941406,,,,,,,,,,,,,,,,,,,,,,,,,,,,,,,
Accelerometer,1.6820861667668997e+18,5.136899658203125,6.841887474060059,1.4115350246429443,0.7107255458831787,,,,,,,,,,,,,,,,,,,,,,,,,,,,,,,
Accelerometer,1.6820861667837732e+18,5.153773193359375,3.8555145263671875,-0.7357563972473145,0.43494510650634766,,,,,,,,,,,,,,,,,,,,,,,,,,,,,,,
Accelerometer,1.6820861668006423e+18,5.170642333984375,-2.266082763671875,-1.1463298797607422,1.391501784324646,,,,,,,,,,,,,,,,,,,,,,,,,,,,,,,
Accelerometer,1.6820861668175314e+18,5.187531494140625,-3.2975573539733887,0.10261774063110352,1.365917444229126,,,,,,,,,,,,,,,,,,,,,,,,,,,,,,,
Accelerometer,1.6820861668344028e+18,5.20440283203125,-1.373814582824707,0.47272801399230957,0.6766866445541382,,,,,,,,,,,,,,,,,,,,,,,,,,,,,,,
Accelerometer,1.6820861668512627e+18,5.2212626953125,0.2125539779663086,0.44074511528015137,0.1841946840286255,,,,,,,,,,,,,,,,,,,,,,,,,,,,,,,
Accelerometer,1.682086166868144e+18,5.23814404296875,-0.21675682067871094,0.2719438076019287,0.8168106079101562,,,,,,,,,,,,,,,,,,,,,,,,,,,,,,,
Accelerometer,1.6820861668850225e+18,5.2550224609375,0.029685020446777344,0.07446122169494629,1.6026520729064941,,,,,,,,,,,,,,,,,,,,,,,,,,,,,,,
Accelerometer,1.6820861669018918e+18,5.271891845703125,0.9759349822998047,-1.098600149154663,1.8177738189697266,,,,,,,,,,,,,,,,,,,,,,,,,,,,,,,
Accelerometer,1.6820861669187546e+18,5.288754638671875,1.2558345794677734,-2.702942371368408,1.3360788822174072,,,,,,,,,,,,,,,,,,,,,,,,,,,,,,,
Accelerometer,1.6820861669356375e+18,5.305637451171875,1.6457099914550781,-3.5204877853393555,0.9465079307556152,,,,,,,,,,,,,,,,,,,,,,,,,,,,,,,
Accelerometer,1.6820861669524972e+18,5.3224970703125,2.775014877319336,-3.0613791942596436,0.21782803535461426,,,,,,,,,,,,,,,,,,,,,,,,,,,,,,,
Accelerometer,1.6820861669693855e+18,5.339385498046875,3.5988616943359375,-3.2807791233062744,-0.12765049934387207,,,,,,,,,,,,,,,,,,,,,,,,,,,,,,,
Accelerometer,1.6820861669862564e+18,5.35625634765625,4.018841743469238,-3.904493808746338,0.31845808029174805,,,,,,,,,,,,,,,,,,,,,,,,,,,,,,,
Accelerometer,1.682086167003128e+18,5.373128173828125,3.6855106353759766,-4.133002281188965,0.30924105644226074,,,,,,,,,,,,,,,,,,,,,,,,,,,,,,,
Accelerometer,1.6820861670200013e+18,5.390001220703125,4.068929672241211,-4.169129848480225,-1.1908063888549805,,,,,,,,,,,,,,,,,,,,,,,,,,,,,,,
Accelerometer,1.682086167036863e+18,5.406863037109375,4.042080879211426,-5.372831344604492,-2.6988425254821777,,,,,,,,,,,,,,,,,,,,,,,,,,,,,,,
Accelerometer,1.6820861670537467e+18,5.42374658203125,1.6998052597045898,-6.729700088500977,-3.6516568660736084,,,,,,,,,,,,,,,,,,,,,,,,,,,,,,,
Accelerometer,1.6820861670706127e+18,5.44061279296875,-0.22989654541015625,-6.887624740600586,-3.7662556171417236,,,,,,,,,,,,,,,,,,,,,,,,,,,,,,,
Accelerometer,1.6820861670874924e+18,5.457492431640625,-1.805765151977539,-5.943706035614014,-5.053465843200684,,,,,,,,,,,,,,,,,,,,,,,,,,,,,,,
Accelerometer,1.6820861671043523e+18,5.474352294921875,-4.021231651306152,-5.234550476074219,-5.709653854370117,,,,,,,,,,,,,,,,,,,,,,,,,,,,,,,
Accelerometer,1.6820861671212378e+18,5.49123779296875,-8.040401458740234,-4.093582630157471,-4.300981521606445,,,,,,,,,,,,,,,,,,,,,,,,,,,,,,,
Accelerometer,1.6820861671380992e+18,5.50809912109375,-9.967531204223633,-5.331872463226318,-0.20347857475280762,,,,,,,,,,,,,,,,,,,,,,,,,,,,,,,
Accelerometer,1.6820861671549814e+18,5.5249814453125,-8.935920715332031,-4.691497325897217,3.3489577770233154,,,,,,,,,,,,,,,,,,,,,,,,,,,,,,,
Accelerometer,1.6820861671718566e+18,5.541856689453125,-8.010523796081543,-4.636870384216309,3.0239267349243164,,,,,,,,,,,,,,,,,,,,,,,,,,,,,,,
Accelerometer,1.682086167188726e+18,5.55872607421875,-8.235143661499023,-6.027261257171631,5.14194917678833,,,,,,,,,,,,,,,,,,,,,,,,,,,,,,,
Accelerometer,1.682086167205603e+18,5.57560302734375,27.734766006469727,0.43714380264282227,17.96890640258789,,,,,,,,,,,,,,,,,,,,,,,,,,,,,,,
Accelerometer,1.6820861672224707e+18,5.592470703125,-7.129644870758057,2.0061235427856445,9.057921409606934,,,,,,,,,,,,,,,,,,,,,,,,,,,,,,,
Accelerometer,1.6820861672393498e+18,5.609349853515625,-6.247014999389648,-0.40178537368774414,4.821577548980713,,,,,,,,,,,,,,,,,,,,,,,,,,,,,,,
Accelerometer,1.6820861672562194e+18,5.626219482421875,0.15558242797851562,5.830937385559082,5.374460220336914,,,,,,,,,,,,,,,,,,,,,,,,,,,,,,,
Accelerometer,1.6820861672730903e+18,5.64309033203125,1.5080108642578125,8.816848754882812,2.5340113639831543,,,,,,,,,,,,,,,,,,,,,,,,,,,,,,,
Accelerometer,1.6820861672899645e+18,5.659964599609375,1.9459848403930664,9.466402053833008,-0.9549781084060669,,,,,,,,,,,,,,,,,,,,,,,,,,,,,,,
Accelerometer,1.6820861673068265e+18,5.676826416015625,0.567845344543457,9.081219673156738,-1.0767247676849365,,,,,,,,,,,,,,,,,,,,,,,,,,,,,,,
Accelerometer,1.6820861673237107e+18,5.693710693359375,0.9043207168579102,0.8949382305145264,-1.0355563163757324,,,,,,,,,,,,,,,,,,,,,,,,,,,,,,,
Accelerometer,1.6820861673405827e+18,5.710582763671875,0.42104244232177734,-0.9905985593795776,-1.0874829292297363,,,,,,,,,,,,,,,,,,,,,,,,,,,,,,,
Accelerometer,1.6820861673574556e+18,5.72745556640625,0.6834936141967773,0.17320668697357178,0.339613676071167,,,,,,,,,,,,,,,,,,,,,,,,,,,,,,,
Accelerometer,1.6820861673743278e+18,5.744327880859375,2.0712242126464844,1.8708288669586182,-1.187734842300415,,,,,,,,,,,,,,,,,,,,,,,,,,,,,,,
Accelerometer,1.682086167391201e+18,5.761200927734375,1.4723281860351562,0.8947720527648926,-2.7242112159729004,,,,,,,,,,,,,,,,,,,,,,,,,,,,,,,
Accelerometer,1.6820861674080732e+18,5.7780732421875,2.8276023864746094,-0.27226316928863525,-1.4596573114395142,,,,,,,,,,,,,,,,,,,,,,,,,,,,,,,
Accelerometer,1.6820861674249577e+18,5.794957763671875,0.9995708465576172,0.011022806167602539,-0.1268150806427002,,,,,,,,,,,,,,,,,,,,,,,,,,,,,,,
Accelerometer,1.6820861674418194e+18,5.8118193359375,1.2046260833740234,1.0638620853424072,0.23078346252441406,,,,,,,,,,,,,,,,,,,,,,,,,,,,,,,
Accelerometer,1.682086167458692e+18,5.828692138671875,1.3685579299926758,1.418346881866455,-0.28484463691711426,,,,,,,,,,,,,,,,,,,,,,,,,,,,,,,
Accelerometer,1.682086167475562e+18,5.84556201171875,1.1673755645751953,0.34358882904052734,-0.9048775434494019,,,,,,,,,,,,,,,,,,,,,,,,,,,,,,,
Accelerometer,1.6820861674924375e+18,5.8624375,0.08123207092285156,-1.0397899150848389,-0.789404034614563,,,,,,,,,,,,,,,,,,,,,,,,,,,,,,,
Accelerometer,1.6820861675093135e+18,5.8793134765625,-0.7703943252563477,-1.9659311771392822,-0.3140125274658203,,,,,,,,,,,,,,,,,,,,,,,,,,,,,,,
Accelerometer,1.6820861675261788e+18,5.8961787109375,-0.7421760559082031,-2.5189998149871826,0.5635895729064941,,,,,,,,,,,,,,,,,,,,,,,,,,,,,,,
Accelerometer,1.6820861675430548e+18,5.913054931640625,1.0390996932983398,-2.994896173477173,1.4077246189117432,,,,,,,,,,,,,,,,,,,,,,,,,,,,,,,
Accelerometer,1.682086167559931e+18,5.929930908203125,1.458608627319336,-3.5492773056030273,2.287290334701538,,,,,,,,,,,,,,,,,,,,,,,,,,,,,,,
Accelerometer,1.6820861675767908e+18,5.946790771484375,1.735372543334961,-4.849148750305176,3.9629456996917725,,,,,,,,,,,,,,,,,,,,,,,,,,,,,,,
Accelerometer,1.682086167593673e+18,5.9636728515625,1.759429931640625,-5.396336555480957,4.163169860839844,,,,,,,,,,,,,,,,,,,,,,,,,,,,,,,
Accelerometer,1.6820861676105462e+18,5.980546142578125,1.7976503372192383,-5.216409683227539,3.124685525894165,,,,,,,,,,,,,,,,,,,,,,,,,,,,,,,
Accelerometer,1.6820861676274194e+18,5.99741943359375,1.202188491821289,-4.7970170974731445,2.703822374343872,,,,,,,,,,,,,,,,,,,,,,,,,,,,,,,
Accelerometer,1.6820861676442913e+18,6.014291259765625,1.5913047790527344,-4.471579551696777,3.772162437438965,,,,,,,,,,,,,,,,,,,,,,,,,,,,,,,
Accelerometer,1.6820861676611648e+18,6.031164794921875,1.6311063766479492,-4.37943172454834,6.392196178436279,,,,,,,,,,,,,,,,,,,,,,,,,,,,,,,
Accelerometer,1.682086167678037e+18,6.048037109375,1.1294775009155273,-4.553840637207031,7.918608665466309,,,,,,,,,,,,,,,,,,,,,,,,,,,,,,,
Accelerometer,1.6820861676949076e+18,6.06490771484375,-0.7780284881591797,-4.2515435218811035,5.5005388259887695,,,,,,,,,,,,,,,,,,,,,,,,,,,,,,,
Accelerometer,1.6820861677117752e+18,6.081775146484375,-5.581948280334473,-4.5055460929870605,3.49342679977417,,,,,,,,,,,,,,,,,,,,,,,,,,,,,,,
Accelerometer,1.6820861677286556e+18,6.098655517578125,-8.300716400146484,-4.911249160766602,1.6818342208862305,,,,,,,,,,,,,,,,,,,,,,,,,,,,,,,
Accelerometer,1.6820861677455278e+18,6.11552783203125,-8.735401153564453,-5.599549293518066,1.4236125946044922,,,,,,,,,,,,,,,,,,,,,,,,,,,,,,,
Accelerometer,1.6820861677623964e+18,6.132396484375,-8.092629432678223,-6.091890811920166,1.9824512004852295,,,,,,,,,,,,,,,,,,,,,,,,,,,,,,,
Accelerometer,1.682086167779267e+18,6.14926708984375,-5.48544979095459,24.292621612548828,-20.701871871948242,,,,,,,,,,,,,,,,,,,,,,,,,,,,,,,
Accelerometer,1.6820861677961467e+18,6.166146728515625,13.425033569335938,2.78768253326416,-6.530499458312988,,,,,,,,,,,,,,,,,,,,,,,,,,,,,,,
Accelerometer,1.682086167813019e+18,6.183018798828125,-1.0743355751037598,1.7555363178253174,-1.0998965501785278,,,,,,,,,,,,,,,,,,,,,,,,,,,,,,,
Accelerometer,1.6820861678298895e+18,6.1998896484375,-2.087369441986084,2.983334541320801,2.0248091220855713,,,,,,,,,,,,,,,,,,,,,,,,,,,,,,,
Accelerometer,1.6820861678467564e+18,6.21675634765625,-0.11826133728027344,1.9134047031402588,2.0061826705932617,,,,,,,,,,,,,,,,,,,,,,,,,,,,,,,
Accelerometer,1.6820861678636344e+18,6.233634521484375,-0.4766712188720703,1.1858155727386475,2.033008337020874,,,,,,,,,,,,,,,,,,,,,,,,,,,,,,,
Accelerometer,1.6820861678805123e+18,6.25051220703125,-0.2866182327270508,1.3250527381896973,1.7014931440353394,,,,,,,,,,,,,,,,,,,,,,,,,,,,,,,
Accelerometer,1.682086167897383e+18,6.2673828125,-0.1414022445678711,3.504650592803955,-0.1279735565185547,,,,,,,,,,,,,,,,,,,,,,,,,,,,,,,
Accelerometer,1.682086167914255e+18,6.284255126953125,-1.3395795822143555,4.027122497558594,0.5129618644714355,,,,,,,,,,,,,,,,,,,,,,,,,,,,,,,
Accelerometer,1.6820861679311286e+18,6.301128662109375,-0.7253017425537109,1.1896038055419922,1.2768447399139404,,,,,,,,,,,,,,,,,,,,,,,,,,,,,,,
Accelerometer,1.6820861679480008e+18,6.318000732421875,-0.38332176208496094,-0.2156069278717041,1.102644920349121,,,,,,,,,,,,,,,,,,,,,,,,,,,,,,,
Accelerometer,1.6820861679648737e+18,6.334873779296875,-0.19957923889160156,-0.9301370978355408,0.38106274604797363,,,,,,,,,,,,,,,,,,,,,,,,,,,,,,,
Accelerometer,1.682086167981746e+18,6.351745849609375,0.9313755035400391,-1.6059507131576538,0.5233068466186523,,,,,,,,,,,,,,,,,,,,,,,,,,,,,,,
Accelerometer,1.6820861679986086e+18,6.368608642578125,1.5687665939331055,-2.467215061187744,0.7273516654968262,,,,,,,,,,,,,,,,,,,,,,,,,,,,,,,
Accelerometer,1.6820861680154918e+18,6.385491943359375,1.8901948928833008,-3.420416831970215,0.7407326698303223,,,,,,,,,,,,,,,,,,,,,,,,,,,,,,,
Accelerometer,1.6820861680323543e+18,6.402354248046875,1.6406421661376953,-4.128294944763184,0.39297986030578613,,,,,,,,,,,,,,,,,,,,,,,,,,,,,,,
Accelerometer,1.6820861680492372e+18,6.4192373046875,1.6979284286499023,-4.880795478820801,-0.5567936897277832,,,,,,,,,,,,,,,,,,,,,,,,,,,,,,,
Accelerometer,1.682086168066092e+18,6.436092041015625,2.335376739501953,-5.872524261474609,-1.8775970935821533,,,,,,,,,,,,,,,,,,,,,,,,,,,,,,,
Accelerometer,1.6820861680829824e+18,6.452982421875,1.7453556060791016,-6.625153541564941,-2.568575620651245,,,,,,,,,,,,,,,,,,,,,,,,,,,,,,,
Accelerometer,1.6820861680998374e+18,6.46983740234375,1.5374784469604492,-6.991539001464844,-2.4071907997131348,,,,,,,,,,,,,,,,,,,,,,,,,,,,,,,
Accelerometer,1.6820861681167173e+18,6.48671728515625,2.066779136657715,-6.9326372146606445,-2.6614575386047363,,,,,,,,,,,,,,,,,,,,,,,,,,,,,,,
Accelerometer,1.6820861681336008e+18,6.503600830078125,2.3634185791015625,-7.227941513061523,-3.4603793621063232,,,,,,,,,,,,,,,,,,,,,,,,,,,,,,,
Accelerometer,1.6820861681504768e+18,6.520476806640625,1.8738632202148438,-7.280097007751465,-4.463679313659668,,,,,,,,,,,,,,,,,,,,,,,,,,,,,,,
Accelerometer,1.6820861681673439e+18,6.53734375,0.6304121017456055,-7.204191207885742,-6.243788719177246,,,,,,,,,,,,,,,,,,,,,,,,,,,,,,,
Accelerometer,1.6820861681842163e+18,6.55421630859375,-3.5483717918395996,-6.355587959289551,-7.692875385284424,,,,,,,,,,,,,,,,,,,,,,,,,,,,,,,
Accelerometer,1.6820861682010947e+18,6.5710947265625,-7.680255889892578,-6.2695207595825195,-6.729410171508789,,,,,,,,,,,,,,,,,,,,,,,,,,,,,,,
Accelerometer,1.6820861682179643e+18,6.58796435546875,-7.566636085510254,-6.952860355377197,-3.237557888031006,,,,,,,,,,,,,,,,,,,,,,,,,,,,,,,
Accelerometer,1.6820861682348273e+18,6.6048271484375,-9.387141227722168,-5.029956340789795,2.095806121826172,,,,,,,,,,,,,,,,,,,,,,,,,,,,,,,
Accelerometer,1.6820861682517102e+18,6.621710205078125,-8.846839904785156,-2.92729115486145,2.7826850414276123,,,,,,,,,,,,,,,,,,,,,,,,,,,,,,,
Accelerometer,1.6820861682685832e+18,6.638583251953125,-8.724108695983887,-3.362043857574463,1.431862473487854,,,,,,,,,,,,,,,,,,,,,,,,,,,,,,,
Accelerometer,1.6820861682854554e+18,6.655455322265625,10.022041320800781,0.23219823837280273,10.286687850952148,,,,,,,,,,,,,,,,,,,,,,,,,,,,,,,
Accelerometer,1.6820861683023288e+18,6.672328857421875,-9.219964981079102,9.562463760375977,13.899260520935059,,,,,,,,,,,,,,,,,,,,,,,,,,,,,,,
Accelerometer,1.682086168319201e+18,6.689200927734375,-7.181499004364014,8.730883598327637,10.176647186279297,,,,,,,,,,,,,,,,,,,,,,,,,,,,,,,
Accelerometer,1.682086168336074e+18,6.706073974609375,-5.010907173156738,9.954927444458008,11.803362846374512,,,,,,,,,,,,,,,,,,,,,,,,,,,,,,,
Accelerometer,1.6820861683529382e+18,6.722938232421875,-2.467930793762207,6.483343124389648,6.81231689453125,,,,,,,,,,,,,,,,,,,,,,,,,,,,,,,
Accelerometer,1.68208616836982e+18,6.73981982421875,-2.2973666191101074,-1.3529157638549805,0.4024771451950073,,,,,,,,,,,,,,,,,,,,,,,,,,,,,,,
Accelerometer,1.6820861683866985e+18,6.756698486328125,-8.619232177734375,-4.424712657928467,-4.669061183929443,,,,,,,,,,,,,,,,,,,,,,,,,,,,,,,
Accelerometer,1.6820861684035653e+18,6.7735654296875,2.3546791076660156,-1.983929991722107,-6.4441046714782715,,,,,,,,,,,,,,,,,,,,,,,,,,,,,,,
Accelerometer,1.6820861684204252e+18,6.79042529296875,3.150056838989258,0.4989192485809326,-3.6827945709228516,,,,,,,,,,,,,,,,,,,,,,,,,,,,,,,
Accelerometer,1.6820861684373123e+18,6.807312255859375,0.4055652618408203,1.03371262550354,-0.8240108489990234,,,,,,,,,,,,,,,,,,,,,,,,,,,,,,,
Accelerometer,1.682086168454181e+18,6.82418115234375,-0.11561393737792969,0.0182037353515625,1.9995579719543457,,,,,,,,,,,,,,,,,,,,,,,,,,,,,,,
Accelerometer,1.6820861684710564e+18,6.841056396484375,0.7042646408081055,-0.7804346680641174,2.70381498336792,,,,,,,,,,,,,,,,,,,,,,,,,,,,,,,
Accelerometer,1.6820861684879194e+18,6.85791943359375,3.6549196243286133,1.3850215673446655,-0.6561558246612549,,,,,,,,,,,,,,,,,,,,,,,,,,,,,,,
Accelerometer,1.6820861685047982e+18,6.874798095703125,2.6803321838378906,1.4336775541305542,-2.424104690551758,,,,,,,,,,,,,,,,,,,,,,,,,,,,,,,
Accelerometer,1.6820861685216778e+18,6.891677734375,1.4185028076171875,0.8446459770202637,-3.1788415908813477,,,,,,,,,,,,,,,,,,,,,,,,,,,,,,,
Accelerometer,1.6820861685385472e+18,6.908547119140625,0.8771810531616211,0.6959601640701294,-1.9019310474395752,,,,,,,,,,,,,,,,,,,,,,,,,,,,,,,
Accelerometer,1.6820861685554194e+18,6.92541943359375,0.27429962158203125,1.0833781957626343,-1.1202460527420044,,,,,,,,,,,,,,,,,,,,,,,,,,,,,,,
Accelerometer,1.6820861685722926e+18,6.942292724609375,-0.23263072967529297,0.9074892997741699,-1.2431771755218506,,,,,,,,,,,,,,,,,,,,,,,,,,,,,,,
Accelerometer,1.682086168589154e+18,6.959154052734375,-0.366790771484375,0.09760594367980957,-1.1203027963638306,,,,,,,,,,,,,,,,,,,,,,,,,,,,,,,
Accelerometer,1.6820861686060385e+18,6.97603857421875,-0.18610382080078125,-0.8157064318656921,-0.7529821395874023,,,,,,,,,,,,,,,,,,,,,,,,,,,,,,,
Accelerometer,1.6820861686229107e+18,6.99291064453125,0.20265960693359375,-1.4547423124313354,0.0702919214963913,,,,,,,,,,,,,,,,,,,,,,,,,,,,,,,
Accelerometer,1.682086168639781e+18,7.009781005859375,0.6433486938476562,-2.0475823879241943,0.792794942855835,,,,,,,,,,,,,,,,,,,,,,,,,,,,,,,
Accelerometer,1.6820861686566497e+18,7.026649658203125,0.7564611434936523,-2.5000178813934326,1.5037925243377686,,,,,,,,,,,,,,,,,,,,,,,,,,,,,,,
Accelerometer,1.682086168673529e+18,7.043529052734375,0.6821508407592773,-2.8439314365386963,2.2619690895080566,,,,,,,,,,,,,,,,,,,,,,,,,,,,,,,
Accelerometer,1.6820861686904013e+18,7.0604013671875,1.1991949081420898,-3.244767427444458,2.2816162109375,,,,,,,,,,,,,,,,,,,,,,,,,,,,,,,
Accelerometer,1.6820861687072753e+18,7.077275146484375,2.057065963745117,-3.297391891479492,2.4499030113220215,,,,,,,,,,,,,,,,,,,,,,,,,,,,,,,
Accelerometer,1.6820861687241462e+18,7.094146240234375,1.6629562377929688,-3.7335290908813477,2.661569356918335,,,,,,,,,,,,,,,,,,,,,,,,,,,,,,,
Accelerometer,1.6820861687410289e+18,7.11102880859375,1.6724910736083984,-4.090628623962402,2.94260311126709,,,,,,,,,,,,,,,,,,,,,,,,,,,,,,,
Accelerometer,1.6820861687578929e+18,7.127892822265625,2.0884904861450195,-4.11152982711792,3.311863899230957,,,,,,,,,,,,,,,,,,,,,,,,,,,,,,,
Accelerometer,1.6820861687747656e+18,7.144765625,1.394669532775879,-3.845287799835205,4.048757553100586,,,,,,,,,,,,,,,,,,,,,,,,,,,,,,,
Accelerometer,1.6820861687916372e+18,7.16163720703125,1.9251699447631836,-3.7913870811462402,6.041896820068359,,,,,,,,,,,,,,,,,,,,,,,,,,,,,,,
Accelerometer,1.682086168808521e+18,7.17852099609375,3.9406261444091797,-4.275063514709473,8.3695068359375,,,,,,,,,,,,,,,,,,,,,,,,,,,,,,,
Accelerometer,1.6820861688253814e+18,7.19538134765625,3.208592414855957,-4.9113240242004395,7.623729705810547,,,,,,,,,,,,,,,,,,,,,,,,,,,,,,,
Accelerometer,1.6820861688422566e+18,7.212256591796875,1.106520652770996,-5.761343955993652,5.867843151092529,,,,,,,,,,,,,,,,,,,,,,,,,,,,,,,
Accelerometer,1.6820861688591293e+18,7.22912939453125,-3.507697582244873,-6.284320831298828,3.3360512256622314,,,,,,,,,,,,,,,,,,,,,,,,,,,,,,,
Accelerometer,1.682086168876006e+18,7.246005859375,-8.72542953491211,-4.843262672424316,3.0423645973205566,,,,,,,,,,,,,,,,,,,,,,,,,,,,,,,
